name,region,lat,lon,contentid,image_url,tags,checkin_time,checkout_time,room_count,parking,facilities,detailed_keywords,keywords
가경재,경상북도,36.537653745,128.5175868107,2465071,,"관광,숙박",,,,,,[],
가람초연재,경상북도,36.5390674494,128.5163479914,1865597,,"관광,숙박",,,,,,[],
가름게스트하우스,제주특별자치도,33.2365870334,126.5123383804,1896032,,"관광,숙박",,,,,,[],
가리벨리 관광펜션(가리벨리관광펜션휴양타운),강원특별자치도,38.0731872541,128.338376768,2571998,,"관광,숙박",,,,,,[],
가리왕산이야기 펜션,강원특별자치도,37.4241170266,128.5773915547,582215,,"관광,숙박",,,,,,[],
가보호텔,경기도,36.9932008224,127.1128582139,143017,,"관광,숙박",,,,,,[],
가비원모텔[한국관광 품질인증/Korea Quality],경상남도,35.189798812,127.6231054334,2950408,,"관광,숙박",,,,,,[],
가시버시펜션,경기도,37.5258897391,127.6019460659,942523,,"관광,숙박",,,,,,[],
가영당,충청북도,36.7351218825,127.4055417589,2707444,,"관광,숙박",,,,,,[],
가은채,전북특별자치도,35.8170640681,127.1532917977,2593271,,"관광,숙박",,,,,,[],
가은채2,전북특별자치도,35.8155697973,127.1535195942,2593272,,"관광,숙박",,,,,,[],
가을동화펜션,강원특별자치도,37.627297584,128.3519002081,2376711,,"관광,숙박",,,,,,[],
가재와곰펜션,강원특별자치도,37.6609429108,128.3109751158,2708335,,"관광,숙박",,,,,,[],
가평 하이랜드,경기도,37.9524878464,127.4766116592,1979670,,"관광,숙박",,,,,,[],
가평미라몬티풀빌라펜션,경기도,37.902313818,127.5134792182,2814152,,"관광,숙박",,,,,,[],
강가에 하얀집 펜션,강원특별자치도,37.1788536889,128.4347977723,1122064,,"관광,숙박",,,,,,[],
강가의성,강원특별자치도,37.6915933201,127.7832358849,940259,,"관광,숙박",,,,,,[],
강과 소나무[한국관광 품질인증/Korea Quality],강원특별자치도,37.4518927338,128.636668723,2398168,,"관광,숙박",,,,,,[],
강남스테이힐(Gangnam Stay Hill),서울특별시,37.5034291706,127.0301236613,2574118,,"관광,숙박",,,,,,[],
강남아르누보씨티호텔,서울특별시,37.4934664031,127.0281518997,2650614,,"관광,숙박",,,,,,[],
강릉 로뎀나무 펜션,강원특별자치도,37.8118978545,128.898017522,2913612,,"관광,숙박",,,,,,[],
강릉 부띠끄호텔 봄봄[한국관광 품질인증/Korea Quality],강원특별자치도,37.7666443332,128.8762486624,2903046,,"관광,숙박",,,,,,[],
강릉ing게스트하우스[한국관광 품질인증/Korea Quality],강원특별자치도,37.7615677151,128.9056239515,2398102,,"관광,숙박",,,,,,[],
강릉게스트하우스 중앙점[한국관광 품질인증/Korea Quality],강원특별자치도,37.7564042254,128.8954528054,2038173,,"관광,숙박",,,,,,[],
강릉선교장[한국관광 품질인증/Korea Quality],강원특별자치도,37.7855756438,128.8848528574,1989501,,"관광,숙박",,,,,,[],
강릉시 청소년 해양수련원,강원특별자치도,37.9149286939,128.8123942726,587289,,"관광,숙박",,,,,,[],
강릉오죽한옥마을,강원특별자치도,37.7773875687,128.8779926182,2531222,,"관광,숙박",,,,,,[],
강변에서 황토콘도,강원특별자치도,38.0100072208,128.2720847253,138547,,"관광,숙박",,,,,,[],
강변의수채화 펜션,강원특별자치도,37.6861096552,127.7311991032,678537,,"관광,숙박",,,,,,[],
강애산애펜션,강원특별자치도,37.634452247,128.3485086325,2760767,,"관광,숙박",,,,,,[],
강이 있는 풍경 펜션,경상북도,36.6628987224,128.1204936198,2568981,,"관광,숙박",,,,,,[],
강이흐르는마을 펜션,강원특별자치도,37.3697517144,128.6109401719,137913,,"관광,숙박",,,,,,[],
강촌 느티나무마을펜션,강원특별자치도,37.8118376994,127.6345597418,139190,,"관광,숙박",,,,,,[],
강촌잠빌펜션,강원특별자치도,37.7976922103,127.6393291693,2913427,,"관광,숙박",,,,,,[],
강현재,전라남도,34.9492242389,127.204373414,2814166,,"관광,숙박",,,,,,[],
강화유스호스텔,인천광역시,37.7045385779,126.3745584698,136605,,"관광,숙박",,,,,,[],
강화평화빌리지,인천광역시,37.7866919073,126.4771467709,2521964,,"관광,숙박",,,,,,[],
개여울,강원특별자치도,37.6477364536,128.3292516392,2761333,,"관광,숙박",,,,,,[],
개울가펜션,경기도,37.5971718095,127.378050444,913186,,"관광,숙박",,,,,,[],
개울한옥민박,전라남도,34.5159721453,126.6616456733,2574326,,"관광,숙박",,,,,,[],
갤러리 마중(GALLERY MAJUNG),경상남도,35.1495308342,128.6987178062,2569612,,"관광,숙박",,,,,,[],
갤러리&펜션 풍경소리,강원특별자치도,38.0375689808,128.4726878934,139867,,"관광,숙박",,,,,,[],
갤러리하우스모텔,강원특별자치도,38.1034772614,127.7045446926,628541,,"관광,숙박",,,,,,[],
갤럭시 모텔,강원특별자치도,37.2294806274,128.8420903297,139224,,"관광,숙박",,,,,,[],
갤럭시관광호텔,경상북도,36.0572107071,129.3778357821,2004586,,"관광,숙박",,,,,,[],
갯바위펜션,경상남도,34.8895753425,128.4742332018,590873,,"관광,숙박",,,,,,[],
거목장민박,전라남도,34.5084470868,126.6067506789,2593235,,"관광,숙박",,,,,,[],
거제 썬트리팜리조트,경상남도,34.7381729828,128.6384673539,397642,,"관광,숙박",,,,,,[],
거제관광호텔,경상남도,34.8880476491,128.6239840921,142984,,"관광,숙박",,,,,,[],
거제도 펜션팔색조,경상남도,34.8179980439,128.6739454941,138703,,"관광,숙박",,,,,,[],
거제도섬마을펜션,경상남도,34.8115239389,128.6835031689,139689,,"관광,숙박",,,,,,[],
거제삼성호텔,경상남도,34.8961937511,128.6123460004,143125,,"관광,숙박",,,,,,[],
거창 수승대 웰빙하우스,경상남도,35.762260108,127.8373992144,2572890,,"관광,숙박",,,,,,[],
게더링 앳 홍대1(게더링앳홍대),서울특별시,37.5632120044,126.9248537833,2572777,,"관광,숙박",,,,,,[],
게더링 앳 홍대2(게더링앳홍대),서울특별시,37.5632120044,126.9248537833,2572779,,"관광,숙박",,,,,,[],
게스트하우스 play at home(플레이앳홈),경상북도,36.5672736337,128.7215095058,2569003,,"관광,숙박",,,,,,[],
게스트하우스 류가(Guest House Ryuga),서울특별시,37.5489302228,126.9187769621,2574220,,"관광,숙박",,,,,,[],
게스트하우스 여정,전북특별자치도,35.9890284828,126.7089658538,2594149,,"관광,숙박",,,,,,[],
게스트하우스여정,전북특별자치도,35.9889673773,126.7088936401,2575689,,"관광,숙박",,,,,,[],
결성향교,충청남도,36.5287943496,126.5432499636,2570229,,"관광,숙박",,,,,,[],
경원BIZ모텔,울산광역시,35.5151783876,129.4317771276,1144607,,"관광,숙박",,,,,,[],
경원재 바이 워커힐,인천광역시,37.3923573144,126.6378263887,2475088,,"관광,숙박",,,,,,[],
경주 감포한옥펜션,경상북도,35.8153264806,129.5008736523,2570570,,"관광,숙박",,,,,,[],
경주 소울메이트,경상북도,35.8407151896,129.2031545416,3049913,,"관광,숙박",,,,,,[],
경주 아드리아 펜션,경상북도,35.8331896597,129.2771371628,1991611,,"관광,숙박",,,,,,[],
경주 파인데이 게스트하우스,경상북도,35.837315891,129.2199864967,2570737,,"관광,숙박",,,,,,[],
경주 포시즌 게스트하우스,경상북도,35.7824101947,129.3256565861,397640,,"관광,숙박",,,,,,[],
경주수호정,경상북도,35.8368574416,129.2110983992,2446529,,"관광,숙박",,,,,,[],
경주스위트호텔,경상북도,35.8538484443,129.2774337692,970463,,"관광,숙박",,,,,,[],
경주애견펜션 노비오스,경상북도,35.7821186485,129.3302728568,912647,,"관광,숙박",,,,,,[],
경주오릉한옥,경상북도,35.8258280631,129.2074990288,2706608,,"관광,숙박",,,,,,[],
경주천년한옥펜션,경상북도,35.7741216208,129.2929124645,2047199,,"관광,숙박",,,,,,[],
경주한옥1번가,경상북도,35.8257226259,129.2131318712,2531357,,"관광,숙박",,,,,,[],
경주황룡유스호스텔,경상북도,35.7846821981,129.3276257935,139204,,"관광,숙박",,,,,,[],
경주휴원,경상북도,35.8271220352,129.1902060635,1972448,,"관광,숙박",,,,,,[],
경포도도애견펜션,강원특별자치도,37.8081785994,128.8856798604,2913606,,"관광,숙박",,,,,,[],
경포우성펜션,강원특별자치도,37.8015407965,128.9019563769,973640,,"관광,숙박",,,,,,[],
계곡과소나무 펜션,경기도,37.9524357148,127.3606916905,2738740,,"관광,숙박",,,,,,[],
계곡의아침,경기도,37.9228495542,127.1696127979,946313,,"관광,숙박",,,,,,[],
계룡산작은쉼터,충청남도,36.3702038686,127.1622096615,397793,,"관광,숙박",,,,,,[],
계방산자연농원,강원특별자치도,37.6677119454,128.4762516515,2760291,,"관광,숙박",,,,,,[],
계절이 지나가는 하늘,강원특별자치도,37.5771709059,128.3968893211,2760209,,"관광,숙박",,,,,,[],
고다리조트,강원특별자치도,38.1998081745,127.2827665343,2907711,,"관광,숙박",,,,,,[],
고려호텔,경기도,37.5054905901,126.7495491678,143138,,"관광,숙박",,,,,,[],
고려호텔,경상북도,36.5644908297,128.7327530324,3044522,,"관광,숙박",,,,,,[],
고북밸리,경기도,37.590298653,127.5865233716,912101,,"관광,숙박",,,,,,[],
고성 최필간고택,경상남도,34.9505829528,128.1936699642,1990092,,"관광,숙박",,,,,,[],
고성이씨 탑동종택,경상북도,36.569298832,128.7442796474,2597551,,"관광,숙박",,,,,,[],
고양국제청소년문화센터 유스센터,경기도,37.6754854695,126.7926626777,2818337,,"관광,숙박",,,,,,[],
고운[한국관광 품질인증/Korea Quality],서울특별시,37.5830052419,126.9858393299,2950469,,"관광,숙박",,,,,,[],
고유[한국관광 품질인증/Korea Quality],전북특별자치도,35.8121035044,127.1523281243,2651962,,"관광,숙박",,,,,,[],
고유한관광농원펜션,전라남도,34.6845607383,127.2762320498,2814167,,"관광,숙박",,,,,,[],
고창 선운산 유스호스텔,전북특별자치도,35.5034316425,126.5831950164,137499,,"관광,숙박",,,,,,[],
고창읍성한옥마을,전북특별자치도,35.4324750976,126.7061747553,2049790,,"관광,숙박",,,,,,[],
고추잠자리,인천광역시,37.4704965856,126.7016156268,1204528,,"관광,숙박",,,,,,[],
고택 한옥에서,전라남도,35.2376996952,127.0206073559,1991992,,"관광,숙박",,,,,,[],
고현당,전북특별자치도,35.8152920547,127.1537251387,2572898,,"관광,숙박",,,,,,[],
고흐와 해바라기,강원특별자치도,37.6981217506,127.7097007019,777162,,"관광,숙박",,,,,,[],
곡성강빛마을펜션,전라남도,35.1414961238,127.3138311326,2650770,,"관광,숙박",,,,,,[],
골드브라운호텔,광주광역시,35.1447806716,126.9179409931,3044523,,"관광,숙박",,,,,,[],
골드코스트호텔 인천,인천광역시,37.402493486,126.7079891583,3049916,,"관광,숙박",,,,,,[],
골든리버호텔,경기도,37.4477052284,126.8828497488,3081264,,"관광,숙박",,,,,,[],
골든비즈니스호텔,경상남도,35.1778370506,128.1403742084,3081232,,"관광,숙박",,,,,,[],
골든튤립 호텔 남강,경상남도,35.1916150997,128.0865896708,2664597,,"관광,숙박",,,,,,[],
골든파크 호텔,전라남도,34.7435344863,127.7504446011,1624188,,"관광,숙박",,,,,,[],
곰펜션,강원특별자치도,37.7023181112,127.6895135236,628690,,"관광,숙박",,,,,,[],
공방스테이,강원특별자치도,38.3161126498,128.5290796659,3068031,,"관광,숙박",,,,,,[],
공주한옥마을,충청남도,36.4649420636,127.1082758351,1867806,,"관광,숙박",,,,,,[],
관광펜션 시실리(평창시실리펜션),강원특별자치도,37.6986597858,128.5504134632,2569016,,"관광,숙박",,,,,,[],
관음사가는길펜션,제주특별자치도,33.4375488373,126.5544690871,2486105,,"관광,숙박",,,,,,[],
광림모텔,강원특별자치도,38.1839433186,128.600293992,137324,,"관광,숙박",,,,,,[],
광명JS부티크호텔,경기도,37.4743241106,126.8688780525,3081237,,"관광,숙박",,,,,,[],
광장호텔,부산광역시,35.1162158418,129.0413666394,142874,,"관광,숙박",,,,,,[],
광주 아우라 비즈니스 호텔,광주광역시,35.1383348473,126.7928938784,2701047,,"관광,숙박",,,,,,[],
교대게스트하우스,서울특별시,37.4933329219,127.0190443994,2528117,,"관광,숙박",,,,,,[],
구례 자연드림파크 휴펜션,전라남도,35.2732079973,127.4141827985,2555815,,"관광,숙박",,,,,,[],
구룡포 까르페 모텔,경상북도,35.9916632324,129.557994112,3049856,,"관광,숙박",,,,,,[],
구름속의 산책 키즈풀빌라,강원특별자치도,37.6421465983,127.6506354843,1851928,,"관광,숙박",,,,,,[],
구름에달가듯이,경기도,37.4926634451,127.4729253954,902648,,"관광,숙박",,,,,,[],
구름위의산책,경상남도,34.9755824961,128.1693186595,397834,,"관광,숙박",,,,,,[],
구름위의테라스,강원특별자치도,37.6792486745,128.7222096747,2761805,,"관광,숙박",,,,,,[],
구쁘다 아띠야,전북특별자치도,35.8089066603,127.153136469,2571954,,"관광,숙박",,,,,,[],
구월호텔,인천광역시,37.4409418292,126.7097184878,2539567,,"관광,숙박",,,,,,[],
구토란펜션,경상북도,35.7519410756,129.1607746629,2531281,,"관광,숙박",,,,,,[],
국군대천콘도,충청남도,36.3017339486,126.5219994994,3083643,,"관광,숙박",,,,,,[],
군위 상매댁(군위남천고택),대구광역시,36.0586774643,128.6540133379,2605489,,"관광,숙박",,,,,,[],
굿모닝가족호텔,강원특별자치도,38.190645317,128.6003326682,397656,,"관광,숙박",,,,,,[],
굿모닝레지던스호텔휴,대전광역시,36.3522820205,127.3816682769,1932079,,"관광,숙박",,,,,,[],
귀애고택,경상북도,36.0570150915,128.8741439717,1992038,,"관광,숙박",,,,,,[],
귤익는마을,제주특별자치도,33.3441111157,126.8501205782,138494,,"관광,숙박",,,,,,[],
그라시아펜션,강원특별자치도,37.3188925817,129.2720297377,2907234,,"관광,숙박",,,,,,[],
그람피하우스,충청남도,36.6565756082,126.3079150768,1932645,,"관광,숙박",,,,,,[],
그랑샤리오,강원특별자치도,37.478646613,128.2730117727,2913632,,"관광,숙박",,,,,,[],
그래비티 서울 판교 오토그래프 컬렉션,경기도,37.3933767103,127.1101250514,2819450,,"관광,숙박",,,,,,[],
그랜드 머큐어 앰배서더 창원,경상남도,35.2393394091,128.6551886257,620794,,"관광,숙박",,,,,,[],
그랜드 모텔,전라남도,34.3181846283,126.7498315599,137981,,"관광,숙박",,,,,,[],
그랜드 인터컨티넨탈 서울 파르나스,서울특별시,37.5095984514,127.0608845757,142769,,"관광,숙박",,,,,,[],
그랜드 인투라온 호텔 정선,강원특별자치도,37.2267414821,128.8123847368,2913870,,"관광,숙박",,,,,,[],
그랜드 인투라온호텔 정선,강원특별자치도,37.2267414821,128.8123847368,2725982,,"관광,숙박",,,,,,[],
그랜드 조선 제주,제주특별자치도,33.2501588629,126.4063028265,2819964,,"관광,숙박",,,,,,[],
그랜드 하얏트 인천,인천광역시,37.4404402287,126.4574442965,143090,,"관광,숙박",,,,,,[],
그랜드 하얏트 제주,제주특별자치도,33.4852923931,126.4814715703,2876795,,"관광,숙박",,,,,,[],
그랜드모텔[한국관광 품질인증/Korea Quality],충청남도,36.7271043609,126.8345989455,2651804,,"관광,숙박",,,,,,[],
그랜드시티호텔 창원[한국관광 품질인증/Korea Quality],경상남도,35.2215279553,128.6791092398,2652384,,"관광,숙박",,,,,,[],
그랜드플라자 청주호텔,충청북도,36.6666091257,127.4945134437,1992755,,"관광,숙박",,,,,,[],
그램호텔,경기도,37.7114606048,127.1870700941,2472515,,"관광,숙박",,,,,,[],
그레이193호텔,부산광역시,35.1540103687,129.1245417048,2816102,,"관광,숙박",,,,,,[],
그레이호텔,강원특별자치도,37.7667165432,128.8760764538,2902806,,"관광,숙박",,,,,,[],
그리네펜션,강원특별자치도,37.6352382676,128.3485613819,2761408,,"관광,숙박",,,,,,[],
그린랜드,경기도,37.7095120761,126.9484863658,3018583,,"관광,숙박",,,,,,[],
그린모텔,강원특별자치도,38.1873124871,127.2867693147,137644,,"관광,숙박",,,,,,[],
그린빌펜션,전라남도,34.725016935,127.0896974158,232291,,"관광,숙박",,,,,,[],
그린사이드,제주특별자치도,33.2564832418,126.4112189253,733624,,"관광,숙박",,,,,,[],
그린캠프유스호스텔,경기도,37.9321416459,127.5537941058,137995,,"관광,숙박",,,,,,[],
그린피아관광호텔,경기도,37.2038214009,126.9834446399,3081864,,"관광,숙박",,,,,,[],
그린하이츠모텔,경기도,37.7779734656,126.7891406539,746777,,"관광,숙박",,,,,,[],
그린향펜션,강원특별자치도,37.2855330666,129.2996699614,2913767,,"관광,숙박",,,,,,[],
그린힐펜션,경기도,38.0526209682,127.3453207065,685661,,"관광,숙박",,,,,,[],
그림같은집,강원특별자치도,37.5970753228,128.3119741644,2760248,,"관광,숙박",,,,,,[],
그림리조트,제주특별자치도,33.5162143194,126.5034939547,138597,,"관광,숙박",,,,,,[],
그림일기(그림일기펜션),충청남도,36.6410856421,126.3029464884,2574134,,"관광,숙박",,,,,,[],
그집이야기,경상남도,34.8218504905,128.3694913286,594387,,"관광,숙박",,,,,,[],
글래드 강남 코엑스센터,서울특별시,37.508876379,127.0645564837,3514681,,"관광,숙박",,,,,,[],
글래드 여의도,서울특별시,37.5274632459,126.9172804818,3492920,,"관광,숙박",,,,,,[],
글렌즈 게스트하우스(글렌즈게스트하우스),대구광역시,35.8633459531,128.6070729458,2571937,,"관광,숙박",,,,,,[],
글로리펜션,경상남도,34.7166640972,128.6287632071,641808,,"관광,숙박",,,,,,[],
글로스터호텔 인천,인천광역시,37.4003414436,126.7354589383,2708337,,"관광,숙박",,,,,,[],
글로스터호텔 제주,제주특별자치도,33.4901448115,126.4926621543,3089186,,"관광,숙박",,,,,,[],
금강산콘도,강원특별자치도,38.5108294531,128.4193668841,137477,,"관광,숙박",,,,,,[],
금농헌,전북특별자치도,35.8203387678,127.1574468976,2570576,,"관광,숙박",,,,,,[],
금단영[한국관광 품질인증/Korea Quality],제주특별자치도,33.3621237068,126.1936576942,3047975,,"관광,숙박",,,,,,[],
금마관,전북특별자치도,35.9963447951,127.059295472,2574164,,"관광,숙박",,,,,,[],
금수장관광호텔,광주광역시,35.1621787163,126.9184960636,136416,,"관광,숙박",,,,,,[],
금오봉한옥펜션캠핑장 (금오봉 후연지),경상북도,35.780788629,129.2037117516,2574179,,"관광,숙박",,,,,,[],
금주산방 까사펜션,경기도,37.9739955553,127.2771403628,903973,,"관광,숙박",,,,,,[],
기린모텔,전북특별자치도,36.0076401692,127.6592195217,2593245,,"관광,숙박",,,,,,[],
기쁨이 가득한 곳,전라남도,35.0863988421,126.4472840945,609928,,"관광,숙박",,,,,,[],
기와집농박,강원특별자치도,37.6200179858,128.3579415476,2801493,,"관광,숙박",,,,,,[],
길펜션,경기도,37.9501174575,127.2593065796,904638,,"관광,숙박",,,,,,[],
김천파크 관광호텔,경상북도,36.1160259279,128.0169236874,143003,,"관광,숙박",,,,,,[],
김치다운타운 게스트하우스 1B,서울특별시,37.5607518982,126.9649724176,2569038,,"관광,숙박",,,,,,[],
김치한옥게스트하우스,서울특별시,37.5780972142,126.971082481,2572845,,"관광,숙박",,,,,,[],
김포아트빌리지 전통한옥숙박체험관,경기도,37.6466871063,126.6962278583,2574186,,"관광,숙박",,,,,,[],
김해 넘버25호텔,경상남도,35.2347889109,128.9037642749,2502642,,"관광,숙박",,,,,,[],
김해한옥체험관[한국관광 품질인증/Korea Quality],경상남도,35.234077393,128.8772360521,2652952,,"관광,숙박",,,,,,[],
김호장군고택(경주 월암종택),경상북도,35.8196011984,129.2186426739,2570584,,"관광,숙박",,,,,,[],
까델아스 리조트,제주특별자치도,33.4758888442,126.3671844993,735314,,"관광,숙박",,,,,,[],
까미노(Camino) bnb,경상남도,35.2426003363,128.6652043289,2618541,,"관광,숙박",,,,,,[],
까사델아야,강원특별자치도,38.2683742906,128.5559176078,2574195,,"관광,숙박",,,,,,[],
까사모로,강원특별자치도,37.6969385561,127.7097562874,629269,,"관광,숙박",,,,,,[],
까사미니호텔[한국관광 품질인증/Korea Quality],경상북도,35.8410207302,129.2041877755,2949835,,"관광,숙박",,,,,,[],
까사초당,강원특별자치도,37.7872371221,128.9135279997,2913643,,"관광,숙박",,,,,,[],
까펠라 모텔,대전광역시,36.3587724087,127.3514708022,138836,,"관광,숙박",,,,,,[],
꼬뜨도르 호텔,제주특별자치도,33.5521887531,126.716877367,735781,,"관광,숙박",,,,,,[],
꼬마성,강원특별자치도,37.5658323796,128.3470191606,2761315,,"관광,숙박",,,,,,[],
꽃과 호수의 집,경기도,37.649318745,126.7743317576,2595494,,"관광,숙박",,,,,,[],
꽃내음펜션,강원특별자치도,37.283605469,129.2976007605,2913764,,"관광,숙박",,,,,,[],
꿈꾸는 노마드,제주특별자치도,33.2417251539,126.49956715,2528102,,"관광,숙박",,,,,,[],
꿈동산펜션,강원특별자치도,38.0542258804,128.2094557318,138046,,"관광,숙박",,,,,,[],
꿈속에 그린 펜션,강원특별자치도,37.4934390412,128.256812794,398138,,"관광,숙박",,,,,,[],
꿈의궁전모텔,강원특별자치도,38.2376843687,127.4365624173,626319,,"관광,숙박",,,,,,[],
끄라비 펜션,제주특별자치도,33.2795057737,126.5914111187,1891015,,"관광,숙박",,,,,,[],
나.미.송,제주특별자치도,33.430314132,126.4177005773,1869305,,"관광,숙박",,,,,,[],
나들한옥,경상북도,35.8361159955,129.2183644504,2595871,,"관광,숙박",,,,,,[],
나디아민박,강원특별자치도,37.3851232734,129.2422775823,2913780,,"관광,숙박",,,,,,[],
나루게스트하우스,서울특별시,37.5513826997,126.9179214153,2576469,,"관광,숙박",,,,,,[],
나무향기펜션,경상남도,34.841754191,128.6998481684,2569057,,"관광,숙박",,,,,,[],
나무호텔,서울특별시,37.5473643444,127.107215397,3303810,,"관광,숙박",,,,,,[],
나봄 S&HOTEL,대전광역시,36.425904356,127.3932957905,2930309,,"관광,숙박",,,,,,[],
나봄리조트,전북특별자치도,35.69967531,127.5106075964,1934699,,"관광,숙박",,,,,,[],
나이아가라호텔,서울특별시,37.5492794642,126.8786333892,143130,,"관광,숙박",,,,,,[],
나인밸리파크,충청북도,36.4291484926,127.8607067082,137379,,"관광,숙박",,,,,,[],
나인브릭호텔,서울특별시,37.5538352404,126.920584992,2918636,,"관광,숙박",,,,,,[],
나인스파빌,제주특별자치도,33.445393216,126.4301213796,2498670,,"관광,숙박",,,,,,[],
나인원펜션,강원특별자치도,37.8025678434,128.8705730629,2913594,,"관광,숙박",,,,,,[],
나포리모텔,경상북도,35.8711900157,128.1792077024,2413542,,"관광,숙박",,,,,,[],
나폴리모텔,경상남도,34.844857261,128.4261052378,595573,,"관광,숙박",,,,,,[],
낙산 패밀리파크,강원특별자치도,38.1187875731,128.6293156121,138224,,"관광,숙박",,,,,,[],
낙산디그니티호텔,강원특별자치도,38.1085750898,128.6405454674,2710726,,"관광,숙박",,,,,,[],
낙산비치호텔,강원특별자치도,38.1236064859,128.6308125493,2710618,,"관광,숙박",,,,,,[],
남문한옥 대명헌,인천광역시,37.7448386068,126.4856055,2706769,,"관광,숙박",,,,,,[],
남산호스텔,서울특별시,37.5580831159,126.9846040375,2487684,,"관광,숙박",,,,,,[],
남순재,전라남도,34.6207030837,127.3855740593,3416791,,"관광,숙박",,,,,,[],
남원예촌,전북특별자치도,35.4044425675,127.3793935943,2528155,,"관광,숙박",,,,,,[],
남이섬설리조트,강원특별자치도,37.7958524789,127.5822871919,2907740,,"관광,숙박",,,,,,[],
남이섬하늘사랑,경기도,37.8099747356,127.5227144237,3416148,,"관광,숙박",,,,,,[],
남해 디풀빌라,경상남도,34.7077714996,128.050638747,2819569,,"관광,숙박",,,,,,[],
남해 산마루 펜션,경상남도,34.8849981779,128.0104154637,3044526,,"관광,숙박",,,,,,[],
남해비치호텔[한국관광 품질인증/Korea Quality],경상남도,34.7680900048,127.9063359046,232318,,"관광,숙박",,,,,,[],
남해펜션920,경상남도,34.7283078158,127.8759368002,1997502,,"관광,숙박",,,,,,[],
남해펜션타운,경상남도,34.7821449125,127.9593142498,912530,,"관광,숙박",,,,,,[],
남현당,서울특별시,37.5744812737,126.9881310293,1868919,,"관광,숙박",,,,,,[],
남호구택,경상북도,36.8938305643,128.7124007849,2594864,,"관광,숙박",,,,,,[],
낭만시대 게스트하우스(낭만시대),전북특별자치도,35.8180749794,127.1484144273,2570681,,"관광,숙박",,,,,,[],
너랑온펜션,강원특별자치도,37.5909132366,129.0891321745,2913809,,"관광,숙박",,,,,,[],
너른바위,강원특별자치도,37.7476331449,128.032217193,398005,,"관광,숙박",,,,,,[],
너와 나의 둥지,전라남도,34.7410561431,126.7181380382,2569105,,"관광,숙박",,,,,,[],
넘버25 수원화성행궁점,경기도,37.2802937185,127.0179532651,2849981,,"관광,숙박",,,,,,[],
넘버25 호텔 남춘천점,강원특별자치도,37.8650250479,127.7349295905,3044527,,"관광,숙박",,,,,,[],
네스트호텔,인천광역시,37.4246137307,126.4253948792,3464661,,"관광,숙박",,,,,,[],
노고단 게스트하우스&호텔,전라남도,35.3165566847,127.4605109267,2531516,,"관광,숙박",,,,,,[],
노떼 라 미아 호텔,부산광역시,35.111846856,129.0397363452,2892757,,"관광,숙박",,,,,,[],
노보텔 앰배서더 서울 동대문 호텔 & 레지던스,서울특별시,37.5663519553,127.0043936669,3337233,,"관광,숙박",,,,,,[],
노보텔 앰배서더 수원,경기도,37.2685364102,126.9991164145,3511808,,"관광,숙박",,,,,,[],
노블 스테이 (Noble Stay),광주광역시,35.2168158192,126.8493230352,2701043,,"관광,숙박",,,,,,[],
노블레스호텔,광주광역시,35.1532091689,126.8523993549,496378,,"관광,숙박",,,,,,[],
노블레스호텔,전라남도,34.9547596839,127.5258700132,1836374,,"관광,숙박",,,,,,[],
노블리온호텔,경상북도,36.0123485256,129.3470064513,2912307,,"관광,숙박",,,,,,[],
노송정종택(퇴계생가),경상북도,36.749721482,128.8283502491,1877477,,"관광,숙박",,,,,,[],
노스텔지아 펜션,강원특별자치도,38.2018466144,127.2713369669,560988,,"관광,숙박",,,,,,[],
노을&바다 펜션,인천광역시,37.2792950491,126.4569820867,554419,,"관광,숙박",,,,,,[],
노을내리는아름다운집,인천광역시,37.6890725216,126.3063373769,2593573,,"관광,숙박",,,,,,[],
노을빛바다펜션,전라남도,35.0658744564,126.3438937605,2486495,,"관광,숙박",,,,,,[],
노을빛호수(드림레이크),충청북도,37.0197697697,128.1684096512,907780,,"관광,숙박",,,,,,[],
녹운재,전북특별자치도,35.9028641921,127.2425815969,2049307,,"관광,숙박",,,,,,[],
녹차향펜션,전라남도,34.6710257106,127.0861462829,139787,,"관광,숙박",,,,,,[],
녹천모텔,경기도,37.8015067567,127.2461565494,139069,,"관광,숙박",,,,,,[],
녹천호텔 [한국관광 품질인증/Korea Quality],부산광역시,35.2205354427,129.0808964546,2637949,,"관광,숙박",,,,,,[],
논산 명재고택,충청남도,36.2818689912,127.1312092519,1992090,,"관광,숙박",,,,,,[],
놀러와락 게스트하우스,경상북도,35.840671254,129.2298383153,2435566,,"관광,숙박",,,,,,[],
누와,서울특별시,37.57963031,126.9677966258,2707440,,"관광,숙박",,,,,,[],
눈꽃새 펜션,강원특별자치도,37.5982146808,128.3436379383,2801460,,"관광,숙박",,,,,,[],
눈꽃여행,전북특별자치도,35.9124582874,127.7567356523,2575832,,"관광,숙박",,,,,,[],
뉴 동해 관광호텔,강원특별자치도,37.5263487322,129.103080138,142819,,"관광,숙박",,,,,,[],
뉴라온스테이,경상남도,35.17846752,128.1395409315,2804300,,"관광,숙박",,,,,,[],
뉴서울호텔,서울특별시,37.5679762959,126.9781960083,142740,,"관광,숙박",,,,,,[],
뉴스타트설악리조트[한국관광 품질인증/Korea Quality],강원특별자치도,38.1684962792,128.5171325821,658582,,"관광,숙박",,,,,,[],
뉴월드,강원특별자치도,37.4961773648,128.2436361227,139054,,"관광,숙박",,,,,,[],
뉴천지호텔,서울특별시,37.5658881006,127.003324333,142763,,"관광,숙박",,,,,,[],
늘송파크텔,제주특별자치도,33.4875921654,126.4831824807,824811,,"관광,숙박",,,,,,[],
늘푸른 펜션,강원특별자치도,38.1882151606,127.2868359485,563322,,"관광,숙박",,,,,,[],
능마루게스트하우스(Nungmaru Guesthouse),서울특별시,37.558783047,126.9852928439,2570238,,"관광,숙박",,,,,,[],
니어리스트(니어리스트 게스트하우스),전북특별자치도,35.8204274628,127.1468589489,2569116,,"관광,숙박",,,,,,[],
다가가다한옥,강원특별자치도,38.0967673294,127.7257151829,2531375,,"관광,숙박",,,,,,[],
다나하루(다나하루 게스트하우스),전북특별자치도,35.811786838,127.150258872,2571938,,"관광,숙박",,,,,,[],
다담한옥,울산광역시,35.5883742852,129.0598575408,2994636,,"관광,숙박",,,,,,[],
다모디(다모디펜션),경상북도,36.0519317884,129.5770045806,2570683,,"관광,숙박",,,,,,[],
다빈치모텔,강원특별자치도,37.6829822412,129.0419780047,1470072,,"관광,숙박",,,,,,[],
다솜채,광주광역시,35.1389709668,126.7976628846,2528122,,"관광,숙박",,,,,,[],
다숲펜션[한국관광 품질인증/Korea Quality],전북특별자치도,35.8993934347,127.7752121438,2652800,,"관광,숙박",,,,,,[],
다우리조텔[한국관광 품질인증/Korea Quality],강원특별자치도,37.7044625619,129.0148492225,1037300,,"관광,숙박",,,,,,[],
다이아모텔,전라남도,34.7396735106,127.7333017539,1144770,,"관광,숙박",,,,,,[],
다인리조트,제주특별자치도,33.4714751921,126.3512637615,660876,,"관광,숙박",,,,,,[],
다인빌펜션,경상남도,35.5211531119,129.0081694902,139905,,"관광,숙박",,,,,,[],
다인오세아노 호텔,제주특별자치도,33.4725306183,126.3504804724,2918447,,"관광,숙박",,,,,,[],
다자연 게스트하우스,서울특별시,37.5739508464,126.9918362628,2465524,,"관광,숙박",,,,,,[],
다차펜션,강원특별자치도,37.5606217551,128.3408865362,2760320,,"관광,숙박",,,,,,[],
다향소축,전라남도,34.578899862,126.7489142648,1870767,,"관광,숙박",,,,,,[],
다향펜션,경상남도,34.8671663312,128.4514802185,591320,,"관광,숙박",,,,,,[],
단양관광호텔,충청북도,36.9820885696,128.348144639,142985,,"관광,숙박",,,,,,[],
단양추억펜션,충청북도,37.0428882901,128.409412377,2571935,,"관광,숙박",,,,,,[],
단촌서원고택,충청북도,36.9295138086,128.3352223243,2594513,,"관광,숙박",,,,,,[],
달[한국관광 품질인증/Korea Quality],전북특별자치도,35.9860399047,126.7071910901,2652937,,"관광,숙박",,,,,,[],
달빛마을,강원특별자치도,37.237951469,128.82096141,899292,,"관광,숙박",,,,,,[],
달빛미소,전라남도,34.7405200884,126.717926959,2706641,,"관광,숙박",,,,,,[],
달빛이머무는집,경기도,37.4448527949,127.498943857,397919,,"관광,숙박",,,,,,[],
달빛한옥 수류화개,전라남도,34.7391480054,126.7170159613,2701356,,"관광,숙박",,,,,,[],
달빛한옥민박 별유풍경,전라남도,34.7402229174,126.7189990939,2570339,,"관광,숙박",,,,,,[],
달의 정원,경상남도,35.7900725493,128.0873319214,2595847,,"관광,숙박",,,,,,[],
담모라 호텔앤리조트,제주특별자치도,33.2497489991,126.3060420916,3076467,,"관광,숙박",,,,,,[],
담소정[한국관광 품질인증/Korea Quality],서울특별시,37.5813970676,126.9842978496,1870779,,"관광,숙박",,,,,,[],
담앤루리조트,제주특별자치도,33.2458850471,126.4515573305,719643,,"관광,숙박",,,,,,[],
담양 파라다이스 관광농원,전라남도,35.3499736731,127.0535043746,3006610,,"관광,숙박",,,,,,[],
당진시티호텔(CITY HOTEL),충청남도,36.8872687085,126.645625591,3083564,,"관광,숙박",,,,,,[],
당항포관광지 펜션,경상남도,35.0563858594,128.3986687125,2708664,,"관광,숙박",,,,,,[],
대관령그린필드펜션,강원특별자치도,37.7097473866,128.6943556966,2761650,,"관광,숙박",,,,,,[],
대관령로뎀나무,강원특별자치도,37.6305779804,128.6536978883,2761378,,"관광,숙박",,,,,,[],
대관령아름다운펜션,강원특별자치도,37.6640141399,128.7126082279,2761649,,"관광,숙박",,,,,,[],
대관령에델바이스펜션,강원특별자치도,37.6644057335,128.7111750118,2761023,,"관광,숙박",,,,,,[],
대관령옛길펜션-바이올렛,강원특별자치도,37.679440344,128.7234706665,2800978,,"관광,숙박",,,,,,[],
대관령옛길펜션-화이트,강원특별자치도,37.679440344,128.7234706665,2800979,,"관광,숙박",,,,,,[],
대관령하우스,강원특별자치도,37.6893506818,128.7427547368,2761180,,"관광,숙박",,,,,,[],
대구 메리어트 호텔,대구광역시,35.8753644169,128.6276707967,2721572,,"관광,숙박",,,,,,[],
대구 수성 더 아르코 호텔 라이온즈파크점,대구광역시,35.837111422,128.6823003874,3483254,,"관광,숙박",,,,,,[],
대구그랜드호텔,대구광역시,35.8576997042,128.6251881746,142884,,"관광,숙박",,,,,,[],
대궐파크,강원특별자치도,38.1895175764,128.5955053642,137326,,"관광,숙박",,,,,,[],
대명관광호텔,강원특별자치도,38.2397147156,127.4381205474,626378,,"관광,숙박",,,,,,[],
대박이하우스,강원특별자치도,37.5560773752,128.3165999753,2801445,,"관광,숙박",,,,,,[],
대부도 펜션시티,경기도,37.2365745437,126.5896489527,2530438,,"관광,숙박",,,,,,[],
대성 정담한옥,전북특별자치도,35.7967584787,127.1783262132,2695742,,"관광,숙박",,,,,,[],
대승한지마을한옥전통문화체험관,전북특별자치도,35.8540512032,127.2941671834,2047895,,"관광,숙박",,,,,,[],
대우모텔[한국관광 품질인증/Korea Quality],서울특별시,37.5627574515,126.9778489655,2593577,,"관광,숙박",,,,,,[],
대전라마다호텔,대전광역시,36.3532395885,127.3447160004,2913368,,"관광,숙박",,,,,,[],
대천리조텔,충청남도,36.3118132339,126.5152942843,2770515,,"관광,숙박",,,,,,[],
댕댕별숲,경기도,37.5264983788,127.6224386348,3346822,,"관광,숙박",,,,,,[],
더 레드 하우스,강원특별자치도,38.1696183575,128.516454831,2042125,,"관광,숙박",,,,,,[],
더 마크 호텔,충청북도,36.6256848648,127.4286732595,2905374,,"관광,숙박",,,,,,[],
더 세리 리조트,제주특별자치도,33.2470442084,126.5120270623,2531355,,"관광,숙박",,,,,,[],
더 스테이호텔,경기도,37.8319693258,127.5187446955,1871302,,"관광,숙박",,,,,,[],
더 케이 호텔 경주,경상북도,35.8396308748,129.2917023695,143006,,"관광,숙박",,,,,,[],
더 휴,강원특별자치도,37.6372712595,128.3429618269,2801433,,"관광,숙박",,,,,,[],
더낙산호텔,강원특별자치도,38.1198458197,128.6312015196,3082568,,"관광,숙박",,,,,,[],
더리버사이드 호텔,서울특별시,37.5187882827,127.0180965434,984650,,"관광,숙박",,,,,,[],
더마루,강원특별자치도,37.6714188107,128.7111331341,2757748,,"관광,숙박",,,,,,[],
더메이 포레스트빌,서울특별시,37.5624163549,127.0073907279,2576342,,"관광,숙박",,,,,,[],
더메이하우스,서울특별시,37.5679474641,126.9191652788,2569138,,"관광,숙박",,,,,,[],
더메이호텔,전북특별자치도,35.8598887519,127.0957069152,2783770,,"관광,숙박",,,,,,[],
더베이스,충청북도,36.9590806079,127.9268136349,142839,,"관광,숙박",,,,,,[],
더뷰티호텔,강원특별자치도,37.7615120471,128.8995078373,2595938,,"관광,숙박",,,,,,[],
더블루힐 주문진,강원특별자치도,37.9037245526,128.8183135301,3089090,,"관광,숙박",,,,,,[],
더블유펜션[한국관광 품질인증/Korea Quality],강원특별자치도,37.2913296315,129.3001141884,2950340,,"관광,숙박",,,,,,[],
더블트리 바이 힐튼 서울 판교,경기도,37.3803753356,127.104350943,3339599,,"관광,숙박",,,,,,[],
더블트리 바이 힐튼 서울 판교 레지던스,경기도,37.3803753356,127.104350943,3341885,,"관광,숙박",,,,,,[],
더블힐링펜션,전북특별자치도,35.6677507252,126.5161746257,2570435,,"관광,숙박",,,,,,[],
더쉼팡스파앤풀빌라,제주특별자치도,33.3121805593,126.8037086578,2751860,,"관광,숙박",,,,,,[],
더스테이센추리호텔,제주특별자치도,33.4848968405,126.4089334423,3090896,,"관광,숙박",,,,,,[],
더스트림 펜션,경상북도,36.3933621979,129.4144977328,2015506,,"관광,숙박",,,,,,[],
더앤리조트,강원특별자치도,37.9435939963,128.7703943992,3469367,,"관광,숙박",,,,,,[],
더엠모텔,부산광역시,35.1553518905,129.124827755,706836,,"관광,숙박",,,,,,[],
더위트도고(더위트도고콘도),충청남도,36.7612263701,126.8881931869,2769724,,"관광,숙박",,,,,,[],
더잭슨나인스호텔,강원특별자치도,37.8738097495,127.7141506657,2804265,,"관광,숙박",,,,,,[],
더케이설악산가족호텔,강원특별자치도,38.1664916893,128.5549097685,136077,,"관광,숙박",,,,,,[],
더파크 게스트하우스(The Park Guesthouse),부산광역시,35.1548434836,129.1177811592,2531399,,"관광,숙박",,,,,,[],
더퍼스트스테이 호텔,서울특별시,37.5596969407,126.8362119654,2528110,,"관광,숙박",,,,,,[],
더퍼피즈블루오션,강원특별자치도,38.1420178776,128.6124858594,2913633,,"관광,숙박",,,,,,[],
더펫텔프리미엄스위트,부산광역시,35.1592408683,129.1531418525,2754601,,"관광,숙박",,,,,,[],
더한옥&스파,대구광역시,35.8730750953,128.5901741636,2384350,,"관광,숙박",,,,,,[],
더홍씨호텔 강릉,강원특별자치도,37.7654611398,128.8763847983,3083920,,"관광,숙박",,,,,,[],
더화이트호텔,강원특별자치도,37.5764559003,128.3337978129,2759294,,"관광,숙박",,,,,,[],
더휴식 고요37호텔 오산점,경기도,37.1453880311,127.0697301124,3485310,,"관광,숙박",,,,,,[],
더휴식 누베르 서울 이태원점,서울특별시,37.5343166442,126.9963480845,3483874,,"관광,숙박",,,,,,[],
더휴식 심도 호텔 앤 스파 신림역점,서울특별시,37.4849767581,126.9309248799,3485369,,"관광,숙박",,,,,,[],
더휴식 심작호텔 동탄점,경기도,37.2181103345,127.0786744954,3483559,,"관광,숙박",,,,,,[],
더휴식 아늑 워커스 안산점,경기도,37.3097209861,126.8687937702,3483847,,"관광,숙박",,,,,,[],
더휴식 아늑료칸호텔 파주금촌점,경기도,37.7607835685,126.7760478947,3485238,,"관광,숙박",,,,,,[],
더휴식 아늑호텔 구리점,경기도,37.5978618519,127.1402053982,3485420,,"관광,숙박",,,,,,[],
더휴식 아늑호텔 수원 인계점,경기도,37.2668148935,127.0274888877,3483793,,"관광,숙박",,,,,,[],
더휴식 아늑호텔 신촌점,서울특별시,37.5566685829,126.9394887448,3483920,,"관광,숙박",,,,,,[],
더휴식 아늑호텔 오산점,경기도,37.1460157673,127.0714966018,3484668,,"관광,숙박",,,,,,[],
더휴식 아늑호텔 월곶점,경기도,37.3906815526,126.7410170333,3483480,,"관광,숙박",,,,,,[],
더휴식 아늑호텔 인천 부평점,인천광역시,37.4920556421,126.7270738152,3483444,,"관광,숙박",,,,,,[],
더휴식 아늑호텔 인천구월점,인천광역시,37.4524625835,126.7023993906,3483655,,"관광,숙박",,,,,,[],
더휴식 아늑호텔 일산탄현점,경기도,37.69210799,126.7621733286,3485478,,"관광,숙박",,,,,,[],
더휴식 아늑호텔 홍대점,서울특별시,37.5556128081,126.9203877378,3485523,,"관광,숙박",,,,,,[],
더휴식 크로와상호텔 구리점,경기도,37.5978617912,127.1368445936,3483408,,"관광,숙박",,,,,,[],
더히든풀빌라,경상북도,35.862266732,129.2665205958,3486975,,"관광,숙박",,,,,,[],
덕구온천호텔&콘도,경상북도,37.0790592288,129.2842331949,142962,,"관광,숙박",,,,,,[],
덕동댁,경상북도,35.6668362609,128.2279478614,1870849,,"관광,숙박",,,,,,[],
덕선재[한국관광 품질인증/Korea Quality],서울특별시,37.6403644085,126.939608586,2695752,,"관광,숙박",,,,,,[],
데네브펜션,충청남도,36.6783559141,126.2776394664,138502,,"관광,숙박",,,,,,[],
데이나이스호텔,충청남도,36.3125908818,126.512925033,2594495,,"관광,숙박",,,,,,[],
데이즈호텔 앤 스위트 인천에어포트,인천광역시,37.4934818752,126.4912730778,2594928,,"관광,숙박",,,,,,[],
데이지풀빌라,경기도,37.2312119051,126.6255402784,3417153,,"관광,숙박",,,,,,[],
도고 글로리콘도,충청남도,36.7654231248,126.8890846592,136118,,"관광,숙박",,,,,,[],
도그밀리(DOGMILY),강원특별자치도,37.4781855533,128.2729367936,2801593,,"관광,숙박",,,,,,[],
도원,전북특별자치도,35.8078483941,127.1500923233,2574225,,"관광,숙박",,,,,,[],
도원펜션,강원특별자치도,37.439346746,128.6255423231,625851,,"관광,숙박",,,,,,[],
도자기펜션,인천광역시,37.2680712064,126.4486470408,696845,,"관광,숙박",,,,,,[],
도정서원[한국관광 품질인증/Korea Quality],경상북도,36.6503212085,128.5058485043,2637776,,"관광,숙박",,,,,,[],
돈막골펜션,강원특별자치도,37.3761089277,128.4447854699,2759968,,"관광,숙박",,,,,,[],
돌배나무세그루,강원특별자치도,37.6016731609,128.3723852403,2801405,,"관광,숙박",,,,,,[],
돌핀스모텔,경상북도,36.0538166295,129.3769442922,609076,,"관광,숙박",,,,,,[],
동강빌리지,강원특별자치도,37.2005581189,128.5073211811,138384,,"관광,숙박",,,,,,[],
동구박펜션(동구박 관광펜션),경기도,37.1469538171,127.3403500267,2569755,,"관광,숙박",,,,,,[],
동국대학교 만해마을,강원특별자치도,38.1859431442,128.3161336509,3044530,,"관광,숙박",,,,,,[],
동궁 유스호스텔,경상북도,35.7841766353,129.324228882,397639,,"관광,숙박",,,,,,[],
동근재(同根齋),경상북도,36.5680099083,128.7346194314,2570440,,"관광,숙박",,,,,,[],
동락원,전북특별자치도,35.8168613026,127.1526585258,2595021,,"관광,숙박",,,,,,[],
동림하녹[한국관광 품질인증/Korea Quality],경상북도,36.5595298712,128.710788459,2950935,,"관광,숙박",,,,,,[],
동미산펜션,경기도,37.1618559294,126.6185122607,2626608,,"관광,숙박",,,,,,[],
동박생이,제주특별자치도,33.5584753917,126.7927872971,2358196,,"관광,숙박",,,,,,[],
동방모텔,강원특별자치도,37.1838537389,128.4678807683,622333,,"관광,숙박",,,,,,[],
동아호텔,강원특별자치도,37.1762034265,128.986826216,3044531,,"관광,숙박",,,,,,[],
동쪽바다프리미엄하우스(카페앤라씨),강원특별자치도,37.5584730968,129.1179250382,2913716,,"관광,숙박",,,,,,[],
동학사 발리모텔,충청남도,36.3670919426,127.2533654689,2373162,,"관광,숙박",,,,,,[],
동해 글로리아펜션,강원특별자치도,37.5914826072,129.0887294151,2913714,,"관광,숙박",,,,,,[],
동해 스테이,강원특별자치도,37.5208941211,129.1192260813,3049910,,"관광,숙박",,,,,,[],
동해망상해변한옥촌,강원특별자치도,37.6004758135,129.0784856123,2711374,,"관광,숙박",,,,,,[],
동해한옥 동안재,강원특별자치도,37.528245844,129.1086184721,2595489,,"관광,숙박",,,,,,[],
동화킴스관광호텔,서울특별시,37.6095047467,126.9751367762,143005,,"관광,숙박",,,,,,[],
두리 게스트 하우스(두리 게스트하우스),서울특별시,37.5916412712,127.0371538525,2569926,,"관광,숙박",,,,,,[],
두바이호텔,광주광역시,35.1541368479,126.8527548561,2595647,,"관광,숙박",,,,,,[],
두산민박,강원특별자치도,37.6434302338,128.5592143471,2800349,,"관광,숙박",,,,,,[],
두호텔 [한국관광 품질인증/Korea Quality],강원특별자치도,38.1966081465,128.5815591871,2950412,,"관광,숙박",,,,,,[],
둥지민박,강원특별자치도,37.7152976898,128.5993224317,2800543,,"관광,숙박",,,,,,[],
둥지펜션,경기도,37.5911088377,127.3897245573,943142,,"관광,숙박",,,,,,[],
둥지황토펜션,경기도,37.1386072672,127.3241683915,983626,,"관광,숙박",,,,,,[],
드래곤밸리 호텔,강원특별자치도,37.6509516248,128.705523154,142814,,"관광,숙박",,,,,,[],
드레피인풀빌라,경상남도,34.886189268,128.4551321768,2987248,,"관광,숙박",,,,,,[],
드림파크모텔,강원특별자치도,38.1874013615,127.2865526651,626425,,"관광,숙박",,,,,,[],
드림힐펜션,강원특별자치도,37.2118978554,128.4743682457,622580,,"관광,숙박",,,,,,[],
들꽃나라펜션,강원특별자치도,37.9324656329,128.3858573274,139171,,"관광,숙박",,,,,,[],
등대게스트하우스,전라남도,34.790192344,126.3848412502,2592543,,"관광,숙박",,,,,,[],
등대비치 레지던스 호텔[한국관광 품질인증/Korea Quality],강원특별자치도,38.2146230046,128.5963739446,2907253,,"관광,숙박",,,,,,[],
디 엠프레스 호텔,대전광역시,36.3569839334,127.3632670174,2392995,,"관광,숙박",,,,,,[],
디바인호텔,광주광역시,35.1402867746,126.9203158958,3044532,,"관광,숙박",,,,,,[],
디아넥스호텔,제주특별자치도,33.3030666935,126.3926444971,3031466,,"관광,숙박",,,,,,[],
디아크리조트,전라남도,34.7018115021,127.7575505957,2621426,,"관광,숙박",,,,,,[],
딜라이트 호텔 (HOTEL DELIGHT),서울특별시,37.5181843998,127.1071912285,2504658,,"관광,숙박",,,,,,[],
땅끝방갈로펜션,전라남도,34.3090901871,126.5179743288,2569638,,"관광,숙박",,,,,,[],
또 다른 이야기,전라남도,34.7114699949,127.0160819954,3310791,,"관광,숙박",,,,,,[],
또바기콘도펜션,강원특별자치도,37.2634202932,128.7965850491,2913798,,"관광,숙박",,,,,,[],
뜨레가,전북특별자치도,35.811673034,127.154402951,2570244,,"관광,숙박",,,,,,[],
뜰안채,전북특별자치도,35.8171362131,127.149336592,2576343,,"관광,숙박",,,,,,[],
"라르고빌리조트(웨이브하우스, 가든하우스)",인천광역시,37.6409018417,126.3909948401,2593672,,"관광,숙박",,,,,,[],
"라르고빌리조트(테라스하우스,하버하우스)",인천광역시,37.6408490705,126.3910281715,1747883,,"관광,숙박",,,,,,[],
라마다 바이 윈덤 구미 호텔,경상북도,36.109917289,128.4183521711,2772398,,"관광,숙박",,,,,,[],
라마다 스위츠 거제,경상남도,34.8403376748,128.6994093553,3049260,,"관광,숙박",,,,,,[],
라마다 앙코르 바이윈덤 부산 해운대,부산광역시,35.1633127546,129.159643953,2502361,,"관광,숙박",,,,,,[],
라마다 앙코르 바이윈덤 부산역 호텔,부산광역시,35.1142827065,129.0403528921,2832276,,"관광,숙박",,,,,,[],
라마다 호텔앤스위트 서울남대문,서울특별시,37.5599882243,126.9720106869,2708334,,"관광,숙박",,,,,,[],
라마다속초호텔,강원특별자치도,38.1742974102,128.6101517316,2907277,,"관광,숙박",,,,,,[],
라마다송도호텔,인천광역시,37.4142550819,126.6554241786,142801,,"관광,숙박",,,,,,[],
라마다앙코르 바이윈덤 김포한강호텔,경기도,37.601363421,126.7859014954,2874683,,"관광,숙박",,,,,,[],
라마다프라자 광주호텔,광주광역시,35.1520675999,126.8505745449,701870,,"관광,숙박",,,,,,[],
라마다프라자 바이윈덤 여수,전라남도,34.7170457484,127.74829824,2708659,,"관광,숙박",,,,,,[],
라마다프라자 수원호텔,경기도,37.2777887112,127.0324436868,971242,,"관광,숙박",,,,,,[],
라마다프라자호텔 자은도,전라남도,34.8502605348,126.0407758115,3403857,,"관광,숙박",,,,,,[],
라마다플라자 충장호텔,광주광역시,35.1478052258,126.9117803505,3425575,,"관광,숙박",,,,,,[],
라마다호텔&스위트평창,강원특별자치도,37.6600535915,128.7180384153,2757631,,"관광,숙박",,,,,,[],
라바호텔,서울특별시,37.4865502789,127.0136311949,3084396,,"관광,숙박",,,,,,[],
라발스호텔,부산광역시,35.0945543359,129.0391368689,2708673,,"관광,숙박",,,,,,[],
라벤다모텔,강원특별자치도,37.4454814409,129.1629328225,139835,,"관광,숙박",,,,,,[],
라비드아틀란호텔2,부산광역시,35.1611685856,129.1615188489,2708705,,"관광,숙박",,,,,,[],
라비앙펜션,강원특별자치도,37.6207205325,128.3500727931,2913634,,"관광,숙박",,,,,,[],
라온스테이 인 페를라 호텔,경상남도,35.1781564448,128.1395742698,2585795,,"관광,숙박",,,,,,[],
라온한옥꿀잠,전북특별자치도,35.8158364483,127.1543139612,2574250,,"관광,숙박",,,,,,[],
라운지하우스 제주다,제주특별자치도,33.2232794901,126.2926827266,137826,,"관광,숙박",,,,,,[],
라이브풍경펜션,전북특별자치도,35.9931796262,127.5986475168,2445661,,"관광,숙박",,,,,,[],
라이즈오토그래프컬렉션,서울특별시,37.5543879654,126.9212210297,2905416,,"관광,숙박",,,,,,[],
라이크유[한국관광 품질인증/Korea Quality],서울특별시,37.5564295139,126.9278870311,2531431,,"관광,숙박",,,,,,[],
라이트하우스호텔,경상남도,34.8632578822,128.7295783462,1746368,,"관광,숙박",,,,,,[],
라이프스타일 F호텔,서울특별시,37.5171809991,126.9112341004,509241,,"관광,숙박",,,,,,[],
라이프위드도그,강원특별자치도,38.0017435255,128.2319275136,2911299,,"관광,숙박",,,,,,[],
라인69모텔,경상남도,34.8898474614,128.6247339793,3049881,,"관광,숙박",,,,,,[],
라임미니호텔,경상북도,35.9503583351,128.9066330233,2015575,,"관광,숙박",,,,,,[],
라임호텔,전북특별자치도,35.8331653376,127.1718952761,2399572,,"관광,숙박",,,,,,[],
라자호텔,서울특별시,37.5154402929,127.1082634313,136310,,"관광,숙박",,,,,,[],
라카이 샌드파인,강원특별자치도,37.8070679831,128.9044337601,1798704,,"관광,숙박",,,,,,[],
라테라스 코브 스위트(라테라스 부티크 리조트 앤 스파),전라남도,34.7087912587,127.7565088433,2621530,,"관광,숙박",,,,,,[],
라트리호텔,경기도,37.7498540505,127.0720072667,3091337,,"관광,숙박",,,,,,[],
라한셀렉트 경주,경상북도,35.8496156116,129.2786198974,3337718,,"관광,숙박",,,,,,[],
라한호텔 전주,전북특별자치도,35.817075192,127.1540833932,2945609,,"관광,숙박",,,,,,[],
라한호텔 포항,경상북도,36.0645459792,129.3773689438,2010024,,"관광,숙박",,,,,,[],
락고재 안동(하회),경상북도,36.5407422751,128.5172423083,1871262,,"관광,숙박",,,,,,[],
락이당[한국관광 품질인증/Korea Quality],서울특별시,37.582785839,126.9867475868,2950473,,"관광,숙박",,,,,,[],
락있수다펜션,강원특별자치도,37.2898069861,128.8402581218,2913794,,"관광,숙박",,,,,,[],
랑 스튜디오,경상북도,35.6676139652,128.2287561023,2047441,,"관광,숙박",,,,,,[],
랜딩관 제주신화월드 호텔 앤 리조트,제주특별자치도,33.3050013908,126.3163621886,2561880,,"관광,숙박",,,,,,[],
럭셔리관광호텔(오산),경기도,37.1456547287,127.0732103455,139522,,"관광,숙박",,,,,,[],
레드,서울특별시,37.5583997489,126.98475957,2576479,,"관광,숙박",,,,,,[],
레몬그라스,경기도,37.6180045949,127.6311685121,2814153,,"관광,숙박",,,,,,[],
레스케이프 호텔(L’Escape Hotel),서울특별시,37.5597189467,126.9795572285,2586384,,"관광,숙박",,,,,,[],
레스트호텔,경기도,37.6399821341,126.6851123961,2894945,,"관광,숙박",,,,,,[],
레이지폭스,서울특별시,37.5535740414,126.9139772681,2576453,,"관광,숙박",,,,,,[],
레이크베이호스텔,경기도,37.6564872867,126.7705263475,2918421,,"관광,숙박",,,,,,[],
레이크오션,강원특별자치도,38.2389335139,128.5681618599,2902851,,"관광,숙박",,,,,,[],
레이크힐스 골프텔 안성,경기도,37.0852139911,127.2006310558,138451,,"관광,숙박",,,,,,[],
레이크힐스 호텔 속리산,충청북도,36.5345469134,127.825765228,143060,,"관광,숙박",,,,,,[],
레인보우호텔,서울특별시,37.5414987089,126.9721584183,1834542,,"관광,숙박",,,,,,[],
렉스관광호텔,서울특별시,37.5144221668,127.020546444,3080539,,"관광,숙박",,,,,,[],
렉시모텔(구 에덴파크),전라남도,34.7347572534,127.7251359267,725425,,"관광,숙박",,,,,,[],
로뎀나무펜션,강원특별자치도,37.3271985911,128.3344440687,2800430,,"관광,숙박",,,,,,[],
로얄 홈스테이(로얄홈스테이),서울특별시,37.4748123521,126.9912835604,2569543,,"관광,숙박",,,,,,[],
로얄장모텔,강원특별자치도,37.3682311021,128.3943791272,2761671,,"관광,숙박",,,,,,[],
로얄호텔서울,서울특별시,37.5640963258,126.9857148773,142723,,"관광,숙박",,,,,,[],
로오우,경상북도,36.6149008432,129.4119913846,3082668,,"관광,숙박",,,,,,[],
로제토호텔,경기도,37.7764378666,127.1161830252,2539133,,"관광,숙박",,,,,,[],
로지호텔,인천광역시,37.4612528866,126.6830120251,1747890,,"관광,숙박",,,,,,[],
로터스모텔,강원특별자치도,38.1040188354,127.7029670426,628467,,"관광,숙박",,,,,,[],
로하스테이,강원특별자치도,37.8520086935,127.6704025159,2707068,,"관광,숙박",,,,,,[],
롤링힐스호텔,경기도,37.1901676368,126.8387609237,2522312,,"관광,숙박",,,,,,[],
롯데시티호텔 구로,서울특별시,37.4850844673,126.8966252225,2505908,,"관광,숙박",,,,,,[],
롯데시티호텔 대전,대전광역시,36.3761850422,127.3930221681,1933910,,"관광,숙박",,,,,,[],
롯데시티호텔 명동,서울특별시,37.5669377042,126.9880590273,2504510,,"관광,숙박",,,,,,[],
롯데시티호텔 제주,제주특별자치도,33.4906557686,126.4865515629,2046954,,"관광,숙박",,,,,,[],
롯데호텔 L7 강남,서울특별시,37.5057681749,127.0516660784,2548198,,"관광,숙박",,,,,,[],
롯데호텔 L7 명동,서울특별시,37.5642712902,126.9848482845,2504463,,"관광,숙박",,,,,,[],
롯데호텔 L7홍대,서울특별시,37.5558072531,126.9216848363,2907142,,"관광,숙박",,,,,,[],
롯데호텔 부산,부산광역시,35.1599500699,129.0541782189,142998,,"관광,숙박",,,,,,[],
롯데호텔 울산,울산광역시,35.5386767581,129.3380846328,143064,,"관광,숙박",,,,,,[],
롯데호텔 월드,서울특별시,37.5123821225,127.0976311526,142766,,"관광,숙박",,,,,,[],
롯데호텔서울,서울특별시,37.5654016461,126.981045821,142729,,"관광,숙박",,,,,,[],
롯데호텔앤리조트 김해,경상남도,35.1811546012,128.825444787,3497637,,"관광,숙박",,,,,,[],
롱비치펜션,제주특별자치도,33.2753831304,126.7107786499,733422,,"관광,숙박",,,,,,[],
루브호텔,경기도,37.6324251296,126.5534690907,2918735,,"관광,숙박",,,,,,[],
루소호텔[한국관광 품질인증/Korea Quality],강원특별자치도,37.7659249752,128.876415337,2490115,,"관광,숙박",,,,,,[],
룩소르 호텔,경기도,37.676437357,126.7489333146,2893601,,"관광,숙박",,,,,,[],
르네블루바이워커힐,강원특별자치도,38.3322523946,128.5270043485,2902867,,"관광,숙박",,,,,,[],
르네상스호텔[한국관광 품질인증/Korea Quality],부산광역시,35.1617902189,128.983003808,1833813,,"관광,숙박",,,,,,[],
르메르디앙 서울 명동,서울특별시,37.561688219,126.9827124411,3341540,,"관광,숙박",,,,,,[],
르아브르,서울특별시,37.5460598395,126.8475613135,136577,,"관광,숙박",,,,,,[],
르이데아호텔,부산광역시,35.1121634949,129.0401307462,2544728,,"관광,숙박",,,,,,[],
리디자인호텔,경기도,37.2722553522,127.1503192607,1831623,,"관광,숙박",,,,,,[],
리버뷰(River View)[한국관광 품질인증/Korea Quality],서울특별시,37.5432464331,127.0114686763,2592460,,"관광,숙박",,,,,,[],
리버사이드,강원특별자치도,37.6123664173,128.3749680193,2800875,,"관광,숙박",,,,,,[],
리버사이드게스트하우스,서울특별시,37.5329878783,127.0873259497,2650639,,"관광,숙박",,,,,,[],
리버사이드호텔,강원특별자치도,37.9323738286,127.791711307,3044557,,"관광,숙박",,,,,,[],
리버사이드호텔(보령),충청남도,36.348421581,126.5991413415,3083662,,"관광,숙박",,,,,,[],
리버스모텔,전라남도,34.6786051704,126.9057952724,649024,,"관광,숙박",,,,,,[],
리버웍펜션,강원특별자치도,37.8287435074,127.6044119879,2913433,,"관광,숙박",,,,,,[],
리버틴호텔 경주[한국관광 품질인증/Korea Quality],경상북도,35.8405040944,129.2027406951,2652445,,"관광,숙박",,,,,,[],
리버힐펜션,강원특별자치도,37.6916837263,127.7159919866,678745,,"관광,숙박",,,,,,[],
리베라모텔(태백),강원특별자치도,37.1631049574,128.9882125981,137852,,"관광,숙박",,,,,,[],
리베라미니호텔,충청남도,36.8540979343,126.9852402333,1212541,,"관광,숙박",,,,,,[],
리센 오션파크 속초,강원특별자치도,38.1889677916,128.6032824529,2910876,,"관광,숙박",,,,,,[],
리솜포레스트(제천),충청북도,37.1588459307,128.0461582662,1161739,,"관광,숙박",,,,,,[],
리오텔,경기도,37.7802491315,126.6856222889,724526,,"관광,숙박",,,,,,[],
리인목포게스트하우스,전라남도,34.7906228047,126.3820053792,2707232,,"관광,숙박",,,,,,[],
리젠시모텔,광주광역시,35.141408843,126.9186937888,3044558,,"관광,숙박",,,,,,[],
리젠트모텔,강원특별자치도,37.8733403893,127.7157477565,626875,,"관광,숙박",,,,,,[],
리첼호텔,경상북도,36.5680802316,128.7816208125,3089840,,"관광,숙박",,,,,,[],
리츠모텔,경기도,37.2865493486,127.2174099983,138191,,"관광,숙박",,,,,,[],
리츠모텔,전라남도,34.7612893522,127.6650044016,725491,,"관광,숙박",,,,,,[],
리츠프라자호텔,전북특별자치도,35.9585094692,126.6928347529,143116,,"관광,숙박",,,,,,[],
리치다이아몬드호텔,서울특별시,37.6476399283,127.0156236669,1990929,,"관광,숙박",,,,,,[],
리치빌,경기도,37.5802767621,127.3897720877,912896,,"관광,숙박",,,,,,[],
리치호텔,인천광역시,37.421348488,126.6432834219,1747999,,"관광,숙박",,,,,,[],
리치호텔,제주특별자치도,33.472097309,126.3489500598,3084957,,"관광,숙박",,,,,,[],
리틀 프린스 펜션,전라남도,35.2429293873,127.4895324904,2575120,,"관광,숙박",,,,,,[],
리프레쉬 펜션&캠핑장,강원특별자치도,37.6502859793,128.3198218587,2801335,,"관광,숙박",,,,,,[],
린다픽,서울특별시,37.5358052852,126.9922206404,2804387,,"관광,숙박",,,,,,[],
마띠유호텔 여수,전라남도,34.7451536512,127.7447783885,1960922,,"관광,숙박",,,,,,[],
마레보 비치호텔,제주특별자치도,33.4481853609,126.304137829,139860,,"관광,숙박",,,,,,[],
마로니에펜션,충청남도,36.8365554986,126.1837826974,908774,,"관광,숙박",,,,,,[],
마루오(MARU-O),전라남도,35.019250946,126.7857780203,2593515,,"관광,숙박",,,,,,[],
마루호텔,경기도,37.2696725176,127.0062823989,2849817,,"관광,숙박",,,,,,[],
마리나 비치펜션,충청남도,36.6738674438,126.2718234439,138111,,"관광,숙박",,,,,,[],
마리나펜션,경상남도,34.8221378268,128.4399824043,592453,,"관광,숙박",,,,,,[],
마리솔펜션,충청남도,36.6728567167,126.287513717,610179,,"관광,숙박",,,,,,[],
마메별,강원특별자치도,37.5889012577,128.3114050165,2761293,,"관광,숙박",,,,,,[],
마스터스관광호텔,광주광역시,35.152287019,126.8505273214,143103,,"관광,숙박",,,,,,[],
마운틴밸리 펜션,강원특별자치도,38.1522956193,127.2042862458,563186,,"관광,숙박",,,,,,[],
마을호텔18번가,강원특별자치도,37.2030282814,128.8508903368,2711378,,"관광,숙박",,,,,,[],
마음이머무는곳,강원특별자치도,38.0850420234,127.4869317944,1265425,,"관광,숙박",,,,,,[],
마이그린 펜션,강원특별자치도,38.1938870873,127.3067672863,556707,,"관광,숙박",,,,,,[],
마이스테이,전북특별자치도,35.8183444356,127.1508364271,2570597,,"관광,숙박",,,,,,[],
마티에 오시리아,부산광역시,35.1884970648,129.2145134896,3075356,,"관광,숙박",,,,,,[],
만산고을펜션(구 만산수목원펜션),강원특별자치도,38.14057956,127.6133213602,1263672,,"관광,숙박",,,,,,[],
만소당 [한국관광 품질인증/Korea Quality],경상북도,36.5736217156,128.5098725758,2599988,,"관광,숙박",,,,,,[],
만죽재 고택,경상북도,36.7315335366,128.6214914114,2804328,,"관광,숙박",,,,,,[],
만초고택[한국관광 품질인증/Korea Quality],경상북도,36.5055303935,128.8536912355,2599271,,"관광,숙박",,,,,,[],
만회고택,경상북도,36.8973024423,128.7152226538,2409490,,"관광,숙박",,,,,,[],
맑은물리조트,강원특별자치도,37.9810555466,128.299066493,2913863,,"관광,숙박",,,,,,[],
맑은물소리 펜션,강원특별자치도,37.9665269889,128.3152015836,138252,,"관광,숙박",,,,,,[],
망상파크펜션,강원특별자치도,37.5911382002,129.0886072143,2913712,,"관광,숙박",,,,,,[],
망상펜션,강원특별자치도,37.5911382002,129.0886072143,2913859,,"관광,숙박",,,,,,[],
망와고택,경상북도,36.9827736538,128.7391068901,2570109,,"관광,숙박",,,,,,[],
망치몽돌펜션,경상남도,34.8120346572,128.6648742187,138806,,"관광,숙박",,,,,,[],
매물도하나 민박(매물도하나펜션),경상남도,34.6482041215,128.5760973547,2569658,,"관광,숙박",,,,,,[],
매죽헌(매죽헌 한옥 민박),전라남도,35.0660422918,127.404269534,2572792,,"관광,숙박",,,,,,[],
매죽헌2(매죽헌한옥민박),전라남도,35.0690641287,127.4016335779,2603996,,"관광,숙박",,,,,,[],
맹그로브 동대문,서울특별시,37.5641772856,127.008737777,3379704,,"관광,숙박",,,,,,[],
맹그로브 신설,서울특별시,37.5762289745,127.0260886324,3379735,,"관광,숙박",,,,,,[],
머큐어 앰배서더 서울 홍대,서울특별시,37.5553962029,126.922409782,2917226,,"관광,숙박",,,,,,[],
멍펜션,경기도,37.8592879266,127.3438653967,3348137,,"관광,숙박",,,,,,[],
메리머드호텔,충청남도,36.3129519486,126.5127722598,2814170,,"관광,숙박",,,,,,[],
메리어트관 제주신화월드 호텔 앤 리조트,제주특별자치도,33.3050013908,126.3163621886,2561909,,"관광,숙박",,,,,,[],
메리엘호텔,경기도,37.2890496733,127.0969819598,3079732,,"관광,숙박",,,,,,[],
메리제인호텔,충청북도,36.6303732227,127.4290814263,2843606,,"관광,숙박",,,,,,[],
메아리펜션,강원특별자치도,37.3261468662,128.383750777,2800516,,"관광,숙박",,,,,,[],
메이드호텔,전북특별자치도,35.4055731561,127.3886677452,2528124,,"관광,숙박",,,,,,[],
메이페어 데네브,강원특별자치도,37.5905148419,128.3051944181,2761022,,"관광,숙박",,,,,,[],
메이페어나르샤,강원특별자치도,37.5904620655,128.3049388872,2761428,,"관광,숙박",,,,,,[],
메이플레이스 호텔 서울 동대문,서울특별시,37.576170157,126.9987522358,2552651,,"관광,숙박",,,,,,[],
메이플비치 골프&리조트,강원특별자치도,37.7464569462,128.9758736492,3090853,,"관광,숙박",,,,,,[],
메이플펜션,강원특별자치도,37.2454966792,128.7613415215,2913782,,"관광,숙박",,,,,,[],
메이필드호텔,서울특별시,37.54788135,126.8194860451,143066,,"관광,숙박",,,,,,[],
메종 글래드 제주,제주특별자치도,33.4856341402,126.4889153601,142957,,"관광,숙박",,,,,,[],
메종드메르,강원특별자치도,37.9659495739,128.7620472367,2488920,,"관광,숙박",,,,,,[],
메종드씨엘,경기도,37.5901532103,127.3797227157,943163,,"관광,숙박",,,,,,[],
메종미니호텔[한국관광 품질인증/Korea Quality],경상북도,35.840606901,129.2048821708,2950417,,"관광,숙박",,,,,,[],
메트로호텔,서울특별시,37.5651989407,126.9837622461,142747,,"관광,숙박",,,,,,[],
멜로즈펜션,강원특별자치도,37.6974232884,127.6383905335,909862,,"관광,숙박",,,,,,[],
명동게스트하우스 꼬모,서울특별시,37.5604773294,126.9872287304,2706686,,"관광,숙박",,,,,,[],
명성리조텔,인천광역시,37.2728652226,126.4560073504,138909,,"관광,숙박",,,,,,[],
명암산채건강마을,충청북도,37.1907107448,128.1437624504,770346,,"관광,숙박",,,,,,[],
명지각,전북특별자치도,35.4050869382,127.3793408038,3469399,,"관광,숙박",,,,,,[],
모닝듀 게스트 하우스(모닝듀),부산광역시,35.1141493149,129.036433792,2572851,,"관광,숙박",,,,,,[],
모던힐펜션,강원특별자치도,37.4972550827,128.2470441167,2380348,,"관광,숙박",,,,,,[],
모래불 펜션(모래불 스테이),강원특별자치도,37.483779575,128.7216240127,2570601,,"관광,숙박",,,,,,[],
모비딕 모텔,강원특별자치도,37.9408085149,128.7861402849,639325,,"관광,숙박",,,,,,[],
모아모텔,강원특별자치도,38.2129315849,128.5989487641,620219,,"관광,숙박",,,,,,[],
모악산유스호스텔,전북특별자치도,35.7165152364,127.0415765757,137498,,"관광,숙박",,,,,,[],
모텔 마리나,인천광역시,37.2524575364,126.516646829,1882243,,"관광,숙박",,,,,,[],
모텔 마이다스,전라남도,34.7325019414,127.7246638028,725338,,"관광,숙박",,,,,,[],
모텔 투헤븐,전라남도,34.7570342868,127.6657794417,725431,,"관광,숙박",,,,,,[],
모텔라마다,충청남도,36.7757615191,127.2425441872,137159,,"관광,숙박",,,,,,[],
모텔리베,경상북도,35.8393875813,129.2042072646,138830,,"관광,숙박",,,,,,[],
모텔신라,경상남도,34.8419853191,128.4238249566,1498031,,"관광,숙박",,,,,,[],
모텔티,전라남도,34.7398707061,127.733032328,1209406,,"관광,숙박",,,,,,[],
모텔힐,강원특별자치도,37.8180574154,128.8550962011,139223,,"관광,숙박",,,,,,[],
모항 해나루 가족호텔,전북특별자치도,35.5806216078,126.507899782,2362535,,"관광,숙박",,,,,,[],
목시 서울 명동,서울특별시,37.561688219,126.9827124411,3341609,,"관광,숙박",,,,,,[],
목양산방,전라남도,34.8897166737,127.5074843911,2574307,,"관광,숙박",,,,,,[],
목원당,"13-29,",34.7636603394,126.6218515296,2571940,,"관광,숙박",,,,,,[],
목임당,전라남도,34.9488048318,127.2038318053,2706498,,"관광,숙박",,,,,,[],
목포 마리나베이호텔,전라남도,34.7867261261,126.3884104628,2019424,,"관광,숙박",,,,,,[],
목포 올레,전라남도,34.7927752401,126.3758975341,2572003,,"관광,숙박",,,,,,[],
목향재,세종특별자치시,36.5019762504,127.2398991344,2593643,,"관광,숙박",,,,,,[],
몬띠마르펜션,강원특별자치도,38.1190447366,128.5706237075,2913607,,"관광,숙박",,,,,,[],
몰디브,충청남도,36.5970392817,126.381671084,908266,,"관광,숙박",,,,,,[],
몽산포파인펜션,충청남도,36.6753868929,126.2823668939,907122,,"관광,숙박",,,,,,[],
몽산포펜션,충청남도,36.6621220537,126.2998573264,138325,,"관광,숙박",,,,,,[],
무등파크호텔,광주광역시,35.1487446022,126.9468605604,143002,,"관광,숙박",,,,,,[],
무아레 도그라운드,경기도,37.6672693362,127.3841978587,3012037,,"관광,숙박",,,,,,[],
무아레 리조트,경기도,37.6666721942,127.3848089314,3083090,,"관광,숙박",,,,,,[],
무안비치호텔,전라남도,34.9682778553,126.3869645383,138864,,"관광,숙박",,,,,,[],
무안톱관광펜션,전라남도,34.9725134055,126.3819259926,139650,,"관광,숙박",,,,,,[],
무주 해바라기펜션 호스텔,전북특별자치도,35.8972075657,127.7749094518,2593255,,"관광,숙박",,,,,,[],
무주덕유산리조트 국민호텔,전북특별자치도,35.879081303,127.7443793143,589340,,"관광,숙박",,,,,,[],
무주덕유산리조트 호텔티롤,전북특별자치도,35.8897992986,127.731394066,142988,,"관광,숙박",,,,,,[],
무주리조텔,전북특별자치도,35.9081952848,127.7792865457,2528584,,"관광,숙박",,,,,,[],
무주스키텔,전북특별자치도,35.9095669153,127.7548581195,1836508,,"관광,숙박",,,,,,[],
무주오리펜션,전북특별자치도,35.9067701202,127.7609798744,2996545,,"관광,숙박",,,,,,[],
무주펜션 꿈꾸는나무별,전북특별자치도,35.8994267541,127.7746594148,3044583,,"관광,숙박",,,,,,[],
무주펜션 산새소리,전북특별자치도,35.898665726,127.7744955609,3049863,,"관광,숙박",,,,,,[],
무주해바라기펜션,전북특별자치도,35.8971714591,127.7748900101,2570688,,"관광,숙박",,,,,,[],
무창포 비체팰리스,충청남도,36.2393857008,126.5313725027,979885,,"관광,숙박",,,,,,[],
문경관광호텔,경상북도,36.7611339103,128.0783640351,143126,,"관광,숙박",,,,,,[],
문리버펜션,전북특별자치도,35.8815129554,127.8213085401,2594157,,"관광,숙박",,,,,,[],
문행당,경상북도,36.9132538839,128.7411004318,2603889,,"관광,숙박",,,,,,[],
문헌전통호텔[한국관광 품질인증/Korea Quality],충청남도,36.0910931092,126.7839509352,2950322,,"관광,숙박",,,,,,[],
문화공간 양사재,전북특별자치도,35.813145084,127.1541362693,1871362,,"관광,숙박",,,,,,[],
물결그림,제주특별자치도,33.5444525773,126.6595658566,2991120,,"관광,숙박",,,,,,[],
물고기나무 게스트하우스,제주특별자치도,33.3789265694,126.8408705836,2000893,,"관광,숙박",,,,,,[],
물고기미포펜션[한국관광 품질인증/Korea Quality],부산광역시,35.1580330217,129.1721180136,2950347,,"관광,숙박",,,,,,[],
물소리바람소리펜션,강원특별자치도,37.4651160442,128.6281079829,900492,,"관광,숙박",,,,,,[],
물소리새소리(양평),경기도,37.6475103781,127.3764519134,700278,,"관광,숙박",,,,,,[],
물소리펜션,경기도,37.5823347915,127.5378058033,700255,,"관광,숙박",,,,,,[],
물안개피는 들꽃나루펜션,강원특별자치도,37.6845083992,127.6534062149,398154,,"관광,숙박",,,,,,[],
물안골스머프펜션,강원특별자치도,38.0513360461,127.5516463254,1261703,,"관광,숙박",,,,,,[],
미드나잇 인 경주,경상북도,35.8427345591,129.2112565513,3044584,,"관광,숙박",,,,,,[],
미라벨모텔,부산광역시,35.1136799603,129.0384336305,138868,,"관광,숙박",,,,,,[],
미라지모텔,강원특별자치도,38.1911948613,128.5801983686,137328,,"관광,숙박",,,,,,[],
미송온천호텔,전라남도,35.0229830762,126.9045674376,138863,,"관광,숙박",,,,,,[],
미타스야 료칸 호텔 인천서구청역점,인천광역시,37.5448235749,126.6744493671,3484267,,"관광,숙박",,,,,,[],
밀레니엄빌,제주특별자치도,33.2451928698,126.5899536843,972415,,"관광,숙박",,,,,,[],
밀리토피아호텔,경기도,37.4678408899,127.1431282785,2476860,,"관광,숙박",,,,,,[],
바다내음펜션,충청남도,36.7812917275,126.1419962763,137991,,"관광,숙박",,,,,,[],
바다내음펜션,강원특별자치도,37.6438730481,128.3311210307,3044585,,"관광,숙박",,,,,,[],
바다둥지모텔&펜션,강원특별자치도,38.0220589143,128.7202437187,3044606,,"관광,숙박",,,,,,[],
바다마을이야기,충청남도,36.9688560241,126.2967772614,397740,,"관광,숙박",,,,,,[],
바다에누워 펜션,제주특별자치도,33.2696884696,126.6578361411,733516,,"관광,숙박",,,,,,[],
바다와펜션,강원특별자치도,37.8454711853,128.8693079584,2913810,,"관광,숙박",,,,,,[],
바다정원펜션,인천광역시,37.2451002815,126.5295069699,397933,,"관광,숙박",,,,,,[],
바다정원펜션,경상남도,34.9898550844,127.9662193887,2572858,,"관광,숙박",,,,,,[],
바다추억,경상남도,34.7802406776,128.6477682127,139907,,"관광,숙박",,,,,,[],
바다하우스,제주특별자치도,33.4665199416,126.3358485474,1853848,,"관광,숙박",,,,,,[],
바다햇살고운집,충청남도,36.5097596436,126.3350498045,138545,,"관광,숙박",,,,,,[],
바다향기,경상남도,34.8872468645,128.4205518289,2707453,,"관광,숙박",,,,,,[],
바다향기펜션,강원특별자치도,38.1787495522,128.6040910319,2913832,,"관광,숙박",,,,,,[],
바닷가모텔,전라남도,34.3511383002,126.5204592274,138486,,"관광,숙박",,,,,,[],
바닷길풍경펜션,충청남도,36.6751784442,126.2741898616,397718,,"관광,숙박",,,,,,[],
바람의 바다 펜션,전라남도,35.0622220626,126.3421023413,139615,,"관광,숙박",,,,,,[],
바우펜션,경상남도,34.808152325,128.6963493638,641675,,"관광,숙박",,,,,,[],
바위샘펜션,강원특별자치도,38.1944037389,127.309242044,555412,,"관광,숙박",,,,,,[],
바투 스테이[한국관광 품질인증/Korea Quality],서울특별시,37.5590457366,126.9200543377,2950476,,"관광,숙박",,,,,,[],
박명선 갤러리,경기도,37.7666539022,126.7085261314,2657488,,"관광,숙박",,,,,,[],
박정우가옥,경상북도,36.7346498149,128.6197803621,2600221,,"관광,숙박",,,,,,[],
박진사고택,경상남도,35.1170246518,128.3079417017,2595502,,"관광,숙박",,,,,,[],
반도관광호텔,인천광역시,37.5326288502,126.7353608145,398315,,"관광,숙박",,,,,,[],
반디빌리지,경기도,37.6451630576,127.5077289331,2740726,,"관광,숙박",,,,,,[],
반얀트리 클럽 앤 스파 서울,서울특별시,37.55012877,127.0005250345,1045657,,"관광,숙박",,,,,,[],
발렌타인[한국관광 품질인증/Korea Quality],경상북도,35.8408029559,129.2912440424,2637847,,"관광,숙박",,,,,,[],
발렌타인모텔,충청북도,37.0260375782,127.9693412292,250596,,"관광,숙박",,,,,,[],
발렌타인애견펜션,강원특별자치도,38.0459957539,128.6149525114,2913609,,"관광,숙박",,,,,,[],
발트하우스,제주특별자치도,33.3491324273,126.8279307185,3082119,,"관광,숙박",,,,,,[],
밧개오션텔,충청남도,36.5243162439,126.3316330661,707896,,"관광,숙박",,,,,,[],
방가방가게스트하우스(풍경집),부산광역시,35.097084068,129.0097699096,2571959,,"관광,숙박",,,,,,[],
방방게스트하우스,경기도,37.283154536,127.0200752146,2575696,,"관광,숙박",,,,,,[],
방태산황토펜션,강원특별자치도,37.938945378,128.3828657341,138713,,"관광,숙박",,,,,,[],
배내골 걸리버 펜션,울산광역시,35.5333684142,129.0087357678,2576493,,"관광,숙박",,,,,,[],
배내골산골이야기,경상남도,35.4603425511,128.9685413082,388123,,"관광,숙박",,,,,,[],
배쟁이펜션,경상남도,34.8721735466,128.420305025,2569687,,"관광,숙박",,,,,,[],
백궁펜션,경기도,37.9582920588,127.1376230276,946221,,"관광,숙박",,,,,,[],
백두대간 약초나라,강원특별자치도,37.5028782152,128.9090315989,2711375,,"관광,숙박",,,,,,[],
백무산장 황토방 펜션,경상남도,35.3623136917,127.6804320079,138724,,"관광,숙박",,,,,,[],
백미응서재,경기도,37.1416123175,126.6907534744,2574064,,"관광,숙박",,,,,,[],
백불고택,대구광역시,35.9106975809,128.6845925742,2604712,,"관광,숙박",,,,,,[],
백양관광호텔,전라남도,35.4111304829,126.8813819635,142938,,"관광,숙박",,,,,,[],
백운호텔,경상북도,35.8290282244,128.1845222744,2413322,,"관광,숙박",,,,,,[],
백이모텔,충청남도,36.1693742219,126.5281940499,137505,,"관광,숙박",,,,,,[],
백패커스인여수,전라남도,34.7452813826,127.7429118825,2707449,,"관광,숙박",,,,,,[],
백희,전북특별자치도,35.817094555,127.1495254653,2572871,,"관광,숙박",,,,,,[],
베네치아 모텔,경기도,37.2286823926,127.2922298539,139026,,"관광,숙박",,,,,,[],
베니스모텔,전라남도,34.8025184576,126.3679868872,1138765,,"관광,숙박",,,,,,[],
베니스펜션,강원특별자치도,37.6329441364,128.3510473376,2760231,,"관광,숙박",,,,,,[],
베니키아 JD관광호텔,경기도,37.7120549895,127.1875978065,3085173,,"관광,숙박",,,,,,[],
베니키아 월미도 더블리스 호텔,인천광역시,37.4726889345,126.5973223024,1937524,,"관광,숙박",,,,,,[],
베니키아 전주한성 호텔,전북특별자치도,35.8198802678,127.1448369202,496396,,"관광,숙박",,,,,,[],
베니키아 중문호텔,제주특별자치도,33.2519089231,126.4223958362,2038553,,"관광,숙박",,,,,,[],
베니키아 테크노밸리 호텔,대전광역시,36.4263737257,127.3921042185,1952929,,"관광,숙박",,,,,,[],
베니키아 프리미어 동해보양온천 컨벤션호텔,강원특별자치도,37.592768544,129.0874100493,1772807,,"관광,숙박",,,,,,[],
베니키아 프리미어 마리안느호텔,부산광역시,35.1615130502,129.1646880086,1962921,,"관광,숙박",,,,,,[],
베니키아 프리미어 호텔 베르누이,서울특별시,37.4974237964,126.845962826,2010907,,"관광,숙박",,,,,,[],
베니키아 호텔 산과 바다 대포항,강원특별자치도,38.165840019,128.6079827477,1937080,,"관광,숙박",,,,,,[],
베니키아 호텔 산과바다 양양,강원특별자치도,38.1405069639,128.6136080272,2710680,,"관광,숙박",,,,,,[],
베니키아 호텔 포항,경상북도,36.0245447795,129.3685236554,143129,,"관광,숙박",,,,,,[],
베니키아양산호텔,경상남도,35.314887736,129.026101411,3083319,,"관광,숙박",,,,,,[],
베리온리조트,강원특별자치도,37.6017983245,128.3817316152,1135668,,"관광,숙박",,,,,,[],
베리온리조트1,강원특별자치도,37.6017983245,128.3817316152,2574386,,"관광,숙박",,,,,,[],
베리온리조트2,강원특별자치도,37.6017983245,128.3817316152,2574384,,"관광,숙박",,,,,,[],
베스트세븐 호텔,광주광역시,35.1610324447,126.8024813534,2933565,,"관광,숙박",,,,,,[],
베스트웨스턴 프리미어 서울가든호텔,서울특별시,37.5408900188,126.9483050535,142722,,"관광,숙박",,,,,,[],
베스트웨스턴 프리미어 인천 에어포트 호텔,인천광역시,37.4411901422,126.4574859381,143106,,"관광,숙박",,,,,,[],
베스트웨스턴 플러스 호텔세종(베스트웨스턴 플러스),세종특별자치시,36.5003156655,127.2588474798,2770436,,"관광,숙박",,,,,,[],
베스트웨스턴 하버파크호텔,인천광역시,37.4721727209,126.6196286148,761536,,"관광,숙박",,,,,,[],
베스트웨스턴 해운대호텔,부산광역시,35.1605075419,129.1611772303,2651240,,"관광,숙박",,,,,,[],
베스트웨스턴플러스전주호텔,전북특별자치도,35.8224744551,127.1470199916,2783515,,"관광,숙박",,,,,,[],
베아트리체 펜션,경기도,37.4644051816,127.6011145892,398132,,"관광,숙박",,,,,,[],
베이몬드호텔,부산광역시,35.1595992286,129.1567804158,2811461,,"관광,숙박",,,,,,[],
베이브리즈가족호텔,충청남도,36.7941986478,126.1465788549,1836470,,"관광,숙박",,,,,,[],
베이하운드호텔,부산광역시,35.0931822552,129.0384647425,3028593,,"관광,숙박",,,,,,[],
베이힐풀앤빌라,제주특별자치도,33.2369264622,126.3727671417,2755497,,"관광,숙박",,,,,,[],
벤치하우스 펜션,강원특별자치도,37.6355493271,128.3477003389,2498993,,"관광,숙박",,,,,,[],
벤티모 호텔 앤 레지던스 제주,제주특별자치도,33.493458351,126.4937564282,2718006,,"관광,숙박",,,,,,[],
벨루스로즈펜션,경상북도,35.8590558642,129.2602462373,1954014,,"관광,숙박",,,,,,[],
벨뷰펜션,경기도,37.5098186066,127.559911455,137992,,"관광,숙박",,,,,,[],
별 따러 가자,강원특별자치도,37.6257422957,128.3564942842,2801323,,"관광,숙박",,,,,,[],
별궁,충청남도,36.9407149116,126.3012553822,2623585,,"관광,숙박",,,,,,[],
별궁모텔,경상남도,35.5224351891,127.7202965058,136505,,"관광,숙박",,,,,,[],
별무리펜션,강원특별자치도,37.5386254914,128.2572336323,2380443,,"관광,숙박",,,,,,[],
별무인호텔,강원특별자치도,37.3487016553,127.8887280458,2552001,,"관광,숙박",,,,,,[],
별바라기집,전라남도,34.7408672685,126.7177380782,2572908,,"관광,숙박",,,,,,[],
별비내리는마을펜션,강원특별자치도,38.2074292802,127.2705702052,2913655,,"관광,숙박",,,,,,[],
별빛나루 펜션,강원특별자치도,37.4172247803,128.3591058435,2759898,,"관광,숙박",,,,,,[],
별빛여정펜션,경상북도,35.8562590096,129.2629655235,1954315,,"관광,숙박",,,,,,[],
별이든 샘 펜션,강원특별자치도,38.1831961394,127.2779757984,560011,,"관광,숙박",,,,,,[],
별자리,전북특별자치도,35.816547425,127.1512697687,2574415,,"관광,숙박",,,,,,[],
별자리 호스텔,인천광역시,37.44189148,126.3796735824,1882357,,"관광,숙박",,,,,,[],
별장아원,인천광역시,37.7189069247,126.4075106056,1893109,,"관광,숙박",,,,,,[],
별주부관광팬션(비토섬별주부관광펜션),경상남도,34.9890607373,127.966674925,2571961,,"관광,숙박",,,,,,[],
별헤는밤,강원특별자치도,38.1517429243,127.2052445072,562299,,"관광,숙박",,,,,,[],
별헤는밤,강원특별자치도,37.5997200591,128.3434462442,2761627,,"관광,숙박",,,,,,[],
보궁민박,강원특별자치도,37.7146560951,128.5992224602,2800480,,"관광,숙박",,,,,,[],
보금자리,전라남도,34.7398757135,126.7177492124,2604499,,"관광,숙박",,,,,,[],
보노펜션,강원특별자치도,38.0535323784,128.6864124691,138900,,"관광,숙박",,,,,,[],
보리네민박,강원특별자치도,38.0038792971,128.2271528827,2913685,,"관광,숙박",,,,,,[],
보물섬펜션,제주특별자치도,33.4664517038,126.931705148,733540,,"관광,숙박",,,,,,[],
보보스모텔,인천광역시,37.4216539314,126.6389338101,1748010,,"관광,숙박",,,,,,[],
보성 그린티하우스,전라남도,34.7736631807,127.1906790067,139653,,"관광,숙박",,,,,,[],
보성골망태펜션,전라남도,34.7362546066,127.0922941327,138116,,"관광,숙박",,,,,,[],
보성관광모텔,전라남도,34.7633096027,127.0745200246,138848,,"관광,숙박",,,,,,[],
보성군 해바라기 펜션,전라남도,34.7248919699,127.0909473091,139693,,"관광,숙박",,,,,,[],
보스코아호텔,강원특별자치도,37.326781006,127.9865920769,3082630,,"관광,숙박",,,,,,[],
보이저펜션,강원특별자치도,37.8803139712,128.7060382862,2016127,,"관광,숙박",,,,,,[],
보코 서울 명동,서울특별시,37.5584718511,126.9785601324,3395428,,"관광,숙박",,,,,,[],
복합한옥공간 곳,서울특별시,37.5797056512,126.9872920687,2592489,,"관광,숙박",,,,,,[],
볼튼호텔,광주광역시,35.1510343734,126.8499468484,2595914,,"관광,숙박",,,,,,[],
봄스테이,강원특별자치도,37.8641139852,127.7318854502,2907760,,"관광,숙박",,,,,,[],
봄여름가을겨울,강원특별자치도,37.5583618308,128.3896044321,2913644,,"관광,숙박",,,,,,[],
봉쥬르펜션,강원특별자치도,37.5750564464,128.3540376954,2913619,,"관광,숙박",,,,,,[],
봉평별빛펜션,강원특별자치도,37.6124763673,128.3145373604,2760926,,"관광,숙박",,,,,,[],
봉화정자문화생활관,경상북도,36.9015787812,128.8113861768,2814159,,"관광,숙박",,,,,,[],
봉황재 한옥 게스트하우스,충청남도,36.4508188891,127.120030717,2708325,,"관광,숙박",,,,,,[],
부경당,전북특별자치도,35.8159892071,127.1542361861,2593571,,"관광,숙박",,,,,,[],
부산 비치 관광호텔,부산광역시,35.0850162779,129.0262938007,986534,,"관광,숙박",,,,,,[],
부산 센트럴호텔,부산광역시,35.1877669046,129.0815722951,1215432,,"관광,숙박",,,,,,[],
부산관광호텔,부산광역시,35.1003313844,129.0346565455,142855,,"관광,숙박",,,,,,[],
부산도시공사 아르피나,부산광역시,35.1646760947,129.1382624416,138217,,"관광,숙박",,,,,,[],
부산뷰호텔,부산광역시,35.1133994764,129.0405945615,138089,,"관광,숙박",,,,,,[],
부산비즈니스호텔,부산광역시,35.1562338226,129.0543533051,2393422,,"관광,숙박",,,,,,[],
부산해군회관,부산광역시,35.1047379555,129.1164270938,3083347,,"관광,숙박",,,,,,[],
부성파크,강원특별자치도,37.5895485142,128.3171600335,2761753,,"관광,숙박",,,,,,[],
부여안방마님,충청남도,36.2655770389,126.8484100237,2665817,,"관광,숙박",,,,,,[],
부용헌,전북특별자치도,35.8122758009,127.1577554146,1971964,,"관광,숙박",,,,,,[],
부천한옥체험마을,경기도,37.50825125,126.7422053159,3072229,,"관광,숙박",,,,,,[],
부티크호텔 XYM,경기도,37.0402507021,127.0990942652,2917187,,"관광,숙박",,,,,,[],
부티크호텔 지,충청북도,36.6647926618,127.4941468603,2917201,,"관광,숙박",,,,,,[],
부티크호텔K 동대문점,서울특별시,37.5636671132,127.0576416698,920305,,"관광,숙박",,,,,,[],
북촌 게스트하우스,서울특별시,37.5786279695,126.9856811352,2575836,,"관광,숙박",,,,,,[],
북촌한옥게스트하우스 라온(라온게스트하우스),서울특별시,37.5775530144,126.9812037957,2574315,,"관광,숙박",,,,,,[],
불국사한옥팜스테이,경상북도,35.7829935089,129.3281424622,2814160,,"관광,숙박",,,,,,[],
뷰티풀하우스,제주특별자치도,33.2437463177,126.4466828006,733569,,"관광,숙박",,,,,,[],
브라운도트 고덕신도시점,경기도,37.0473017141,127.0456655694,2875427,,"관광,숙박",,,,,,[],
브라운도트 안동문화의거리점,경상북도,36.5639241989,128.7311865212,3044608,,"관광,숙박",,,,,,[],
브라운도트 천안성정점,충청남도,36.8268566629,127.1440322106,3046233,,"관광,숙박",,,,,,[],
브라운도트 호텔 경주불국사점,경상북도,35.7820685418,129.324342822,3049899,,"관광,숙박",,,,,,[],
브라운도트 호텔 대구수성점,대구광역시,35.8411237664,128.6232471403,3044609,,"관광,숙박",,,,,,[],
브라운도트호텔 (장생포점),울산광역시,35.5028009736,129.3773294441,2708665,,"관광,숙박",,,,,,[],
브라운도트호텔 남악점,전라남도,34.8151935267,126.4592535186,3478971,,"관광,숙박",,,,,,[],
브라운도트호텔 마산오동동점,경상남도,35.2044725541,128.5822542722,3083326,,"관광,숙박",,,,,,[],
브라운도트호텔 서면범천점,부산광역시,35.1485125805,129.0606113054,3083398,,"관광,숙박",,,,,,[],
브라운도트호텔 송정점,부산광역시,35.1787978313,129.19734025,3083414,,"관광,숙박",,,,,,[],
브라운도트호텔 정관점,부산광역시,35.3161515953,129.1817794758,3028497,,"관광,숙박",,,,,,[],
브라운도트호텔 포항 죽도점,경상북도,36.0292191348,129.3624351656,2770470,,"관광,숙박",,,,,,[],
브라운도트호텔 포항영일대점,경상북도,36.05880221,129.3786801066,2911712,,"관광,숙박",,,,,,[],
브라운도트호텔서산점(브라운도트호텔),충청남도,36.7775530172,126.4520071702,2769619,,"관광,숙박",,,,,,[],
브라운스위트 신촌센트럴,서울특별시,37.5547215174,126.9356085978,3023167,,"관광,숙박",,,,,,[],
브룩5(BROOK5),경기도,37.8120541535,127.4741521193,2814154,,"관광,숙박",,,,,,[],
브리드호텔 양양,강원특별자치도,37.9709989895,128.7621220731,3089133,,"관광,숙박",,,,,,[],
브릿지모텔,부산광역시,35.1487079999,129.1145593854,138574,,"관광,숙박",,,,,,[],
브이모텔,부산광역시,35.0792362939,129.0221693171,1932126,,"관광,숙박",,,,,,[],
브이온천모텔,울산광역시,35.5535452256,129.0787735261,1503294,,"관광,숙박",,,,,,[],
블라우[한국관광 품질인증/Korea Quality],경상북도,35.8415095729,129.204657165,2950401,,"관광,숙박",,,,,,[],
블라제 리조트[한국관광 품질인증/Korea Quality],제주특별자치도,33.3795499885,126.7467953865,2950206,,"관광,숙박",,,,,,[],
블루라군 펜션,충청남도,36.9542131517,126.2896755188,397714,,"관광,숙박",,,,,,[],
블루망고 풀빌라펜션,전라남도,34.6609472608,127.7939678965,2785824,,"관광,숙박",,,,,,[],
블루밍데이즈펜션,충청북도,37.0320546531,128.1783195175,138352,,"관광,숙박",,,,,,[],
블루밍모텔,경상남도,34.8924178957,128.6954999765,138559,,"관광,숙박",,,,,,[],
블루보트게스트하우스 전주점,전북특별자치도,35.8189026431,127.1472700632,2528149,,"관광,숙박",,,,,,[],
블루스토리 호텔,부산광역시,35.1599464255,129.1575108976,3016434,,"관광,숙박",,,,,,[],
블루앤펫,강원특별자치도,37.7963861364,128.9172912659,2913651,,"관광,숙박",,,,,,[],
블루하와이 호텔,제주특별자치도,33.380749811,126.2184023498,3089154,,"관광,숙박",,,,,,[],
블루힐 모텔,충청남도,36.7495233041,126.3126677529,137097,,"관광,숙박",,,,,,[],
블룸비스타,경기도,37.500303291,127.421754819,2358790,,"관광,숙박",,,,,,[],
비브릿지,강원특별자치도,37.1206612498,128.6271961432,2708661,,"관광,숙박",,,,,,[],
비블로스펜션,강원특별자치도,37.632480265,128.3491169702,2760965,,"관광,숙박",,,,,,[],
비센트호텔,부산광역시,35.1108108531,129.0393058555,2528106,,"관광,숙박",,,,,,[],
비스타 워커힐 서울,서울특별시,37.5552218298,127.1107898477,143107,,"관광,숙박",,,,,,[],
비안단테 펜션,강원특별자치도,37.9025561443,127.7002010828,2913849,,"관광,숙박",,,,,,[],
비안단테펜션 원주점,강원특별자치도,37.1808908393,127.7579752481,2913858,,"관광,숙박",,,,,,[],
비움 펜션,강원특별자치도,37.5525987084,128.3948430217,1992872,,"관광,숙박",,,,,,[],
비원스테이(비원게스트하우스),서울특별시,37.5760672318,126.989891935,2572880,,"관광,숙박",,,,,,[],
비진도 바다이야기 펜션,경상남도,34.7222604458,128.4595888718,1034361,,"관광,숙박",,,,,,[],
비치모텔,부산광역시,35.0692440569,129.0813283358,2595879,,"관광,숙박",,,,,,[],
비치스토리호텔,제주특별자치도,33.5421529255,126.6654098459,139008,,"관광,숙박",,,,,,[],
비치콘도모텔,충청남도,36.678564633,126.1383020788,1998207,,"관광,숙박",,,,,,[],
비케이호텔 제주(BK호텔 제주),제주특별자치도,33.24106514,126.5642865558,3076459,,"관광,숙박",,,,,,[],
비프리비펜션,경상북도,36.6147036467,129.4121469327,2570352,,"관광,숙박",,,,,,[],
빅토리아호텔,전라남도,34.4905254297,127.3531301266,1507015,,"관광,숙박",,,,,,[],
빈센트펜션,경상남도,34.7238418788,127.8891329847,2003286,,"관광,숙박",,,,,,[],
빈티지하우스펜션,강원특별자치도,38.078059795,128.6715463855,2913450,,"관광,숙박",,,,,,[],
빌레리조트,제주특별자치도,33.4711501605,126.3469835852,1749012,,"관광,숙박",,,,,,[],
빌리지736,강원특별자치도,37.6781106653,127.7355850512,2814150,,"관광,숙박",,,,,,[],
사나래 한옥,전라남도,34.8371234192,126.9027472023,2370222,,"관광,숙박",,,,,,[],
사단법인 한국천연염색 숨,전라남도,34.9050694457,127.1204069089,2708327,,"관광,숙박",,,,,,[],
사람과자연펜션,강원특별자치도,37.2934413472,128.3331174089,2913814,,"관광,숙박",,,,,,[],
사랑가득,전북특별자치도,35.8124646729,127.1580137201,2048324,,"관광,숙박",,,,,,[],
사랑나무 한옥펜션,전북특별자치도,35.8114369196,127.1526697781,2575839,,"관광,숙박",,,,,,[],
사슴이랑배랑농원,전라남도,35.1876981153,126.5913549443,2621282,,"관광,숙박",,,,,,[],
산골나그네 펜션,강원특별자치도,38.1912345294,127.8967467168,138225,,"관광,숙박",,,,,,[],
산골흙집,강원특별자치도,37.3335577961,128.4192806957,2783083,,"관광,숙박",,,,,,[],
산내들캠프,경상북도,35.6997120733,129.0776889687,2911382,,"관광,숙박",,,,,,[],
산내들펜션,강원특별자치도,37.5359560931,128.389888412,139151,,"관광,숙박",,,,,,[],
산내음펜션,경기도,37.578140868,127.3880611937,397902,,"관광,숙박",,,,,,[],
산너머펜션,경기도,37.5892352447,127.4547631455,612141,,"관광,숙박",,,,,,[],
산들 게스트하우스,전북특별자치도,35.9834291128,126.7084493781,2571945,,"관광,숙박",,,,,,[],
산들맘 펜션,강원특별자치도,37.5352199756,128.3850444262,2801305,,"관광,숙박",,,,,,[],
산들애풀하우스,제주특별자치도,33.429821212,126.8572041127,2021434,,"관광,숙박",,,,,,[],
산마을풍경,강원특별자치도,37.6605679051,128.3084003596,2801131,,"관광,숙박",,,,,,[],
산모랭이펜션,강원특별자치도,37.4904809206,128.5423871523,2760102,,"관광,숙박",,,,,,[],
산수애,강원특별자치도,37.1897937259,128.415210318,398136,,"관광,숙박",,,,,,[],
산수화(山水花),경기도,37.5343053538,127.7482297848,397901,,"관광,숙박",,,,,,[],
산악코스텔,강원특별자치도,37.9467072279,128.3234847709,3082795,,"관광,숙박",,,,,,[],
산온[한국관광 품질인증/Korea Quality],경기도,37.4583686776,127.3896117179,2950484,,"관광,숙박",,,,,,[],
산울림펜션,충청남도,36.806012975,127.2078270355,138819,,"관광,숙박",,,,,,[],
산음펜션,경기도,37.5876155512,127.5822016198,139864,,"관광,숙박",,,,,,[],
산이야기,강원특별자치도,38.102300328,127.4442074124,1257924,,"관광,숙박",,,,,,[],
산청나리꽃펜션,경상남도,35.3947857204,127.8773610283,2565357,,"관광,숙박",,,,,,[],
산청율수원,경상남도,35.3803535976,128.0102941563,1883536,,"관광,숙박",,,,,,[],
산촌생활체험마을,경상북도,36.6153222139,129.0817039316,2046198,,"관광,숙박",,,,,,[],
산타펜션,경기도,37.5826715167,127.4219052092,692738,,"관광,숙박",,,,,,[],
산택스테이,경상북도,36.6078943407,128.2942713476,3473400,,"관광,숙박",,,,,,[],
삼락헌,전북특별자치도,35.8156475531,127.1527196631,1972014,,"관광,숙박",,,,,,[],
삼박한집,강원특별자치도,38.2514070152,128.565820016,3513119,,"관광,숙박",,,,,,[],
삼연재,경상북도,36.6758263471,128.4909935358,2572886,,"관광,숙박",,,,,,[],
삼원프라자호텔,경기도,37.3982005717,126.9226530689,143100,,"관광,숙박",,,,,,[],
삼일삼오,제주특별자치도,33.5274244998,126.8687730858,2869085,,"관광,숙박",,,,,,[],
삼척비치모텔,강원특별자치도,37.4675790176,129.1691010341,620120,,"관광,숙박",,,,,,[],
삼화사 템플스테이,강원특별자치도,37.463623679,129.014537225,2711050,,"관광,숙박",,,,,,[],
삽교호 비치파크호텔,충청남도,36.8898215445,126.8247037631,137090,,"관광,숙박",,,,,,[],
상유재,강원특별자치도,37.3794293286,128.6606826368,1972030,,"관광,숙박",,,,,,[],
상천체육문화연수원,경기도,37.7763747353,127.4613848818,137495,,"관광,숙박",,,,,,[],
새만금모텔,전북특별자치도,35.6942983083,126.5520818617,641920,,"관광,숙박",,,,,,[],
새바라기 펜션,강원특별자치도,38.2057960753,127.2671594554,559507,,"관광,숙박",,,,,,[],
새벽종,경기도,37.8932944053,127.3072760779,397712,,"관광,숙박",,,,,,[],
샘모루펜션,제주특별자치도,33.2531627063,126.4948867436,2374023,,"관광,숙박",,,,,,[],
샘물농장 황토펜션,경기도,37.9959805507,127.355960289,2713412,,"관광,숙박",,,,,,[],
샘사이트,경상북도,36.9999811702,128.6538612168,3410723,,"관광,숙박",,,,,,[],
생각속의집[한국관광 품질인증/Korea Quality],경기도,37.5803987789,127.6816455854,2950204,,"관광,숙박",,,,,,[],
생각의 계절,경상남도,34.7648921612,127.8502020026,2552124,,"관광,숙박",,,,,,[],
생비원[한국관광 품질인증/Korea Quality],경상북도,35.8008451644,128.1766181862,2651484,,"관광,숙박",,,,,,[],
생폴드방스 펜션,전북특별자치도,35.5958123757,126.557217226,2569785,,"관광,숙박",,,,,,[],
샤니모텔,전북특별자치도,35.728414192,126.7351424447,2528107,,"관광,숙박",,,,,,[],
샤뜰레 펜션,제주특별자치도,33.2483915481,126.5288644613,978343,,"관광,숙박",,,,,,[],
샤이니호텔,제주특별자치도,33.4707099625,126.7842817191,1748965,,"관광,숙박",,,,,,[],
샬레리조트,강원특별자치도,37.5755035246,128.3491686767,138661,,"관광,숙박",,,,,,[],
샵모텔,전라남도,34.7590590257,127.6638101185,725472,,"관광,숙박",,,,,,[],
샹그리아비치호텔,전라남도,34.7971395801,126.4334090151,143092,,"관광,숙박",,,,,,[],
서귀포 귤림성,제주특별자치도,33.2503192271,126.5360193536,137788,,"관광,숙박",,,,,,[],
서귀포KAL호텔,제주특별자치도,33.2443539282,126.5808072727,142965,,"관광,숙박",,,,,,[],
서늘기문화[한국관광 품질인증/Korea Quality],경상북도,36.8474032276,128.6014537087,2950932,,"관광,숙박",,,,,,[],
서로,전북특별자치도,35.8157753315,127.1536056922,1972381,,"관광,숙박",,,,,,[],
서로재,강원특별자치도,38.3162068703,128.5181278817,2941159,,"관광,숙박",,,,,,[],
서머셋 제주신화월드,제주특별자치도,33.3029183065,126.3175482431,2561932,,"관광,숙박",,,,,,[],
서문한옥게스트하우스,대구광역시,35.8667617259,128.5795752731,2570282,,"관광,숙박",,,,,,[],
서산아리아호텔,충청남도,36.7779724263,126.4527654236,2544743,,"관광,숙박",,,,,,[],
서울 선샤인호텔,서울특별시,37.5206271494,127.0287871848,142712,,"관광,숙박",,,,,,[],
서울 성북 홈스테이,서울특별시,37.6017901504,127.0404421537,2574202,,"관광,숙박",,,,,,[],
서울 타이완 게스트하우스,서울특별시,37.5581885778,126.9800488938,2570293,,"관광,숙박",,,,,,[],
서울신라호텔,서울특별시,37.5559337349,127.0051688913,142734,,"관광,숙박",,,,,,[],
서울앤호텔 동대문,서울특별시,37.5733792118,127.0208530785,2662237,,"관광,숙박",,,,,,[],
서울이야기 한옥(서울이야기한옥게스트하우스),서울특별시,37.577005917,126.9846035015,2569150,,"관광,숙박",,,,,,[],
서울크라운88게스트하우스[한국관광 품질인증/Korea Quality],서울특별시,37.5631509288,126.9264036431,2652747,,"관광,숙박",,,,,,[],
서울한옥스테이(jnpstay),서울특별시,37.5769584543,126.9708991967,2804401,,"관광,숙박",,,,,,[],
서천 휴모텔,충청남도,36.1725044015,126.5271579508,138875,,"관광,숙박",,,,,,[],
서촌게스트하우스[한국관광 품질인증/Korea Quality],서울특별시,37.5790915353,126.9706491586,2465879,,"관광,숙박",,,,,,[],
서툰가족,제주특별자치도,33.2282179181,126.2980682613,2707417,,"관광,숙박",,,,,,[],
서퍼스파라다이스 STAY,강원특별자치도,37.9697269055,128.7616416007,2913616,,"관광,숙박",,,,,,[],
서학아트 게스트하우스,전북특별자치도,35.8098620588,127.1503700237,2573972,,"관광,숙박",,,,,,[],
석정댁,경상북도,35.6670529242,128.2290727562,1872077,,"관광,숙박",,,,,,[],
선샤인비치,강원특별자치도,38.2445662128,128.5692754715,2907815,,"관광,숙박",,,,,,[],
선성현문화단지한옥체험관,경상북도,36.7001879229,128.8108754756,2597615,,"관광,숙박",,,,,,[],
선셋티아,제주특별자치도,33.5076545994,126.7048710974,3487794,,"관광,숙박",,,,,,[],
선셋호텔[한국관광 품질인증/Korea Quality],부산광역시,35.1601825829,129.1614299949,985337,,"관광,숙박",,,,,,[],
선영아사랑해,강원특별자치도,37.4611847846,128.27528431,2761393,,"관광,숙박",,,,,,[],
선와당(이광명고택),충청남도,36.2136960538,126.6398217662,2623941,,"관광,숙박",,,,,,[],
선운산호텔,전북특별자치도,35.5037066416,126.5849948492,143000,,"관광,숙박",,,,,,[],
선유화길[한국관광 품질인증/Korea Quality],전라남도,34.7838902554,126.3835776244,2950324,,"관광,숙박",,,,,,[],
설국펜션,전북특별자치도,35.9081453079,127.7802642372,1883082,,"관광,숙박",,,,,,[],
설산펜션,강원특별자치도,38.2165989457,128.370075016,138679,,"관광,숙박",,,,,,[],
설아다원,전라남도,34.4681580354,126.6601136214,1872145,,"관광,숙박",,,,,,[],
설악비치펜션,강원특별자치도,38.1293945493,128.6229686355,2913842,,"관광,숙박",,,,,,[],
설악산파크리조트,강원특별자치도,38.1661439153,128.524379219,2044012,,"관광,숙박",,,,,,[],
설악의정원,강원특별자치도,38.2146964632,128.5174866672,2913693,,"관광,숙박",,,,,,[],
설악힐호텔,강원특별자치도,38.1959906864,128.5370326962,2531360,,"관광,숙박",,,,,,[],
성암재,경상북도,36.9402401946,128.9136370309,2594865,,"관광,숙박",,,,,,[],
성주 포천파크,경상북도,35.8694539641,128.1716111985,1433244,,"관광,숙박",,,,,,[],
세느 게스트하우스,대구광역시,35.8688898384,128.6107946863,2575698,,"관광,숙박",,,,,,[],
세도나 펜션,강원특별자치도,37.682060239,127.7372958909,678650,,"관광,숙박",,,,,,[],
세레나데 펜션,경기도,37.6025548633,127.3969430146,398160,,"관광,숙박",,,,,,[],
세븐헤르츠 호텔,경기도,37.3432258667,126.7363882164,1927171,,"관광,숙박",,,,,,[],
세심천온천호텔,충청남도,36.6857229357,126.6706037474,3039115,,"관광,숙박",,,,,,[],
세인트존스 호텔,강원특별자치도,37.794078097,128.9186301059,2603352,,"관광,숙박",,,,,,[],
세인트존스호텔 파인 인피니티풀,강원특별자치도,37.7911618243,128.9215243801,2913922,,"관광,숙박",,,,,,[],
세잔느와갤러리,경기도,37.5339086501,127.6234716596,945319,,"관광,숙박",,,,,,[],
세화호스텔,서울특별시,37.5747868333,126.9903308202,2650656,,"관광,숙박",,,,,,[],
센텀프리미어호텔,부산광역시,35.1669646046,129.1316129571,2595523,,"관광,숙박",,,,,,[],
센트럴관광호텔,광주광역시,35.1543590066,126.8504744966,143074,,"관광,숙박",,,,,,[],
센트럴파크 호텔,부산광역시,35.1005508289,129.0359786465,2531416,,"관광,숙박",,,,,,[],
셔블,경상북도,35.836815788,129.2115428065,2569552,,"관광,숙박",,,,,,[],
소강고택,경상북도,36.8936916905,128.7123591267,2047715,,"관광,숙박",,,,,,[],
소낭구펜션,경상남도,34.8512508091,128.7250873889,1872168,,"관광,숙박",,,,,,[],
소노벨 단양,충청북도,36.9775838038,128.3626906905,228935,,"관광,숙박",,,,,,[],
소노벨 비발디파크,강원특별자치도,37.6523905338,127.6873540732,136636,,"관광,숙박",,,,,,[],
소노벨 제주,제주특별자치도,33.5402087913,126.6713315983,232287,,"관광,숙박",,,,,,[],
소노벨 천안,충청남도,36.7576993761,127.2239241377,2775632,,"관광,숙박",,,,,,[],
소노벨 청송,경상북도,36.378255304,129.1101194706,2770765,,"관광,숙박",,,,,,[],
소노캄 고양,경기도,37.661980741,126.7508224383,2496500,,"관광,숙박",,,,,,[],
소라모텔,서울특별시,37.5571019347,126.9433411589,1731338,,"관광,숙박",,,,,,[],
소매물도펜션,경상남도,34.6289974457,128.5490668701,2577567,,"관광,숙박",,,,,,[],
소설스미스 호텔,경기도,37.2603628345,127.0258975459,2849882,,"관광,숙박",,,,,,[],
소소,충청남도,36.6419966708,126.3042907874,2575702,,"관광,숙박",,,,,,[],
소양고택 한옥스테이,전북특별자치도,35.9031141763,127.2433009708,2622784,,"관광,숙박",,,,,,[],
소은고택,경상남도,35.5500997182,128.7003067554,3072231,,"관광,숙박",,,,,,[],
소테츠 프레사 인 서울 명동,서울특별시,37.5637380215,126.9850260612,2992043,,"관광,숙박",,,,,,[],
소테츠 호텔즈 더 스프라지르 서울 동대문,서울특별시,37.5647716435,127.0077767369,2991972,,"관광,숙박",,,,,,[],
소테츠 호텔즈 더 스프라지르 서울 명동,서울특별시,37.5621269853,126.9787544559,2992010,,"관광,숙박",,,,,,[],
소풍가는날 펜션,경기도,37.5265385354,127.691390717,137999,,"관광,숙박",,,,,,[],
소풍호텔,경기도,37.7849318546,126.6820141537,1746337,,"관광,숙박",,,,,,[],
소피아하우스,서울특별시,37.4748602863,127.031302139,2569948,,"관광,숙박",,,,,,[],
소피텔 앰배서더 서울 호텔&서비스드 레지던스,서울특별시,37.5139237687,127.1063803122,3337577,,"관광,숙박",,,,,,[],
속리산 천왕봉 가는길에 펜션,충청북도,36.5200797081,127.8578516539,2042157,,"관광,숙박",,,,,,[],
속초 관광호텔 베리트,강원특별자치도,38.2003132604,128.5810202313,3451070,,"관광,숙박",,,,,,[],
솔그림펜션,충청남도,36.6971270787,126.1794339785,707921,,"관광,숙박",,,,,,[],
솔까치펜션,경기도,37.5476958872,127.6205770764,945384,,"관광,숙박",,,,,,[],
솔라리아 니시테츠호텔 부산,부산광역시,35.1523732152,129.0582002983,2595893,,"관광,숙박",,,,,,[],
솔마루펜션(서천),충청남도,36.158722536,126.5207061088,138484,,"관광,숙박",,,,,,[],
솔마루황토펜션,충청남도,36.5489418015,126.3676319483,907563,,"관광,숙박",,,,,,[],
솔방울펜션,강원특별자치도,38.194548069,128.3354288514,232288,,"관광,숙박",,,,,,[],
솔밭개울펜션,강원특별자치도,37.4762270842,128.4004281394,2801324,,"관광,숙박",,,,,,[],
솔섬마을 관광펜션,강원특별자치도,37.5244850823,128.3838559662,2569697,,"관광,숙박",,,,,,[],
솔숲,강원특별자치도,37.6399737692,128.4908983916,2761271,,"관광,숙박",,,,,,[],
솔치송어파티펜션,강원특별자치도,37.2684584003,128.2005300693,2913759,,"관광,숙박",,,,,,[],
솔향기 펜션,강원특별자치도,37.714456337,127.7297011833,629268,,"관광,숙박",,,,,,[],
솔향기가득한집,강원특별자치도,37.397976805,129.2144518966,938538,,"관광,숙박",,,,,,[],
솔호텔,전북특별자치도,35.8295324416,127.1733063569,2707452,,"관광,숙박",,,,,,[],
솜누스,경상남도,35.1909151926,128.0873979517,1746376,,"관광,숙박",,,,,,[],
송계헌,경상북도,36.5430149752,128.5566859586,2706613,,"관광,숙박",,,,,,[],
송라오스,경상북도,36.2527550635,129.369305841,3044612,,"관광,숙박",,,,,,[],
송림펜션,강원특별자치도,37.5512658484,128.5571367696,2760309,,"관광,숙박",,,,,,[],
송월파크,강원특별자치도,38.168393535,128.5182324854,1135110,,"관광,숙박",,,,,,[],
송이도생태체험장(펜션)(송이도친환경가족펜션),전라남도,35.2764029976,126.1503058297,2569162,,"관광,숙박",,,,,,[],
송이모텔,강원특별자치도,38.1169267103,128.6309682982,621231,,"관광,숙박",,,,,,[],
송정고택,경상북도,36.4359304808,129.0262446486,1992543,,"관광,숙박",,,,,,[],
쇼모텔,경상북도,36.561687807,128.7027474443,3049824,,"관광,숙박",,,,,,[],
수곡고택,경상북도,36.5741025235,128.5263155432,2569165,,"관광,숙박",,,,,,[],
수다락펜션,경기도,37.5870906038,127.5817488984,2503316,,"관광,숙박",,,,,,[],
수림펜션,경기도,37.9366512016,127.3475044692,138040,,"관광,숙박",,,,,,[],
수미르펜션,경상남도,34.7092282659,128.5981271747,137943,,"관광,숙박",,,,,,[],
수산궁모텔,경상북도,36.5652598474,128.7147573857,3049883,,"관광,숙박",,,,,,[],
수산모텔,강원특별자치도,38.0792457743,128.6718768743,2543891,,"관광,숙박",,,,,,[],
수안보상록호텔,충청북도,36.8476028878,127.9884862852,142840,,"관광,숙박",,,,,,[],
수안보파크호텔,충청북도,36.8437892949,127.9807981939,142833,,"관광,숙박",,,,,,[],
수정펜션,강원특별자치도,37.6874277363,128.693836981,2801106,,"관광,숙박",,,,,,[],
수진한옥펜션,전라남도,34.7254391241,127.0905362207,2575169,,"관광,숙박",,,,,,[],
수한예,강원특별자치도,37.9050457391,127.7535350412,2913428,,"관광,숙박",,,,,,[],
순천게스트하우스느림,전라남도,34.9465934133,127.4956284317,2398942,,"관광,숙박",,,,,,[],
순천만 해룡성고택,전라남도,34.9199465254,127.5024785074,1872349,,"관광,숙박",,,,,,[],
순천만민속한옥펜션,전라남도,34.891352606,127.507762103,2050523,,"관광,숙박",,,,,,[],
순천만숲,전라남도,34.8972685866,127.5065148402,2814147,,"관광,숙박",,,,,,[],
순천만에코촌 유스호스텔[한국관광 품질인증/Korea Quality],전라남도,34.923146407,127.5164605324,1972438,,"관광,숙박",,,,,,[],
숨 펜션,전북특별자치도,35.5876365045,127.1041521266,2388419,,"관광,숙박",,,,,,[],
숲사이길펜션,강원특별자치도,37.6864342461,128.5932488595,2760023,,"관광,숙박",,,,,,[],
숲속의 궁전,경기도,37.7684935634,127.2258871309,139064,,"관광,숙박",,,,,,[],
숲속의 요정,강원특별자치도,37.6065965847,128.3194259843,398029,,"관광,숙박",,,,,,[],
숲속의 정원,강원특별자치도,38.3065907726,128.4897279899,2913805,,"관광,숙박",,,,,,[],
숲속의강촌,강원특별자치도,37.8031304081,127.6361459651,690998,,"관광,숙박",,,,,,[],
숲속의연인별,강원특별자치도,37.4975552091,128.2556044466,3490410,,"관광,숙박",,,,,,[],
숲속의집,강원특별자치도,37.9320129261,128.6748339538,2913602,,"관광,숙박",,,,,,[],
숲속하얀뜰,강원특별자치도,37.5753952858,128.3535071775,2800886,,"관광,숙박",,,,,,[],
숲속힐링이야기,강원특별자치도,38.1384583326,128.2403836728,624275,,"관광,숙박",,,,,,[],
쉐라톤 그랜드 인천 호텔,인천광역시,37.3902882437,126.6454035333,787644,,"관광,숙박",,,,,,[],
쉐르마모텔,경기도,37.3382322086,126.7481067326,1927125,,"관광,숙박",,,,,,[],
쉬리펜션,전라남도,35.2045689918,127.6014208485,2804416,,"관광,숙박",,,,,,[],
슈바이처도르프호텔,충청남도,36.8275398864,127.1422601301,3090665,,"관광,숙박",,,,,,[],
슈슈게스트하우스,전라남도,34.930822972,127.4961176791,2575718,,"관광,숙박",,,,,,[],
스노우밸리펜션(스노우밸리),전북특별자치도,35.9091364046,127.754613708,2572009,,"관광,숙박",,,,,,[],
스노우힐펜션,강원특별자치도,37.560559208,128.5565476522,2761407,,"관광,숙박",,,,,,[],
스위트룸[한국관광 품질인증/Korea Quality],서울특별시,37.5564961739,126.9279370248,2950475,,"관광,숙박",,,,,,[],
스카이 모텔(울산),울산광역시,35.5384738478,129.3298353584,137890,,"관광,숙박",,,,,,[],
스카이모텔,경상북도,36.5783730667,128.7586003355,3049914,,"관광,숙박",,,,,,[],
스카이모텔(여수),전라남도,34.7398429483,127.7340155761,1144737,,"관광,숙박",,,,,,[],
스카이베이호텔 경포,강원특별자치도,37.8043183671,128.907805764,2903111,,"관광,숙박",,,,,,[],
스카이탑호텔,인천광역시,37.4913683997,126.5008361513,2783477,,"관광,숙박",,,,,,[],
스타리아호스텔,서울특별시,37.5584830965,126.9861038896,2576344,,"관광,숙박",,,,,,[],
스타비아호텔,경기도,37.6403237533,126.6846707604,2870003,,"관광,숙박",,,,,,[],
스타즈 호텔 제주 로베로(구 로베로호텔),제주특별자치도,33.5128872053,126.5220229746,143036,,"관광,숙박",,,,,,[],
스타즈호텔프리미어동탄,경기도,37.204159028,127.0706478355,2708340,,"관광,숙박",,,,,,[],
스타팰리스 펜션,충청남도,36.6115389352,126.2964422962,767174,,"관광,숙박",,,,,,[],
스타호텔,강원특별자치도,37.2274608497,128.8126930211,138984,,"관광,숙박",,,,,,[],
스탕달호텔,대전광역시,36.3568641707,127.3445464739,2931417,,"관광,숙박",,,,,,[],
스탠포드 인 부산,부산광역시,35.0978926823,129.0299597979,2548508,,"관광,숙박",,,,,,[],
스탠포드 호텔&리조트 통영,경상남도,34.8244958866,128.4394129472,2548523,,"관광,숙박",,,,,,[],
스탠포드호텔 서울,서울특별시,37.5824118671,126.8866622788,2548479,,"관광,숙박",,,,,,[],
스테리나잇 제주,제주특별자치도,33.4622061589,126.3122812503,2814168,,"관광,숙박",,,,,,[],
스테이 구도[한국관광 품질인증/Korea Quality],전라남도,34.7919170742,126.3802221726,2950307,,"관광,숙박",,,,,,[],
스테이 데이 오프,서울특별시,37.5773111969,126.9712158243,2707439,,"관광,숙박",,,,,,[],
스테이 앤드 스튜디오 여여재,충청남도,36.6766143894,126.2741703813,2804347,,"관광,숙박",,,,,,[],
스테이 오아스,경상북도,36.7111991439,128.4410553,3316818,,"관광,숙박",,,,,,[],
스테이 인터뷰(강릉),강원특별자치도,37.7080065461,129.0122660114,3022827,,"관광,숙박",,,,,,[],
스테이 지안[한국관광 품질인증/Korea Quality],대구광역시,35.865751265,128.608628298,2865273,,"관광,숙박",,,,,,[],
스테이 패스포트 신당 료칸,서울특별시,37.566616127,127.0218837323,3484585,,"관광,숙박",,,,,,[],
스테이 패스포트 익스프레스 스파 당산점,서울특별시,37.536700699,126.8969987368,3484356,,"관광,숙박",,,,,,[],
스테이가진,강원특별자치도,38.364670444,128.5068940513,2814151,,"관광,숙박",,,,,,[],
스테이다로2[한국관광 품질인증/Korea Quality],강원특별자치도,38.0213729065,128.7214575188,2950353,,"관광,숙박",,,,,,[],
스테이다로[한국관광 품질인증/Korea Quality],강원특별자치도,38.0212673722,128.721921369,2950193,,"관광,숙박",,,,,,[],
스테이리운[한국관광 품질인증/Korea Quality],전북특별자치도,35.4053119073,127.3790241595,2950209,,"관광,숙박",,,,,,[],
스테이소소리,경상북도,35.7691754436,129.3186992384,3082026,,"관광,숙박",,,,,,[],
스테이황룡,전라남도,35.2949723093,126.7701058703,2811451,,"관광,숙박",,,,,,[],
스파뷰호텔,충청남도,36.6888002117,126.6621210974,3446629,,"관광,숙박",,,,,,[],
스페이스 모다[한국관광 품질인증/Korea Quality],서울특별시,37.5867385373,127.0078983246,2950326,,"관광,숙박",,,,,,[],
스페이스앤무드[한국관광 품질인증/Korea Quality],부산광역시,35.1599112511,129.0577306889,2950362,,"관광,숙박",,,,,,[],
스페이스휴,서울특별시,37.5067304392,127.1219318799,3049274,,"관광,숙박",,,,,,[],
스페인마을 라스블랑카스 펜션,경기도,37.6894887457,127.3716178046,3337413,,"관광,숙박",,,,,,[],
스프링힐 리조트,제주특별자치도,33.2509287039,126.4368501597,970675,,"관광,숙박",,,,,,[],
슬로우오션 풀빌라 펜션[한국관광 품질인증/Korea Quality],경상북도,36.2518219017,129.3727388998,2950481,,"관광,숙박",,,,,,[],
시골밥상펜션,강원특별자치도,37.2924481737,128.5407932256,2801354,,"관광,숙박",,,,,,[],
시그니엘 부산,부산광역시,35.1611020536,129.1684043635,2736088,,"관광,숙박",,,,,,[],
시나브로 모텔,강원특별자치도,38.1909867418,128.5899502673,620411,,"관광,숙박",,,,,,[],
시냇물졸졸졸,경기도,37.5147077263,127.603312933,944999,,"관광,숙박",,,,,,[],
시네마모텔,경기도,37.3912287001,126.7403948531,1746160,,"관광,숙박",,,,,,[],
시마모텔,경기도,37.9061021959,127.0547265704,1831205,,"관광,숙박",,,,,,[],
시실리펜션(펜션시실리),강원특별자치도,37.6927544727,127.7927266563,2576353,,"관광,숙박",,,,,,[],
시우와당,경상북도,35.8349771259,129.2125538812,2575745,,"관광,숙박",,,,,,[],
시운재,경상남도,35.5320564178,128.9530767833,2752335,,"관광,숙박",,,,,,[],
시원,전북특별자치도,35.8126090282,127.1538140898,1972487,,"관광,숙박",,,,,,[],
시은재,서울특별시,37.5737035704,126.9872477984,2465890,,"관광,숙박",,,,,,[],
시크릿가든,경기도,37.9258104519,127.1768342742,946271,,"관광,숙박",,,,,,[],
시휴별당[한국관광 품질인증/Korea Quality],경상북도,35.8343576587,129.2076348857,2950478,,"관광,숙박",,,,,,[],
신나개 애견펜션,강원특별자치도,37.3818736659,129.2432470395,2913773,,"관광,숙박",,,,,,[],
신두리파크펜션,충청남도,36.8381442608,126.1871184639,908574,,"관광,숙박",,,,,,[],
신라부티크호텔 프리미엄,경상북도,35.8414150801,129.2015352189,1873982,,"관광,숙박",,,,,,[],
신라불교초전지,경상북도,36.2909540143,128.3633602966,2679990,,"관광,숙박",,,,,,[],
신라스테이 동탄,경기도,37.2025509274,127.0732393122,2716763,,"관광,숙박",,,,,,[],
신라스테이 서부산,부산광역시,35.0967044145,128.9052901222,2714406,,"관광,숙박",,,,,,[],
신라스테이 울산,울산광역시,35.5374267303,129.3291410041,2570801,,"관광,숙박",,,,,,[],
신라스테이 제주,제주특별자치도,33.4855175198,126.4910512883,2716736,,"관광,숙박",,,,,,[],
신라스테이 천안,충청남도,36.825828989,127.1432323117,2717354,,"관광,숙박",,,,,,[],
신리마을회(너와마을),강원특별자치도,37.1837386673,129.1300215382,2569169,,"관광,숙박",,,,,,[],
신림빌(SS-Seoulstay),서울특별시,37.4867013525,126.9194119907,2569183,,"관광,숙박",,,,,,[],
신세계호텔,제주특별자치도,33.2447147065,126.5623172,137348,,"관광,숙박",,,,,,[],
신신호텔 제주오션,제주특별자치도,33.2459867883,126.5623477245,1846473,,"관광,숙박",,,,,,[],
신영펜션,강원특별자치도,37.6277235774,127.667159406,139183,,"관광,숙박",,,,,,[],
신촌 시스터즈,서울특별시,37.5539549409,126.9356725027,2708666,,"관광,숙박",,,,,,[],
실크로드관광호텔,경기도,37.2671509869,127.0286304415,2445211,,"관광,숙박",,,,,,[],
싼타모관광호텔,광주광역시,35.1626629364,126.8096473451,143167,,"관광,숙박",,,,,,[],
쌍둥이네흙집펜션,전라남도,34.6342299295,127.7434257645,1937451,,"관광,숙박",,,,,,[],
써미트 호텔 서울,서울특별시,37.5623052464,127.0068407802,2011019,,"관광,숙박",,,,,,[],
썬라이즈펜션,충청남도,36.897798785,126.2051791366,908509,,"관광,숙박",,,,,,[],
썬랜드 호텔,제주특별자치도,33.4839982207,126.4895708953,136453,,"관광,숙박",,,,,,[],
썬밸리호텔,경기도,37.2931233209,127.6610279967,1991188,,"관광,숙박",,,,,,[],
썬클라우드호텔,부산광역시,35.1604686777,129.1622688032,3076745,,"관광,숙박",,,,,,[],
쏠리오,강원특별자치도,37.8443099887,127.5421560883,2913431,,"관광,숙박",,,,,,[],
쏠비치 호텔&리조트 양양,강원특별자치도,38.0870503017,128.6656244202,590440,,"관광,숙박",,,,,,[],
씨마크호텔,강원특별자치도,37.7972554378,128.9151025474,2479573,,"관광,숙박",,,,,,[],
씨에나펜션,제주특별자치도,33.2421399797,126.3857325676,973990,,"관광,숙박",,,,,,[],
씨에스 호텔&리조트,제주특별자치도,33.242918208,126.4198240376,142948,,"관광,숙박",,,,,,[],
씨엔블루 펜션,충청남도,36.9564573469,126.290278182,914593,,"관광,숙박",,,,,,[],
씨엘모텔(CL모텔),서울특별시,37.5283923241,126.8405846688,136578,,"관광,숙박",,,,,,[],
씨원리조트 자은도,전라남도,34.8502605348,126.0407758115,3403879,,"관광,숙박",,,,,,[],
씨월드관광호텔,인천광역시,37.464310909,126.3690322729,987145,,"관광,숙박",,,,,,[],
씨젠콘도텔,강원특별자치도,38.1165295211,128.6302933717,139819,,"관광,숙박",,,,,,[],
아난티 남해,경상남도,34.7774074746,127.8529458871,232298,,"관광,숙박",,,,,,[],
아난티 앳 부산 코브,부산광역시,35.1979934802,129.2283259162,2503780,,"관광,숙박",,,,,,[],
아난티펜트하우스서울,경기도,37.6265675506,127.4835511147,2765676,,"관광,숙박",,,,,,[],
아늑에어 호텔 가평점,경기도,37.8187844092,127.3493438559,3484312,,"관광,숙박",,,,,,[],
아늑에어 호텔 개봉점,서울특별시,37.4946409761,126.8565924905,3484551,,"관광,숙박",,,,,,[],
아늑호텔 앤 스파 종로운니점,서울특별시,37.5765699508,126.9898474804,3484425,,"관광,숙박",,,,,,[],
아늑호텔 앤 스파 평택점,경기도,37.0833199983,127.0581689947,3484193,,"관광,숙박",,,,,,[],
아늑호텔 영등포점,서울특별시,37.5190251431,126.9064205977,3484512,,"관광,숙박",,,,,,[],
아담하우스,강원특별자치도,38.1179876751,128.6297905947,2913476,,"관광,숙박",,,,,,[],
아담한옥,서울특별시,37.5803885888,126.9696769883,3072227,,"관광,숙박",,,,,,[],
아덴힐리조트&골프,제주특별자치도,33.348127981,126.3672651377,3084988,,"관광,숙박",,,,,,[],
아드리아모텔,충청남도,36.1721266578,126.5266302298,137506,,"관광,숙박",,,,,,[],
아라누리펜션,경상북도,36.8471941274,129.4289384728,2017499,,"관광,숙박",,,,,,[],
아레나 펜션,강원특별자치도,37.6895592578,127.7313462106,678688,,"관광,숙박",,,,,,[],
아름다운 산골,경상남도,35.2702868955,127.6193620098,2785825,,"관광,숙박",,,,,,[],
아름다운 황토집,서울특별시,37.6257102593,126.9229855187,2575171,,"관광,숙박",,,,,,[],
아름다운기억,강원특별자치도,37.8401830837,128.0095303711,900729,,"관광,숙박",,,,,,[],
아름다운바다콘도텔,강원특별자치도,38.1557495437,128.6088940916,2913626,,"관광,숙박",,,,,,[],
아름다운집,강원특별자치도,37.8289684533,127.6028871202,2913441,,"관광,숙박",,,,,,[],
아리네 게스트하우스,광주광역시,35.1416504368,126.9160162417,2548018,,"관광,숙박",,,,,,[],
아리랑힐 호텔 동대문,서울특별시,37.593726772,127.0167028794,2370202,,"관광,숙박",,,,,,[],
아리오,강원특별자치도,37.6434147618,128.3308016286,2761359,,"관광,숙박",,,,,,[],
아리하우스,서울특별시,37.560357891,126.9867926625,2569959,,"관광,숙박",,,,,,[],
아마레호텔,경기도,37.281403859,126.9707491862,2846969,,"관광,숙박",,,,,,[],
아만티호텔서울,서울특별시,37.5571903727,126.9187184009,2917245,,"관광,숙박",,,,,,[],
아망뜨펜션(제주),제주특별자치도,33.3060923857,126.806436338,733613,,"관광,숙박",,,,,,[],
아모렉스관광호텔,서울특별시,37.5636611567,127.0353298134,1323434,,"관광,숙박",,,,,,[],
아모르앤심포니호텔,경기도,37.2545060627,127.0753182266,2849901,,"관광,숙박",,,,,,[],
아몬드호텔,부산광역시,35.113810543,129.0406862085,2708693,,"관광,숙박",,,,,,[],
아미띠에펜션,강원특별자치도,37.2516128719,128.7733069336,138076,,"관광,숙박",,,,,,[],
아미부티크 호텔,경기도,37.2256043706,127.1042969637,3085019,,"관광,숙박",,,,,,[],
아바타 펜션,경기도,37.6179828948,127.3568462162,679125,,"관광,숙박",,,,,,[],
아산 웨스턴모텔,충청남도,36.8554672211,126.9852457507,2517013,,"관광,숙박",,,,,,[],
아쇼카펜션,강원특별자치도,38.0514548827,128.6884929008,2913834,,"관광,숙박",,,,,,[],
아우라 호텔,경기도,37.3079513939,126.8489206258,2861318,,"관광,숙박",,,,,,[],
아웃도어패밀리,강원특별자치도,38.043296537,128.20633135,138081,,"관광,숙박",,,,,,[],
아이비 스테이,경기도,37.2704945747,127.0023632875,2849935,,"관광,숙박",,,,,,[],
아이올라 2(아이올라 홍대 AIOLA Hongdae 爱游乐 弘大),서울특별시,37.5629953547,126.9243760548,2569224,,"관광,숙박",,,,,,[],
아이체크 현진호텔,강원특별자치도,37.5229910713,129.1176761553,3044613,,"관광,숙박",,,,,,[],
아일랜드캐슬,인천광역시,37.9672464866,124.7218346007,820165,,"관광,숙박",,,,,,[],
아침에새소리,강원특별자치도,37.6168791597,128.3421486243,2913639,,"관광,숙박",,,,,,[],
아침의 소리,강원특별자치도,37.598292457,128.3439934602,2761179,,"관광,숙박",,,,,,[],
아침의향기,제주특별자치도,33.2655961758,126.4144767725,985385,,"관광,숙박",,,,,,[],
아쿠아틱리조트,강원특별자치도,38.0449445466,127.6697079576,1266373,,"관광,숙박",,,,,,[],
아트인아일랜드,강원특별자치도,37.6210205587,128.3532697177,628176,,"관광,숙박",,,,,,[],
아폴로천문대펜션,강원특별자치도,38.1083996095,127.4438433755,2913802,,"관광,숙박",,,,,,[],
안개꽃필무렵,강원특별자치도,37.565609771,128.3252989047,2760372,,"관광,숙박",,,,,,[],
안개자니펜션,강원특별자치도,37.746027775,128.0322227959,138351,,"관광,숙박",,,,,,[],
안단테 북펜션,강원특별자치도,37.4304159585,128.2669109783,2759855,,"관광,숙박",,,,,,[],
안단테펜션,강원특별자치도,37.6448118224,128.3308210292,2761397,,"관광,숙박",,,,,,[],
안동 군자마을,경상북도,36.6737796646,128.8022020183,2598834,,"관광,숙박",,,,,,[],
안동고택 이상루,경상북도,36.634748453,128.6784947054,1883135,,"관광,숙박",,,,,,[],
안면도 노블레스펜션,충청남도,36.428878508,126.4073342844,972385,,"관광,숙박",,,,,,[],
안면도 지중해펜션,충청남도,36.5275992426,126.3341716398,907476,,"관광,숙박",,,,,,[],
안면도가족펜션 황토와통나무,충청남도,36.4174048749,126.4102093253,2375968,,"관광,숙박",,,,,,[],
안면도작은수해마을펜션,충청남도,36.6101957144,126.3590977786,2396807,,"관광,숙박",,,,,,[],
안성 프로방스 펜션,경기도,37.0546831416,127.4514481486,719305,,"관광,숙박",,,,,,[],
알멕스랜드,경기도,38.0731012751,127.0070316558,2594136,,"관광,숙박",,,,,,[],
알프스모텔,강원특별자치도,37.1731871612,128.9896704973,681597,,"관광,숙박",,,,,,[],
알프스비치,강원특별자치도,38.0215424252,128.7262792989,139820,,"관광,숙박",,,,,,[],
알프스온천모텔,울산광역시,35.5536063454,129.0796067849,820041,,"관광,숙박",,,,,,[],
알프스클럽,강원특별자치도,37.4948388678,128.2561878082,398170,,"관광,숙박",,,,,,[],
앙끄리에펜션,제주특별자치도,33.2632769775,126.4138213265,733622,,"관광,숙박",,,,,,[],
앙상블모텔,충청남도,36.4702501517,127.1289349493,495898,,"관광,숙박",,,,,,[],
애가Ⅱ,대구광역시,35.8732028547,128.589963068,2575756,,"관광,숙박",,,,,,[],
애견민박 멍집,충청남도,36.738710419,126.1352841129,2020385,,"관광,숙박",,,,,,[],
애비로드,강원특별자치도,37.4748022655,128.2546552095,2760305,,"관광,숙박",,,,,,[],
애월해안누리(구 하얀둥지),제주특별자치도,33.4705668076,126.3416562839,977101,,"관광,숙박",,,,,,[],
애플모텔,광주광역시,35.1520095234,126.8654010129,136422,,"관광,숙박",,,,,,[],
애플트리(Apple tree)(애플트리게스트하우스),서울특별시,37.5581512374,126.9111996144,2570447,,"관광,숙박",,,,,,[],
앨리게스트하우스,경상북도,35.8437511762,129.2147145529,2706685,,"관광,숙박",,,,,,[],
야우리펜션,충청남도,36.4132496764,126.4031322934,2376324,,"관광,숙박",,,,,,[],
약암홍염천관광호텔,경기도,37.6385855017,126.5522495862,142961,,"관광,숙박",,,,,,[],
양구콩세알민박(양구콩세알펜션),강원특별자치도,38.107054347,127.9849078969,2570378,,"관광,숙박",,,,,,[],
양덕드림빌 펜션,강원특별자치도,37.6138267865,127.7533769914,629262,,"관광,숙박",,,,,,[],
양소당,경상북도,36.5802355398,128.5468107666,1877312,,"관광,숙박",,,,,,[],
양양 스테이 프리덴,강원특별자치도,38.044894541,128.6888902912,139011,,"관광,숙박",,,,,,[],
양양국제공항호텔,강원특별자치도,38.0579949294,128.6442717036,2710709,,"관광,숙박",,,,,,[],
양양비치콘도,강원특별자치도,38.1083945647,128.6410537608,2907507,,"관광,숙박",,,,,,[],
양양해피플레이스,강원특별자치도,38.1416588123,128.5726755955,2913636,,"관광,숙박",,,,,,[],
양지민박,전북특별자치도,36.1178487145,125.9818667107,2390022,,"관광,숙박",,,,,,[],
양지펜션,경상남도,34.8032309456,128.4029139054,592257,,"관광,숙박",,,,,,[],
양참사댁(양동호 가옥 / 한옥152),전라남도,34.9843847639,126.911423348,2594831,,"관광,숙박",,,,,,[],
양평 오후다섯시[한국관광 품질인증/Korea Quality],경기도,37.4511945391,127.54329521,2950323,,"관광,숙박",,,,,,[],
양평밸리,경기도,37.5092847336,127.5271366653,1156406,,"관광,숙박",,,,,,[],
양평여울펜션,경기도,37.5312966537,127.5588664829,945157,,"관광,숙박",,,,,,[],
양평오즈펜션,경기도,37.6026685252,127.3852440755,912150,,"관광,숙박",,,,,,[],
어련당,울산광역시,35.5740924513,129.3503075669,2050197,,"관광,숙박",,,,,,[],
어름치펜션,강원특별자치도,37.2917399274,128.5410709995,2015628,,"관광,숙박",,,,,,[],
어반스테이플러스,충청남도,36.827003877,127.1445210519,2534236,,"관광,숙박",,,,,,[],
어반아일랜드호텔,제주특별자치도,33.4895893506,126.4947508744,3089195,,"관광,숙박",,,,,,[],
어반우드,서울특별시,37.5557184671,126.9268538117,2576511,,"관광,숙박",,,,,,[],
언노운호텔,전라남도,35.3201646838,126.9801894008,2707451,,"관광,숙박",,,,,,[],
언더힐펜션,강원특별자치도,37.5978841622,128.3435518456,3049903,,"관광,숙박",,,,,,[],
언덕위에 하얀집,경상남도,35.1613168126,127.9910016296,138701,,"관광,숙박",,,,,,[],
얼음골한옥펜션,경상남도,35.5982934067,128.9532971446,1882210,,"관광,숙박",,,,,,[],
엄둔가자화이트펜션,강원특별자치도,37.3396174204,128.2304336171,899898,,"관광,숙박",,,,,,[],
엄둔밸리 계곡펜션캠핑장,강원특별자치도,37.3099820345,128.2349007553,3072226,,"관광,숙박",,,,,,[],
에덴모텔,광주광역시,35.1620615106,126.8857878477,137748,,"관광,숙박",,,,,,[],
에델바이스,경기도,37.5147216049,127.6027963126,945085,,"관광,숙박",,,,,,[],
에버그린펜션,경상남도,34.7939477826,128.6645636135,2570382,,"관광,숙박",,,,,,[],
에버랜드 홈브리지,경기도,37.2893100954,127.2149184795,136639,,"관광,숙박",,,,,,[],
에브라임,강원특별자치도,37.5896512244,128.3142269614,2801071,,"관광,숙박",,,,,,[],
에스알호텔,경기도,37.5029772501,126.7640201407,2868984,,"관광,숙박",,,,,,[],
에스타시옹1913,전라남도,34.7836652663,126.3827221497,2707231,,"관광,숙박",,,,,,[],
에이스모텔,강원특별자치도,38.2268408186,128.5856912001,620477,,"관광,숙박",,,,,,[],
에이엠호텔,강원특별자치도,37.6710021996,128.7115164459,2759252,,"관광,숙박",,,,,,[],
에이원호텔 해도점,경상북도,36.0256890893,129.3682653116,2912841,,"관광,숙박",,,,,,[],
에이치모텔,경상북도,36.5492676358,128.7363864839,3049857,,"관광,숙박",,,,,,[],
에이치에비뉴 건대점,서울특별시,37.5460887604,127.0665830214,3091243,,"관광,숙박",,,,,,[],
에이치원호텔,광주광역시,35.1726908293,126.8836599917,3413550,,"관광,숙박",,,,,,[],
에코그린타운,경기도,37.2188505848,127.3137892909,691429,,"관광,숙박",,,,,,[],
에코랜드 호텔,제주특별자치도,33.4558430751,126.6681893538,2948165,,"관광,숙박",,,,,,[],
엔브릿지호텔,전북특별자치도,35.8099537505,127.152414284,3066567,,"관광,숙박",,,,,,[],
엔비치 모텔,경상북도,36.0582744849,129.3783329301,138215,,"관광,숙박",,,,,,[],
엔젤드림펜션,강원특별자치도,37.6277919353,128.3500003647,2499552,,"관광,숙박",,,,,,[],
엔트라호텔,서울특별시,37.524077103,127.0484852936,3080520,,"관광,숙박",,,,,,[],
엘도라도리조트 [우수숙박시설 굿스테이],전라남도,34.9645269531,126.1359479808,2399540,,"관광,숙박",,,,,,[],
엘도라도펜션,충청남도,36.6118304705,126.2906789209,642220,,"관광,숙박",,,,,,[],
엘르인호텔,서울특별시,37.54040717,126.9722167774,989821,,"관광,숙박",,,,,,[],
엘리시아,경상남도,35.5231168205,129.0103525782,139908,,"관광,숙박",,,,,,[],
엘리제모텔,부산광역시,35.1009951881,129.034017694,138575,,"관광,숙박",,,,,,[],
엘린호텔,제주특별자치도,33.4893532766,126.4954452638,2594519,,"관광,숙박",,,,,,[],
엘림마리나 & 리조트[한국관광 품질인증/Korea Quality],경상남도,34.8009999964,128.0527444941,2950477,,"관광,숙박",,,,,,[],
엘마 콘도텔,강원특별자치도,38.0211924946,128.7277597318,3049905,,"관광,숙박",,,,,,[],
엘솔펜션,강원특별자치도,37.2831758085,128.3301874197,575968,,"관광,숙박",,,,,,[],
엘스관광호텔,강원특별자치도,37.2275386036,128.8119042005,1294268,,"관광,숙박",,,,,,[],
엘스테이(Gangnam AN guesthouse),서울특별시,37.5048705253,127.0220687977,2570692,,"관광,숙박",,,,,,[],
엘시티 레지던스,부산광역시,35.1619491796,129.1683126815,2925797,,"관광,숙박",,,,,,[],
엠모텔,경기도,37.2653571305,126.5789519147,2016828,,"관광,숙박",,,,,,[],
엠블던호텔,경기도,37.3174194555,126.8328079386,2792906,,"관광,숙박",,,,,,[],
여기바다,경기도,37.2025445796,126.5567500982,2866334,,"관광,숙박",,,,,,[],
여느[한국관광 품질인증/Korea Quality],전라남도,35.2356047694,127.4639154933,2950195,,"관광,숙박",,,,,,[],
여락재,전라남도,34.7407284068,126.7184380198,2608081,,"관광,숙박",,,,,,[],
여로(산수동 한옥체험시설),광주광역시,35.1531798459,126.9251984745,2708324,,"관광,숙박",,,,,,[],
여림재펜션,전북특별자치도,35.7443566824,127.2117551665,2814991,,"관광,숙박",,,,,,[],
여수 베네치아 호텔앤리조트,전라남도,34.7458398082,127.7518721955,2700983,,"관광,숙박",,,,,,[],
여수 유탑 마리나 호텔&리조트,전라남도,34.744451054,127.7506417828,2823571,,"관광,숙박",,,,,,[],
여수한옥체험관,전라남도,34.7485512874,127.6300855578,2706514,,"관광,숙박",,,,,,[],
여우재산장,경기도,38.0509295572,127.3484843555,397700,,"관광,숙박",,,,,,[],
여울목펜션,강원특별자치도,38.0375092058,127.5152611711,1266236,,"관광,숙박",,,,,,[],
여천모텔,전라남도,34.757864701,127.6629879988,725524,,"관광,숙박",,,,,,[],
연경당,전라남도,35.0156899854,127.5859520697,1883086,,"관광,숙박",,,,,,[],
연모텔,경상북도,36.5659348037,128.7165210984,3049904,,"관광,숙박",,,,,,[],
연어의 고향 펜션,강원특별자치도,38.1092415716,128.635026503,138267,,"관광,숙박",,,,,,[],
연우당,전북특별자치도,35.8155864558,127.1531362943,2575760,,"관광,숙박",,,,,,[],
연우하우스[한국관광 품질인증/Korea Quality],서울특별시,37.5823358662,126.9853282846,1883087,,"관광,숙박",,,,,,[],
연천미라클타운,경기도,38.1311868377,127.044773722,2735326,,"관광,숙박",,,,,,[],
연천세계캠핑체험존(펜션),경기도,38.0075821462,127.0617257674,2708660,,"관광,숙박",,,,,,[],
연풍고택(문충고가),경상북도,35.6676778572,128.2292782771,1883104,,"관광,숙박",,,,,,[],
엽연초하우스,충청북도,37.136523727,128.2072027755,2814171,,"관광,숙박",,,,,,[],
영모텔,충청남도,36.8185412304,127.1596088135,137609,,"관광,숙박",,,,,,[],
영스테이,전북특별자치도,35.4480889957,126.4812471415,3472354,,"관광,숙박",,,,,,[],
영조관[한국관광 품질인증/Korea Quality],전북특별자치도,35.8003997276,127.1781039146,2637816,,"관광,숙박",,,,,,[],
영주온천관광호텔,경상북도,36.8166123903,128.6057181162,2017268,,"관광,숙박",,,,,,[],
영진한옥애,강원특별자치도,37.8682485932,128.8432096061,3072085,,"관광,숙박",,,,,,[],
영흥도관광펜션,인천광역시,37.2594424747,126.4958457545,2575774,,"관광,숙박",,,,,,[],
예래펜션,제주특별자치도,33.2539916775,126.4002560434,1348840,,"관광,숙박",,,,,,[],
예린당 바이 버틀러리,서울특별시,37.5782832921,126.9704353125,2940719,,"관광,숙박",,,,,,[],
예솔누리,강원특별자치도,37.2971465304,128.1883664326,138375,,"관광,숙박",,,,,,[],
예이츠 산장,제주특별자치도,33.3257535999,126.6010592399,662445,,"관광,숙박",,,,,,[],
예하도예 게스트하우스(YEHADOYE guesthouse),서울특별시,37.5744062273,126.9850701994,2576513,,"관광,숙박",,,,,,[],
예향,강원특별자치도,37.7047664737,128.0629601313,2683032,,"관광,숙박",,,,,,[],
옛날에금잔디,인천광역시,37.7161235947,126.3892095829,2468936,,"관광,숙박",,,,,,[],
옛마실펜션,경상남도,34.851028597,128.7243180171,2531683,,"관광,숙박",,,,,,[],
오늘[한국관광 품질인증/Korea Quality],전북특별자치도,35.8125091181,127.158352578,2950196,,"관광,숙박",,,,,,[],
오라카이 송도파크호텔,인천광역시,37.3882384021,126.6408762251,788974,,"관광,숙박",,,,,,[],
오렌지 게스트하우스,서울특별시,37.5548656419,126.9186656937,2570464,,"관광,숙박",,,,,,[],
오렌지모텔,강원특별자치도,38.154985719,128.6076247852,3049906,,"관광,숙박",,,,,,[],
오류헌,경상북도,36.5195151591,128.8668396641,2706485,,"관광,숙박",,,,,,[],
오르세호텔,경기도,37.2662927956,127.0310219154,2848421,,"관광,숙박",,,,,,[],
오리엔스호텔&레지던스(Oriens Hotel),서울특별시,37.5601413273,126.9911422728,3079553,,"관광,숙박",,,,,,[],
오무아무아 풀빌라,충청북도,36.909724615,128.3460024898,3097887,,"관광,숙박",,,,,,[],
오벨리스크,강원특별자치도,38.2054738993,127.2676233111,562354,,"관광,숙박",,,,,,[],
오색그린야드호텔,강원특별자치도,38.0802801961,128.4475110827,136084,,"관광,숙박",,,,,,[],
오션뷰리조텔,충청남도,36.323761744,126.5083084895,2770588,,"관광,숙박",,,,,,[],
오션솔레뷰호텔,인천광역시,37.4945666304,126.5793788898,2784005,,"관광,숙박",,,,,,[],
오션파크나인호텔,인천광역시,37.4928251628,126.5791956215,2785880,,"관광,숙박",,,,,,[],
오션하우스,제주특별자치도,33.2348340441,126.310189285,971331,,"관광,숙박",,,,,,[],
오션힐호텔,전라남도,34.7187288599,127.7464039188,2566867,,"관광,숙박",,,,,,[],
오슬로 무인텔,인천광역시,37.4216845574,126.6431362041,1748017,,"관광,숙박",,,,,,[],
오아시타 호스텔,광주광역시,35.1504134981,126.9256012862,2021093,,"관광,숙박",,,,,,[],
오엔시티호텔,충청남도,36.8111578897,127.1113133691,2595037,,"관광,숙박",,,,,,[],
오월의 푸른하늘,경기도,37.236107831,127.3639953703,3023465,,"관광,숙박",,,,,,[],
오월호텔,서울특별시,37.5006324696,127.0410782986,3080826,,"관광,숙박",,,,,,[],
오이아호텔,부산광역시,35.0574461572,128.9727630941,2706774,,"관광,숙박",,,,,,[],
오즈모텔,강원특별자치도,37.4856820511,127.9848570217,496377,,"관광,숙박",,,,,,[],
오크밸리,강원특별자치도,37.4343765405,127.8175319833,137475,,"관광,숙박",,,,,,[],
오크우드 프리미어 인천,인천광역시,37.3891939097,126.6444564277,2007951,,"관광,숙박",,,,,,[],
오크우드 프리미어 코엑스,서울특별시,37.5109649088,127.0580653487,2008490,,"관광,숙박",,,,,,[],
오크카운티펜션,강원특별자치도,37.4135370365,127.804114359,2913717,,"관광,숙박",,,,,,[],
오클라우드호텔,서울특별시,37.5030929836,127.0237186979,2814165,,"관광,숙박",,,,,,[],
오키드호텔,강원특별자치도,37.3467637382,127.9290050231,2907697,,"관광,숙박",,,,,,[],
오페라모텔,전라남도,34.7198315759,127.7499341373,250593,,"관광,숙박",,,,,,[],
오핑펜션,강원특별자치도,38.1282752631,128.6244240944,2913443,,"관광,숙박",,,,,,[],
오헤브데이호텔,전북특별자치도,35.4331839129,127.5475557684,3062829,,"관광,숙박",,,,,,[],
오후엔,인천광역시,37.5367193201,126.3788154991,2570709,,"관광,숙박",,,,,,[],
오히,경상북도,35.824170013,129.2125819637,3072218,,"관광,숙박",,,,,,[],
옥연정사,경상북도,36.5433753219,128.5180060538,1883590,,"관광,숙박",,,,,,[],
옥천전통문화체험관,충청북도,36.3167313825,127.5854621456,2854436,,"관광,숙박",,,,,,[],
옥포비지니스호텔,경상남도,34.890304217,128.6940418263,3044624,,"관광,숙박",,,,,,[],
온계종택 삼백당,경상북도,36.7495632059,128.8304056259,2595862,,"관광,숙박",,,,,,[],
온고을,전북특별자치도,35.8122534899,127.1524586644,2569980,,"관광,숙박",,,,,,[],
온나 게스트하우스,대구광역시,35.869094943,128.5875745037,2571948,,"관광,숙박",,,,,,[],
온도호텔,대구광역시,35.8546626954,128.5578441912,2552570,,"관광,숙박",,,,,,[],
온마루,경상북도,35.798838712,129.3158347544,2570563,,"관광,숙박",,,,,,[],
온양제일호텔,충청남도,36.7820675945,126.9994353633,143083,,"관광,숙박",,,,,,[],
온연 프라이빗 빌라[한국관광 품질인증/Korea Quality],충청남도,36.6937577927,126.6516691308,2817504,,"관광,숙박",,,,,,[],
온유헌 바이 버틀러리,서울특별시,37.581610989,126.9874892192,3072240,,"관광,숙박",,,,,,[],
온천스파벨리,충청남도,36.855278373,126.9863234364,3049915,,"관광,숙박",,,,,,[],
올리브뷰띠끄,강원특별자치도,37.6712660211,128.7096110538,139111,,"관광,숙박",,,,,,[],
올리브펜션,강원특별자치도,37.5739685092,129.1167357769,2913707,,"관광,숙박",,,,,,[],
옹기종기펜션,강원특별자치도,37.3487692662,128.3842417279,2800627,,"관광,숙박",,,,,,[],
옹달샘펜션,경기도,37.5930465358,127.4887016189,2570712,,"관광,숙박",,,,,,[],
와이앤지(Y&G)[한국관광 품질인증/Korea Quality],강원특별자치도,37.8053459071,128.9017118365,2653056,,"관광,숙박",,,,,,[],
와이이제이,경기도,37.2892337366,126.9836227986,2570565,,"관광,숙박",,,,,,[],
왕의지밀 고종관,전북특별자치도,35.8000747703,127.178406674,2706590,,"관광,숙박",,,,,,[],
왕의지밀 문종관,전북특별자치도,35.8006274628,127.1771484385,2706533,,"관광,숙박",,,,,,[],
왕의지밀 선조관,전북특별자치도,35.8004941532,127.1776345099,2706601,,"관광,숙박",,,,,,[],
왕의지밀 세조관,전북특별자치도,35.8005524757,127.177409528,2706521,,"관광,숙박",,,,,,[],
왕의지밀 세종관,전북특별자치도,35.8006968947,127.1768790159,2706561,,"관광,숙박",,,,,,[],
왕의지밀 숙종관,전북특별자치도,35.800446941,127.177876156,2706592,,"관광,숙박",,,,,,[],
왕의지밀 순종관,전북특별자치도,35.7998414647,127.1784788965,2706568,,"관광,숙박",,,,,,[],
왕의지밀 정조관,전북특별자치도,35.8003330727,127.1783705601,2706591,,"관광,숙박",,,,,,[],
왕의지밀 태조관,전북특별자치도,35.8006802193,127.1762901801,2706602,,"관광,숙박",,,,,,[],
왕의지밀 태종관,전북특별자치도,35.8007468842,127.1765984844,2706583,,"관광,숙박",,,,,,[],
왕포리조텔,전북특별자치도,35.5861468507,126.5597533551,495904,,"관광,숙박",,,,,,[],
욜로하우스,강원특별자치도,37.292209304,128.5403377182,2801629,,"관광,숙박",,,,,,[],
용문 벨라지오,경기도,37.5417153889,127.5860109406,138817,,"관광,숙박",,,,,,[],
용산 제주유스호스텔,제주특별자치도,33.2434491956,126.4509463268,2498637,,"관광,숙박",,,,,,[],
용인 진펜션,경기도,37.1574613918,127.2113336224,397851,,"관광,숙박",,,,,,[],
용화호텔,강원특별자치도,37.286796983,129.3084858031,2907240,,"관광,숙박",,,,,,[],
우리두리펜션,충청남도,36.6581864344,126.3020988936,906975,,"관광,숙박",,,,,,[],
우리민박,강원특별자치도,37.5635771463,128.3502356047,2801053,,"관광,숙박",,,,,,[],
우리빌리지펜션,강원특별자치도,37.6430675877,128.3312154908,2760684,,"관광,숙박",,,,,,[],
우미정,강원특별자치도,37.4854676116,128.5424706287,2800128,,"관광,숙박",,,,,,[],
우제스테이[한국관광 품질인증/Korea Quality],충청북도,36.8462946937,127.9879363719,2950769,,"관광,숙박",,,,,,[],
우포5마일,경상남도,35.5722280035,128.4086650853,1979782,,"관광,숙박",,,,,,[],
우포생태촌 유스호스텔,경상남도,35.5649873079,128.4171256494,2484080,,"관광,숙박",,,,,,[],
운정루,경상북도,35.7912826861,129.2458966484,2569237,,"관광,숙박",,,,,,[],
울산 굿모닝 관광호텔,울산광역시,35.5174531111,129.4306299415,143089,,"관광,숙박",,,,,,[],
워터월드,경기도,37.1720077045,126.6283999733,3363678,,"관광,숙박",,,,,,[],
원모텔,강원특별자치도,37.3579768373,127.9561911307,816294,,"관광,숙박",,,,,,[],
원주시티호텔,강원특별자치도,37.3266004594,127.985947696,3082611,,"관광,숙박",,,,,,[],
원탑 풀빌라,경상남도,34.8717224518,128.3561467398,2987377,,"관광,숙박",,,,,,[],
월드관광호텔,경기도,37.0861281306,126.9085907953,139488,,"관광,숙박",,,,,,[],
월문나인부띠크무인텔,경기도,37.1154602942,126.8772122746,3081881,,"관광,숙박",,,,,,[],
월미도 다이아몬드호텔,인천광역시,37.4753747773,126.5998303328,2534394,,"관광,숙박",,,,,,[],
월미도 해월관광호텔,인천광역시,37.473586065,126.5980444343,2655586,,"관광,숙박",,,,,,[],
월악산 송계펜션,충청북도,36.8770845548,128.0816354295,138577,,"관광,숙박",,,,,,[],
월악산 유스호스텔,충청북도,36.9139942261,128.0828120432,137497,,"관광,숙박",,,,,,[],
월악펜션빌,충청북도,36.8800230888,128.080724316,397752,,"관광,숙박",,,,,,[],
월인당,전라남도,34.7777835946,126.6123770221,1883593,,"관광,숙박",,,,,,[],
월출산 달빛정원,전라남도,34.7708378382,126.6537624307,2576371,,"관광,숙박",,,,,,[],
웨스턴 코업호텔&레지던스,서울특별시,37.566501918,127.0033298707,3084991,,"관광,숙박",,,,,,[],
웨스턴베이마리나호텔,경기도,36.977145108,126.8422997902,2875503,,"관광,숙박",,,,,,[],
웨스트오브가나안,충청북도,36.8136576431,128.0351052992,2405438,,"관광,숙박",,,,,,[],
웨스트오션 컨트리클럽,전라남도,35.3562565686,126.410466832,1508575,,"관광,숙박",,,,,,[],
웨스틴 조선 부산,부산광역시,35.1560329112,129.1540696378,142851,,"관광,숙박",,,,,,[],
웨스틴 조선 서울,서울특별시,37.5645211757,126.9800598249,142730,,"관광,숙박",,,,,,[],
웨이포인트 풀빌라[한국관광 품질인증/Korea Quality],경상남도,34.8185135215,127.8265665859,2950201,,"관광,숙박",,,,,,[],
웰리힐리파크,강원특별자치도,37.4872340609,128.2492886569,136548,,"관광,숙박",,,,,,[],
웰리힐리파크 유스호스텔,강원특별자치도,37.4872340609,128.2492886569,136590,,"관광,숙박",,,,,,[],
위고인호스텔,서울특별시,37.5569158138,126.9415885468,2817140,,"관광,숙박",,,,,,[],
위너스모텔,강원특별자치도,38.1939555814,128.5766069419,137321,,"관광,숙박",,,,,,[],
위드유[한국관광 품질인증/Korea Quality],강원특별자치도,38.1898287029,128.5981606687,2489789,,"관광,숙박",,,,,,[],
위드제이,강원특별자치도,37.4940199241,128.1303380785,3348343,,"관광,숙박",,,,,,[],
위딜펜션,인천광역시,37.6908973748,126.3101092033,741093,,"관광,숙박",,,,,,[],
위연재,경상북도,35.8361882036,129.2180172566,2707242,,"관광,숙박",,,,,,[],
위즈호텔,경기도,37.7764996041,126.6876388766,1873876,,"관광,숙박",,,,,,[],
윈덤 그랜드 부산,부산광역시,35.078441976,129.024224716,3386773,,"관광,숙박",,,,,,[],
윙민박,부산광역시,35.1822391732,129.200550987,2574073,,"관광,숙박",,,,,,[],
유)한성 마드리드 광주호텔,광주광역시,35.1387237021,126.79347715,2700992,,"관광,숙박",,,,,,[],
유리트리트,강원특별자치도,37.6368163537,127.6339954839,2804284,,"관광,숙박",,,,,,[],
유신펜션,경기도,37.7719260921,126.8963810159,138630,,"관광,숙박",,,,,,[],
유알풀빌라펜션,강원특별자치도,37.3582544689,127.8002607578,2913721,,"관광,숙박",,,,,,[],
유앤아이 호텔[한국관광 품질인증/Korea Quality],인천광역시,37.462044442,126.6819454336,2950468,,"관광,숙박",,,,,,[],
유에이치스위트 랜드스케이프 11-13층 [한국관광 품질인증/Korea Quality],부산광역시,35.1598715016,129.1611439176,2952074,,"관광,숙박",,,,,,[],
유에이치스위트 랜드스케이프 14층[한국관광 품질인증/Korea Quality],부산광역시,35.1598715016,129.1611439176,2952073,,"관광,숙박",,,,,,[],
유에이치스위트 하버타운[한국관광 품질인증/Korea Quality],부산광역시,35.1597131571,129.1596079437,2949841,,"관광,숙박",,,,,,[],
유에이치스위트 해운대 4층[한국관광 품질인증/Korea Quality],부산광역시,35.1598715016,129.1611439176,2951697,,"관광,숙박",,,,,,[],
유원게스트하우스,대구광역시,35.8343097649,128.5753098848,2575180,,"관광,숙박",,,,,,[],
유원재,충청북도,36.8490721678,127.9887612186,3383407,,"관광,숙박",,,,,,[],
유준당 바이 버틀러리,서울특별시,37.5821109276,126.9873142207,3072235,,"관광,숙박",,,,,,[],
