id,name,region,overview,latitude,longitude,contentid,tags,image_url,detailed_keywords
,가고파캠핑장,경상남도 산청군 시천면 지리산대로1478번길 31-10,,35.2400382279,127.8177481174,2792802,"레포츠,레포츠",,[]
,가곡국민여가캠핑장,강원특별자치도 삼척시 가곡면 탕곡리,,37.1521493651,129.2080294287,2994101,"레포츠,레포츠",,[]
,가람관광농원,경상남도 합천군 봉산면 인덕로 930,,35.5874588369,128.0576566795,2740980,"레포츠,레포츠",,[]
,가람수상스키,경기도 남양주시 화도읍 북한강로1570번길 16,,37.6477240882,127.3680193406,3045767,"레포츠,레포츠",,[]
,가래골농원캠핑장,경기도 포천시 창수면 포천로2811번길 178,,37.9931883432,127.1571618898,2726655,"레포츠,레포츠",,[]
,가로림글램핑,충청남도 서산시 팔봉면 범머리길 80,,36.8345609965,126.3294362043,2792073,"레포츠,레포츠",,[]
,가루실캠핑장,충청남도 예산군 덕산면 가루실길 307-8,,36.6514652237,126.6391519459,2726649,"레포츠,레포츠",,[]
,가마미야영장,전라남도 영광군 홍농읍 계마길 120,,35.3966491642,126.407768849,2740982,"레포츠,레포츠",,[]
,가마실캠핑장,충청북도 제천시 의병대로61길 50,,37.1215160188,128.296642407,2727283,"레포츠,레포츠",,[]
,가반나야영장,경상남도 남해군 서부로 892-9,,34.8852282391,127.9837844531,2909215,"레포츠,레포츠",,[]
,가산글램핑,경상북도 칠곡군 가산면 학하2길 86,,36.0899705981,128.4749449452,2726650,"레포츠,레포츠",,[]
,가산낚시터 (구 우금저수지),경기도 포천시 가산면 우금길 13-32,,37.8253839198,127.2126089189,2752670,"레포츠,레포츠",,[]
,가산산성마을 캠핑장,경상북도 칠곡군 가산로 891,,36.0497718737,128.5976324551,2909008,"레포츠,레포츠",,[]
,가야경 오토캠핑장,경상북도 성주군 가천면 동신로 209,,35.8521744135,128.1189441038,2740987,"레포츠,레포츠",,[]
,가야권역 소리마실 영농조합법인,경상남도 합천군 가야면 가야산로 1267,,35.7725113993,128.128864841,2741001,"레포츠,레포츠",,[]
,가야랜드달빛야영장,경상남도 김해시 신어산길 67,,35.2590140057,128.9056384495,2726658,"레포츠,레포츠",,[]
,가야산국립공원 백운동 자동차야영장,경상북도 성주군 수륜면 가야산식물원길 49,,35.8047607712,128.1425683087,2747464,"레포츠,레포츠",,[]
,가야산국립공원 치인자동차야영장,경상남도 합천군 가야면 가야산로 1645-8,,35.7886535023,128.1004474677,2739362,"레포츠,레포츠",,[]
,가야산백운오토캠핑장,경상북도 성주군 수륜면 백운2길 51-32,,35.7953453385,128.1517927506,2753087,"레포츠,레포츠",,[]
,가야산캠핑장,충청남도 예산군 덕산면 윤봉길로 489-8,,36.6865498957,126.6289380424,2740968,"레포츠,레포츠",,[]
,가야컨트리클럽,경상남도 김해시 인제로 502,,35.2811835601,128.8958636958,130986,"레포츠,레포츠",,[]
,가온누리캠핑체험장,경상북도 경주시 안강읍 호국로 2037,,35.9810480877,129.1373340915,2726663,"레포츠,레포츠",,[]
,가온빌리지,경상남도 밀양시 산외면 산외강변로 309,,35.492999939,128.8156148929,2726667,"레포츠,레포츠",,[]
,가온오토캠핑장,경상북도 포항시 북구 새마을로 3351,,36.1473781253,129.0777984478,2908968,"레포츠,레포츠",,[]
,가우도카라반펜션,전라남도 강진군 대구면 저두바닷길 3,,34.5278201918,126.7920644864,2740970,"레포츠,레포츠",,[]
,가은해솔캠핑장,경상북도 문경시 가은읍 원북길 148-15,,36.6827834111,128.0160357234,2740974,"레포츠,레포츠",,[]
,가인야영장,전라남도 장성군 북하면 백양로 1217,,35.4330585531,126.8813591872,2726677,"레포츠,레포츠",,[]
,가족소풍,전라남도 담양군 용면 용소길 6,,35.4256731127,127.0345207933,2726681,"레포츠,레포츠",,[]
,가족쉼터,경기도 남양주시 수동면 비룡로 1603,,37.7559681143,127.2736720245,2738718,"레포츠,레포츠",,[]
,가좌산대나무숲길,경상남도 진주시 진주대로629번길 15-32,,35.1614576657,128.1026807218,2786064,"레포츠,레포츠",,[]
,가창글램핑장,대구광역시 달성군 가창면 단산1길 47-1,,35.7715573693,128.6631066775,2753101,"레포츠,레포츠",,[]
,가창농원글램핑오토캠핑장,대구광역시 달성군 가창면 가창로10길 56,,35.7270682494,128.6791981643,2740978,"레포츠,레포츠",,[]
,가창실내테니스장,대구광역시 달성군 가창면 가창로108길 7,,35.7618332761,128.652685642,3014114,"레포츠,레포츠",,[]
,가평 네잎클로버 카라반 글램핑,경기도 가평군 장수로 156-20,,37.6176301595,127.5086546484,2909629,"레포츠,레포츠",,[]
,가평 레일바이크,경기도 가평군 가평읍 장터길 14,,37.8290223933,127.5158755988,2361081,"레포츠,레포츠",,[]
,가평 물골숲 계곡 캠핑장,경기도 가평군 상면 물골길 120,,37.8368094476,127.3143381914,2763412,"레포츠,레포츠",,[]
,가평 사과나무 캠핑장,경기도 가평군 상면 한사간길 85-107,,37.7895490907,127.3584688745,2752045,"레포츠,레포츠",,[]
,가평 황정민키즈글램핑,경기도 가평군 조종면 명지산로 523,,37.9141267293,127.3845295262,2747505,"레포츠,레포츠",,[]
,가평1등수상레저,강원특별자치도 춘천시 남면 박암관천길 511-55,,37.7213270187,127.5395293769,3083085,"레포츠,레포츠",,[]
,가평TOP랜드 번지점프,경기도 가평군 가평읍 북한강변로 1044-15,,37.8060391429,127.526003128,131940,"레포츠,레포츠",,[]
,가평글램핑 사그막끝마을,경기도 가평군 가평읍 대곡리,,37.8234531252,127.4903197575,2909594,"레포츠,레포츠",,[]
,가평레저카트장,경기도 가평군 상면 수목원로 40,,37.7698654898,127.3704739088,2763770,"레포츠,레포츠",,[]
,가평무릉도원캠핑장,경기도 가평군 상면 임초밤안골로 207,,37.7516009037,127.3680913236,2792265,"레포츠,레포츠",,[]
,가평베네스트 골프클럽,경기도 가평군 상면 둔덕말길 232,,37.7976999779,127.3070427718,131810,"레포츠,레포츠",,[]
,가평별빛누리글램핑,경기도 가평군 상면 청군로 261,,37.7541346509,127.4067210642,2726686,"레포츠,레포츠",,[]
,가평보리산캠핑장,경기도 가평군 설악면 한서로 421-259,,37.6691913675,127.537292213,2726702,"레포츠,레포츠",,[]
,가평사계절캠핑장,경기도 가평군 북면 가화로 988,,37.8837194109,127.5486293388,2747467,"레포츠,레포츠",,[]
,가평설악 하늘계곡 캠핑장,경기도 가평군 설악면 봉미산안길 190-27,,37.6163308714,127.5391213631,2740086,"레포츠,레포츠",,[]
,가평썬캠핑,경기도 가평군 상면 청군로 1579-14,,37.8259775043,127.3213767529,2763418,"레포츠,레포츠",,[]
,가평역레져,경기도 가평군 가평읍 달전리,,37.8150544342,127.5083183638,3018553,"레포츠,레포츠",,[]
,가평카라반캠핑농원,경기도 가평군 가평읍 문화로 291-25,,37.8387627132,127.5043235876,2740097,"레포츠,레포츠",,[]
,가평캠핑스마일,경기도 가평군 조종면 연인산로474번길 91-27,,37.8456819339,127.3850898109,2726710,"레포츠,레포츠",,[]
,가평탑랜드(KTOPLAND),경기도 가평군 가평읍 북한강변로 1044-15,,37.8057669522,127.5260003589,3006200,"레포츠,레포츠",,[]
,가평포레스트카라반랜드,경기도 가평군 가평읍 상지로 705-38,,37.7525337095,127.4964712723,2798624,"레포츠,레포츠",,[]
,가평황토은글램핑,경기도 가평군 설악면 장수로79번길 63-18,,37.6077202286,127.5102603464,2740118,"레포츠,레포츠",,[]
,각평낚시터,경기도 이천시 마장면 덕이로154번길 273,,37.2392467362,127.3849461639,2767699,"레포츠,레포츠",,[]
,각흘계곡캠핑장,경기도 포천시 이동면 금강로 6439,,38.0999635673,127.3943453775,2726713,"레포츠,레포츠",,[]
,간현관광지 캠핑장,강원특별자치도 원주시 지정면 소금산길 26,,37.3649459597,127.8325659784,2740119,"레포츠,레포츠",,[]
,갈기산캠핑장,경기도 양평군 청운면 신론새터길 21,,37.5590865541,127.7880587851,2753051,"레포츠,레포츠",,[]
,갈도,경상남도 통영시 욕지면 갈도길,,34.565456425,128.1855223235,131091,"레포츠,레포츠",,[]
,갈론계곡캠핑장,충청북도 괴산군 칠성면 칠성로10길 466-3,,36.7374684801,127.8464660203,2727214,"레포츠,레포츠",,[]
,갈릴리캠핑장,경기도 평택시 안중읍 안중북로 119,,37.0004215882,126.9211614597,2727183,"레포츠,레포츠",,[]
,갈매기배낚시,인천광역시 동구 보세로 6-1,,37.4876876432,126.6229917663,131845,"레포츠,레포츠",,[]
,갈천오토캠핑장,강원특별자치도 양양군 서면 구룡령로 1103-12,,37.9113313987,128.5004281512,2733989,"레포츠,레포츠",,[]
,갈천힐링캠프,강원특별자치도 양양군 구룡령로 1103-41,,37.9073458372,128.5049306436,2908152,"레포츠,레포츠",,[]
,감골시민홀,경기도 안산시 상록구 석호로 226 (사동),,37.2937531552,126.8554148743,3035896,"레포츠,레포츠",,[]
,감귤카트,제주특별자치도 서귀포시 중문관광로 42 (색달동),,33.2549473066,126.4116189256,3030930,"레포츠,레포츠",,[]
,감악산낚시터레저타운,경기도 파주시 적성면 감골길 48,,37.9118746691,126.9523135563,2756569,"레포츠,레포츠",,[]
,감악산캠핑숲,강원특별자치도 원주시 신림면 신림황둔로 714,,37.249487237,128.1402499379,2732999,"레포츠,레포츠",,[]
,강가민박캠핑장,경상남도 거창군 북상면 덕유월성로 2123-15,,35.7803351709,127.8000686996,2722025,"레포츠,레포츠",,[]
,강경수상레져종합타운,충청남도 논산시 강경읍 황산리,,36.1580199355,127.010603893,3036539,"레포츠,레포츠",,[]
,강나루 캠핑장,경상남도 합천군 가회면 서부로 1682,,35.4961880049,128.0247370246,2740128,"레포츠,레포츠",,[]
,강나루오토캠핑장,경상남도 함안군 칠서면 삼칠로 1235-50,,35.3924834192,128.5088972808,2726791,"레포츠,레포츠",,[]
,강남청소년센터,서울특별시 강남구 영동대로131길 26 (청담동),,37.5205165055,127.0540626647,131139,"레포츠,레포츠",,[]
,강당골 캠핑파크,충청남도 아산시 송악면 강당학마을길 17,,36.7166309693,127.0157717834,2726792,"레포츠,레포츠",,[]
,강동그린웨이 가족캠핑장,서울특별시 강동구 천호대로206길 87,,37.5358637478,127.1540697938,1017568,"레포츠,레포츠",,[]
,강동오토캠핑장,울산광역시 북구 당사동 87,,35.5996444939,129.4634191981,2792600,"레포츠,레포츠",,[]
,강릉 금진리321카라반,강원특별자치도 강릉시 옥계면 헌화로 247-11,,37.6374069839,129.0437959191,2792194,"레포츠,레포츠",,[]
,강릉 노추산힐링캠프,강원특별자치도 강릉시 왕산면 노추산로 1271-6,,37.5716226031,128.741850081,2755549,"레포츠,레포츠",,[]
,강릉 올림픽파크,강원특별자치도 강릉시 수리골길 76,,37.7771240815,128.8970436876,2525011,"레포츠,레포츠",,[]
,강릉경포카라반파크,강원특별자치도 강릉시 사천면 해안로 904-14,,37.83237561,128.87601887,2726717,"레포츠,레포츠",,[]
,강릉시인라인스케이팅장,강원특별자치도 강릉시 종합운동장길 72-25 (교동),,37.7727078531,128.8933108266,3069525,"레포츠,레포츠",,[]
,강릉아이스링크,강원특별자치도 강릉시 종합운동장길 32,,37.7737771598,128.8925858597,2553644,"레포츠,레포츠",,[]
,강릉여행 굿캠핑,강원특별자치도 강릉시 사천면 해안로 904-8,,37.8315757068,128.87624943,2753005,"레포츠,레포츠",,[]
,강변 야영장,강원특별자치도 인제군 북면 만해로 237,,38.1927675782,128.3280184696,2762766,"레포츠,레포츠",,[]
,강변글램핑,경기도 김포시 금포로 1202 (운양동),,37.6517588201,126.7008800686,2909820,"레포츠,레포츠",,[]
,강변사리마을캠핑장,전북특별자치도 임실군 덕치면 강동로 865-20,,35.4952429034,127.1900274504,2726718,"레포츠,레포츠",,[]
,강변축구장,대구광역시 북구 서변동,,35.909018251,128.5903731451,3089910,"레포츠,레포츠",,[]
,강변캠핑장,충청북도 괴산군 괴산읍 충민로 317,,36.820697724,127.8414974491,2726720,"레포츠,레포츠",,[]
,강사랑래프팅,강원특별자치도 영월군 영월읍 동강로 878,,37.2366374137,128.5133779016,131970,"레포츠,레포츠",,[]
,강산에 레포츠,충청북도 단양군 영춘면 북벽길 51-16,,37.0842184799,128.4946063127,3014111,"레포츠,레포츠",,[]
,강서청소년회관,서울특별시 강서구 공항대로42길 23-19,,37.556480792,126.8442724314,131140,"레포츠,레포츠",,[]
,강원 정선 도원펜션,강원특별자치도 정선군 어도원길 165,,37.4392161988,128.6251923589,2912325,"레포츠,레포츠",,[]
,강원도 세계잼버리 수련장,강원특별자치도 고성군 토성면 잼버리로 244,,38.2226840374,128.4976743306,131169,"레포츠,레포츠",,[]
,강원도자연학습원,강원특별자치도 원주시 소초면 구룡사로 451,,37.4038955557,128.0528060678,131168,"레포츠,레포츠",,[]
,강원도힐링캠핑장,강원특별자치도 원주시 신림면 재사동길 10-38,,37.2457102234,128.1577984696,2734136,"레포츠,레포츠",,[]
,강원랜드 카지노,강원특별자치도 정선군 사북읍 하이원길 265,,37.2127210495,128.8216009997,131676,"레포츠,레포츠",,[]
,강원특별자치도청소년수련원,강원특별자치도 춘천시 신샘밭로 89,,37.9225569719,127.7204153141,131456,"레포츠,레포츠",,[]
,강원평화누리길 10코스 양구 두타연길,강원특별자치도 양구군 양구읍 관공서로 38,,38.110048539,127.9900212289,2739487,"레포츠,레포츠",,[]
,강원평화누리길 11코스 양구 돌산령길,강원특별자치도 양구군 양구읍 관공서로 38,,38.110048539,127.9900212289,2741505,"레포츠,레포츠",,[]
,강원평화누리길 12코스 양구 펀치볼길,강원특별자치도 양구군 양구읍 관공서로 38,,38.110048539,127.9900212289,2742118,"레포츠,레포츠",,[]
,강원평화누리길 13코스 인제 서화길,강원특별자치도 인제군 인제읍 인제로187번길 8,,38.0697872124,128.1703754777,2743760,"레포츠,레포츠",,[]
,강원평화누리길 14코스 인제 인제길,강원특별자치도 인제군 인제읍 인제로187번길 8,,38.0697872124,128.1703754777,2744407,"레포츠,레포츠",,[]
,강원평화누리길 15코스 인제 북면길,강원특별자치도 인제군 인제읍 인제로187번길 8,,38.0697872124,128.1703754777,2747912,"레포츠,레포츠",,[]
,강원평화누리길 16코스 고성 울산바위비경길,강원특별자치도 고성군 토성면 잼버리로 244,,38.2228812158,128.4965994225,2747957,"레포츠,레포츠",,[]
,강원평화누리길 17코스 고성 송지호 철새길,강원특별자치도 고성군 간성읍 고성중앙길 9,,38.3806733748,128.4678859929,2748011,"레포츠,레포츠",,[]
,강원평화누리길 18코스 고성 거진명태고향길,강원특별자치도 고성군 간성읍 고성중앙길 9,,38.3806733748,128.4678859929,2748045,"레포츠,레포츠",,[]
,강원평화누리길 19코스 고성 통일로 가는길,강원특별자치도 고성군 간성읍 고성중앙길 9,,38.3806733748,128.4678859929,2748069,"레포츠,레포츠",,[]
,강원평화누리길 2코스 철원 두루미 머무는길,강원특별자치도 철원군 갈말읍 삼부연로 51,,38.1469177015,127.3134902824,2735299,"레포츠,레포츠",,[]
,강원평화누리길 3코스 철원 화강길,강원특별자치도 철원군 갈말읍 삼부연로 51,,38.1469177015,127.3134902824,2735606,"레포츠,레포츠",,[]
,강원평화누리길 4코스 철원 누에길,강원특별자치도 철원군 갈말읍 삼부연로 51,,38.1467454972,127.3133569665,2736105,"레포츠,레포츠",,[]
,강원평화누리길 5코스 화천 만산동길,강원특별자치도 화천군 사내면 광덕리,,38.1262564305,127.4747177989,2736264,"레포츠,레포츠",,[]
,강원평화누리길 6코스 화천 미륵바위길,강원특별자치도 화천군 화천읍 화천새싹길 45,,38.1062381197,127.7082359391,2736444,"레포츠,레포츠",,[]
,강원평화누리길 7코스 화천 한묵령길,강원특별자치도 화천군 화천읍 화천새싹길 45,,38.1062381197,127.7082359391,2736704,"레포츠,레포츠",,[]
,강원평화누리길 8코스 화천 평화의 길,강원특별자치도 화천군 화천읍 화천새싹길 45,,38.1062381197,127.7082359391,2737328,"레포츠,레포츠",,[]
,강원평화누리길 9코스 양구 평화의길,강원특별자치도 양구군 양구읍 관공서로 38,,38.110048539,127.9900212289,2738680,"레포츠,레포츠",,[]
,강윤정프로샵 오크밸리점,강원특별자치도 원주시 지정면 구재로 216,,37.4032492434,127.7990540044,513254,"레포츠,레포츠",,[]
,강진청자촌오토캠핑장,전라남도 강진군 대구면 청자촌길 33,,34.5087280332,126.8009030607,2726793,"레포츠,레포츠",,[]
,강천산캠핑,전북특별자치도 순창군 팔덕면 강천로 664-26,,35.4159249532,127.0775255654,2740134,"레포츠,레포츠",,[]
,강촌 자전거 하이킹,강원특별자치도 춘천시 남산면 강촌로 150,,37.805871718,127.6340960708,2605226,"레포츠,레포츠",,[]
,강촌관광농원글램핑,강원특별자치도 춘천시 남산면 오양골길 134,,37.8191695637,127.6012819994,2740137,"레포츠,레포츠",,[]
,강촌레일파크 (김유정레일바이크),강원특별자치도 춘천시 신동면 김유정로 1383,,37.8157136906,127.7121497907,1947118,"레포츠,레포츠",,[]
,강촌레일파크경강레일바이크,강원특별자치도 춘천시 남산면 서백길 57,,37.8428714255,127.5507192399,2774559,"레포츠,레포츠",,[]
,강촌밸리,강원특별자치도 춘천시 남산면 강촌로 145-20,,37.8068273006,127.6415342547,2759580,"레포츠,레포츠",,[]
,강촌버즈글램핑,강원특별자치도 춘천시 서면 율장길 122-28,,37.8498600557,127.5806496406,2759582,"레포츠,레포츠",,[]
,강촌테마랜드,강원특별자치도 춘천시 남산면 북한강변길 1163,,37.8148679079,127.6348485151,2774561,"레포츠,레포츠",,[]
,강촌포도펜션오토캠핑장,강원특별자치도 춘천시 남산면 서백2길 36,,37.8085758252,127.572884896,2759590,"레포츠,레포츠",,[]
,강촌하늘아래,강원특별자치도 춘천시 남산면 풀무골1길 71,,37.8007196732,127.6413094558,2741528,"레포츠,레포츠",,[]
,강화 버팔로 캠팜,인천광역시 강화군 하점면 고려산로 329-74,,37.7548167585,126.4151894562,2791838,"레포츠,레포츠",,[]
,강화 자전거 관광코스,인천광역시 강화군 강화읍,,37.7464579051,126.4880330099,1074812,"레포츠,레포츠",,[]
,강화고인돌캠핑장,인천광역시 강화군 하점면 장정리 989,,37.7764812534,126.4354619918,2733991,"레포츠,레포츠",,[]
,강화나들 8코스,인천광역시 강화군 길상면 해안동로 58,,37.6326636172,126.5322738013,2754469,"레포츠,레포츠",,[]
,강화나들길11코스(석모도바람길),인천광역시 강화군 삼산면 삼산북로 14,,37.693553608,126.366556731,2791203,"레포츠,레포츠",,[]
,강화도 크로바야영장,인천광역시 강화군 길상면 해안남로 497-4,,37.59687016,126.5093213411,2791856,"레포츠,레포츠",,[]
,강화도 황청낚시터,인천광역시 강화군 내가면 황청포구로443번길 82,,37.7141928345,126.3647035503,1516091,"레포츠,레포츠",,[]
,강화도교동아일랜드카라반,인천광역시 강화군 교동면 교동남로 275,,37.7727820987,126.3007605687,2753104,"레포츠,레포츠",,[]
,강화도산들애캠핑수영장,인천광역시 강화군 강화읍 고비고개로 171,,37.7409441693,126.4602273801,2734000,"레포츠,레포츠",,[]
,강화도아침,인천광역시 강화군 길상면 해안남로 860-2,,37.6145425578,126.4784292328,2734006,"레포츠,레포츠",,[]
,강화레포츠파크,인천광역시 강화군 불은면 중앙로 546-34,,37.7148582113,126.4538675793,2597317,"레포츠,레포츠",,[]
,강화무지개글램핑,인천광역시 강화군 송해면 장정양오길 437,,37.7947600516,126.4568289651,2792619,"레포츠,레포츠",,[]
,강화캐라반캠핑장,인천광역시 강화군 화도면 해안남로 2669,,37.6359437885,126.373990979,2732137,"레포츠,레포츠",,[]
,강화캠핑파크,인천광역시 강화군 길상면 신촌로146번길 14-11,,37.6266084862,126.5163532044,2734015,"레포츠,레포츠",,[]
,개금불 어뮤니티,경상남도 합천군 묘산면 봉곡1길 24-11,,35.6346822256,128.1105812981,2740139,"레포츠,레포츠",,[]
,개똥이네캠핑장,강원특별자치도 홍천군 북방면 원소길 25,,37.7198479522,127.7606065512,2761737,"레포츠,레포츠",,[]
,개랭이 오토캠핑장,전라남도 순천시 흑가길 6-1,,34.8864538168,127.3845202682,2909189,"레포츠,레포츠",,[]
,개미들솔향기야영장,강원특별자치도 정선군 남면 광락로 354,,37.3191035596,128.6927537932,2761743,"레포츠,레포츠",,[]
,개암벌 용소 관광농원 캠핑장,강원특별자치도 홍천군 두촌면 군유동길 361-26,,37.8602402428,128.0707603218,2761751,"레포츠,레포츠",,[]
,개암벌용소관광농원,강원특별자치도 홍천군 두촌면 군유동길 361-26,,37.8608540802,128.0717935427,3036907,"레포츠,레포츠",,[]
,개울가오토캠핑장,경기도 가평군 설악면 유명로 654-58,,37.6030288256,127.4949674269,2740124,"레포츠,레포츠",,[]
,개차반캠핑,충청북도 괴산군 사리면 소매1길 102,,36.8380258834,127.6668904086,2726790,"레포츠,레포츠",,[]
,갬주리코지(볼락코지),제주특별자치도 서귀포시 대정읍 가파로,,33.1738429901,126.274188204,131542,"레포츠,레포츠",,[]
,갯골캠핑장,경기도 시흥시 동서로 137-71 (월곶동),,37.3899375809,126.7628567321,2726656,"레포츠,레포츠",,[]
,거금해양낚시공원,전라남도 고흥군 금산면 신촌내동길 18-132,,34.4694652638,127.1045912779,2752162,"레포츠,레포츠",,[]
,거두리낚시터,강원특별자치도 춘천시 동내면 거두길 282-8,,37.8605293558,127.7888942589,2702318,"레포츠,레포츠",,[]
,거림캠핑장,경상북도 청도군 운문로 1158-10,,35.6732608066,128.9989410531,2909212,"레포츠,레포츠",,[]
,거북바위캠핑장,경기도 양평군 서종면 거북바위1길 185,,37.5673956383,127.4288300217,2753056,"레포츠,레포츠",,[]
,거북선마을 캠핑장,경상남도 사천시 사천대교로 75-61,,34.9985498643,128.040620983,2909528,"레포츠,레포츠",,[]
,거북이야영캠핑장,전북특별자치도 순창군 장군목길 352,,35.4461681819,127.2060634055,2908936,"레포츠,레포츠",,[]
,거장산오토캠핑장,경상남도 의령군 궁류면 청정로5길 57,,35.4378404967,128.2612372301,2732134,"레포츠,레포츠",,[]
,거제 덕포랜드 씨라인,경상남도 거제시 덕포5길 35-2,,34.9121604129,128.7109369971,2393038,"레포츠,레포츠",,[]
,거제글램퍼스,경상남도 거제시 일운면 망치4길 38,,34.8146065983,128.6651796796,2740064,"레포츠,레포츠",,[]
,거제오션뷰카트체험장,경상남도 거제시 일운면 거제대로 1514-18,,34.7950809875,128.6644608148,2741631,"레포츠,레포츠",,[]
,거제자연휴양림캠핑장,경상남도 거제시 동부면 거제중앙로 325,,34.7857368933,128.6259671847,2740076,"레포츠,레포츠",,[]
,거제해양레포츠센터,경상남도 거제시 일운면 지세포해안로 43,,34.8327913476,128.7023176363,2784038,"레포츠,레포츠",,[]
,거창 A글램핑,경상남도 거창군 마리면 세동길 13,,35.6887995474,127.8687095267,2720611,"레포츠,레포츠",,[]
,거창국민여가캠핑장,경상남도 거창군 북상면 덕유월성로 1312-96,,35.7620025911,127.7255174577,2719985,"레포츠,레포츠",,[]
,거창서핑파크,경상남도 거창군 위천면 거차1길 23-18,,35.7480089283,127.8363691322,2721484,"레포츠,레포츠",,[]
,거창스포츠파크,경상남도 거창군 거창읍 심소정길 39-36,,35.6939889065,127.9279819277,1665536,"레포츠,레포츠",,[]
,거청낚시터,경기도 안성시 대덕면 배꽃길 16,,37.0258493408,127.2407679731,2753942,"레포츠,레포츠",,[]
,검단수로,인천광역시 서구 오류동 1460,,37.5904168234,126.592627792,2768226,"레포츠,레포츠",,[]
,검디관광농원캠핑장,인천광역시 강화군 길상면 동검길 159-47,,37.5870296992,126.5127601891,2734025,"레포츠,레포츠",,[]
,검산별빛캠핑장,강원특별자치도 홍천군 서석면 마리소리길 120,,37.7330749396,128.2435318222,2755554,"레포츠,레포츠",,[]
,겨울세상,강원특별자치도 정선군 고한읍 고한로 83,,37.2055057123,128.8476544408,512074,"레포츠,레포츠",,[]
,경기도사격테마파크,경기도 화성시 양감면 사격장길 142,,37.0939558526,126.9565501235,131785,"레포츠,레포츠",,[]
,경기도청소년수련원,경기도 안산시 단원구 선감로 255 (선감동),,37.21650553,126.6400199207,1896625,"레포츠,레포츠",,[]
,경기도청소년야영장,경기도 광주시 퇴촌면 천진암로 1243,,37.4221809701,127.3767472538,2740098,"레포츠,레포츠",,[]
,경민호,강원특별자치도 강릉시 주문진읍 주문리,,37.8947536355,128.8319264685,2833823,"레포츠,레포츠",,[]
,경상북도 환경연수원,경상북도 구미시 금오산로 336-97 (남통동),,36.1197558559,128.3105225533,131212,"레포츠,레포츠",,[]
,경상북도교육청 포항산누리오토캠핑장,경상북도 포항시 북구 죽장로 2805,,36.3030748217,129.2486538851,2908780,"레포츠,레포츠",,[]
,경상북도교육청김천오토캠핑장,경상북도 김천시 증산1로 163,,35.9097467613,128.0261340771,2909685,"레포츠,레포츠",,[]
,경의선숲길(연트럴파크),서울특별시 마포구 연남동,,37.5620537697,126.9228151124,2553819,"레포츠,레포츠",,[]
,경인아라뱃길 아라파크웨이마당,인천광역시 계양구 정서진로 1559,,37.5826264639,126.7720088464,2767588,"레포츠,레포츠",,[]
,경주 산내 반딧불이캠핑장,경상북도 경주시 산내면 대현길 250-13,,35.7127660863,129.0739194873,2384260,"레포츠,레포츠",,[]
,경주 캠핑573,경상북도 경주시 새안현로 507-19,,35.9158056952,129.1495071077,2910143,"레포츠,레포츠",,[]
,경주레져,경상북도 경주시 보문로 4-72 (북군동),,35.8488348981,129.2656432785,3029666,"레포츠,레포츠",,[]
,경주루지월드,경상북도 경주시 천북남로 16,,35.8443664011,129.2890524666,3032546,"레포츠,레포츠",,[]
,경주별빛마루글램핑장과펜션,경상북도 경주시 천북면 새터흥림길 1-75,,35.9223799071,129.2939359164,2726678,"레포츠,레포츠",,[]
,경주보문 청소년수련원,경상북도 경주시 천북남로 176,,35.8534793746,129.2950183497,131705,"레포츠,레포츠",,[]
,경주보문실탄사격장,경상북도 경주시 보문로 424-11,,35.8440219452,129.2863888209,131830,"레포츠,레포츠",,[]
,경주시청소년수련관,경상북도 경주시 알천북로 131,,35.855130469,129.2158863483,131885,"레포츠,레포츠",,[]
,경주오류캠핑장,경상북도 경주시 감포읍 감포로 382-7,,35.8211593046,129.5086394727,2726683,"레포츠,레포츠",,[]
,경주월드 스노우파크,경상북도 경주시 보문로 544 경주월드,,35.8361143676,129.2791591242,131702,"레포츠,레포츠",,[]
,경주초우오토캠핑장,경상북도 경주시 산업로 3549-30,,35.8086448196,129.2566868756,2738736,"레포츠,레포츠",,[]
,경주컨트리클럽,경상북도 경주시 보문로 182-98,,35.8644775271,129.263029172,131557,"레포츠,레포츠",,[]
,경주텐타우스글램핑,경상북도 경주시 강동면 왕신숲골안길 5,,35.967588622,129.2904710342,2726688,"레포츠,레포츠",,[]
,경주힐링캠프,경상북도 경주시 산내면 장사길 418-55,,35.8164315488,129.0410500007,2726694,"레포츠,레포츠",,[]
,경천대랜드 눈썰매장,경상북도 상주시 사벌면 경천로 652-18,,36.4554219407,128.2437329543,131880,"레포츠,레포츠",,[]
,경천애인 징검다리길,전북특별자치도 완주군 경천면 경천리 680-3,,36.0210064504,127.2517887624,2712742,"레포츠,레포츠",,[]
,경천호,경상북도 문경시 동로면 인곡리,,36.7078470772,128.3096226748,131064,"레포츠,레포츠",,[]
,경춘선숲길,서울특별시 노원구 하계동 107-2,,37.6316233163,127.0694164404,2704696,"레포츠,레포츠",,[]
,경포저수지,강원특별자치도 강릉시 죽헌동,,37.7793091906,128.8586193047,131037,"레포츠,레포츠",,[]
,경호강 카라반,경상남도 산청군 단성면 호암로1320번길 88-4,,35.3574072791,127.915469772,2753068,"레포츠,레포츠",,[]
,경호강래프팅,경상남도 산청군 산청읍 꽃봉산로34번길 77,,35.4105587415,127.8661282674,131853,"레포츠,레포츠",,[]
,경호강변오토캠핑장,경상남도 산청군 생초면 산수로1153번길 92,,35.4869769559,127.8134781092,2738738,"레포츠,레포츠",,[]
,경호강캠핑장,경상남도 산청군 단성면 호암로1320번길 88-1,,35.3573350762,127.9161086065,2726712,"레포츠,레포츠",,[]
,경호강휴게소ATV,경상남도 산청군 신안면 외송리 637-2,,35.3494918387,127.934293325,2787280,"레포츠,레포츠",,[]
,계곡 좋은 펜션 야영장,경상남도 하동군 아래몰길 24-10,,35.2356731124,127.7198818385,2909759,"레포츠,레포츠",,[]
,계곡메사오토캠핑장펜션,경기도 포천시 이동면 금강로 6145-45,,38.0780521163,127.3878244001,2727473,"레포츠,레포츠",,[]
,계곡풍경펜션,경기도 가평군 북면 가화로 2389-38,,37.9531016383,127.4752256561,2738753,"레포츠,레포츠",,[]
,계룡산 수통골,대전광역시 유성구 수통골로 47-3,,36.3453478312,127.2885962357,2407314,"레포츠,레포츠",,[]
,계룡산글램핑,충청남도 공주시 반포면 계룡대로 1352,,36.356065429,127.2534796456,2007483,"레포츠,레포츠",,[]
,계룡산동학사자동차야영장,충청남도 공주시 반포면 동학사2로 115-16,,36.3577678025,127.2416084404,2738760,"레포츠,레포츠",,[]
,계룡저수지,충청남도 공주시 계룡면 하대리,,36.3580467675,127.1531163587,131052,"레포츠,레포츠",,[]
,계림정야영장,경상남도 산청군 삼장면 홍계리,,35.3520399131,127.8417208486,2738762,"레포츠,레포츠",,[]
,계명산 나무숲길 캠핑장,충청북도 충주시 절골길 132,,37.0068340333,127.9585483056,2753090,"레포츠,레포츠",,[]
,계방산오토캠핑장,강원특별자치도 평창군 용평면 이승복생가길 160,,37.7013137118,128.4814446084,2733990,"레포츠,레포츠",,[]
,계산국민체육센터,인천광역시 계양구 주부토로 580,,37.5461382805,126.7291748899,2465040,"레포츠,레포츠",,[]
,계수낚시터,경기도 시흥시 계수동,,37.4514784023,126.8048317492,3075826,"레포츠,레포츠",,[]
,계양경기장,인천광역시 계양구 봉오대로 855,,37.5325151261,126.743898928,2463896,"레포츠,레포츠",,[]
,계양경기장 계양체육관,인천광역시 계양구 봉오대로 855,,37.5325151261,126.743898928,2463875,"레포츠,레포츠",,[]
,계양경기장 아시아드양궁장,인천광역시 계양구 봉오대로 855,,37.5325151261,126.743898928,2463889,"레포츠,레포츠",,[]
,계양산 둘레길,인천광역시 계양구 계양산로 101 (계산동),,37.548071351,126.7270444752,2661787,"레포츠,레포츠",,[]
,계족산 황톳길,대전광역시 대덕구 장동,,36.3947506671,127.45386622,1720749,"레포츠,레포츠",,[]
,고고랜드 남양주점,경기도 남양주시 경춘로1256번길 25 (평내동),,37.645230315,127.2364897178,3013802,"레포츠,레포츠",,[]
,고고랜드롤러스케이트장 일산 본점,"경기도 고양시 일산서구 일현로 97-11 (탄현동, 일산 위브더제니스)",,37.6955909386,126.7633647882,3022703,"레포츠,레포츠",,[]
,고길동캠핑장,강원특별자치도 홍천군 북방면 성동로 1625-16,,37.8277284586,127.8341022345,2734834,"레포츠,레포츠",,[]
,고노골수상레저,경기도 남양주시 조안면 북한강로 998,,37.6049424656,127.3416813041,3017976,"레포츠,레포츠",,[]
,고담낚시터,경기도 이천시 진상미로2192번길 217 (고담동),,37.2384010042,127.4616725815,2773302,"레포츠,레포츠",,[]
,고대산캠핑리조트,경기도 연천군 신서면 대광리,,38.2136373284,127.1434289136,2036061,"레포츠,레포츠",,[]
,고덕사회체육센터,서울특별시 강동구 구천면로93길 12 (상일동),,37.5512288958,127.1687596859,130999,"레포츠,레포츠",,[]
,고래불국민야영장,경상북도 영덕군 병곡면 고래불로 68,,36.5715892439,129.4190170543,2726715,"레포츠,레포츠",,[]
,고래숲캠핑장,경기도 안산시 단원구 장불길 14 (대부남동),,37.2003865846,126.5618080302,2734836,"레포츠,레포츠",,[]
,고려대학교 아이스링크,서울특별시 성북구 안암로 145,,37.5899635928,127.031826608,131822,"레포츠,레포츠",,[]
,고령 대가야 카라반,경상북도 고령군 대가야읍 신남로 61,,35.7122040269,128.2652350075,2753083,"레포츠,레포츠",,[]
,고령오펠GC,경상북도 고령군 다산면 벌지로 175-115,,35.8145223597,128.3825663055,2772297,"레포츠,레포츠",,[]
,고멧 캠핑장,경기도 가평군 가평읍 용추로 227-98,,37.845050549,127.4869222112,2753024,"레포츠,레포츠",,[]
,고명야영캠핑장,충청북도 제천시 고명로7가길 8,,37.1193763978,128.2444388221,2738771,"레포츠,레포츠",,[]
,고목정,충청남도 청양군 대치면 칠갑산로 668-21,,36.4385266097,126.84551681,2738773,"레포츠,레포츠",,[]
,고북신송지,충청남도 서산시 고북면 신송리,,36.648138795,126.5342809476,131051,"레포츠,레포츠",,[]
,고사포야영장,전북특별자치도 부안군 변산면 변산해변로 765,,35.662759538,126.5109252198,2726716,"레포츠,레포츠",,[]
,고산낚시터,강원특별자치도 원주시 호저면 호저로 1140,,37.466844087,127.9175830999,131376,"레포츠,레포츠",,[]
,고산무궁화오토캠핑장,전북특별자치도 완주군 고산면 고산휴양림로 89,,35.9740170074,127.2315640322,2738774,"레포츠,레포츠",,[]
,고성군 스포츠파크,경상남도 고성군 고성읍 교사리 411,,34.9803344101,128.3068676289,2753222,"레포츠,레포츠",,[]
,고성잔디캠핑장,경상남도 고성군 하일면 공룡로 1287,,34.952499781,128.2148458415,2726719,"레포츠,레포츠",,[]
,고양CC(고양 컨트리클럽),경기도 고양시 덕양구 흥도로 304-23 (도내동),,37.6369327991,126.8584772,2736399,"레포츠,레포츠",,[]
,고양어울림누리 얼음마루,경기도 고양시 덕양구 어울림로 33 (성사동),,37.6484671422,126.834631829,3018586,"레포츠,레포츠",,[]
,고운마을캠핑장,경상북도 의성군 단촌면 고운사길 203-21,,36.4612663402,128.7247178386,2792359,"레포츠,레포츠",,[]
,고인돌 펜션&캠핑장,강원특별자치도 홍천군 화촌면 구룡령로 578-10,,37.7523181214,128.0008310102,2755563,"레포츠,레포츠",,[]
,고잔낚시터,경기도 화성시 양감면 서해로51번길 24-12,,37.0682441591,126.9127353577,2747240,"레포츠,레포츠",,[]
,고재낚시터,경기도 양평군 지평면 고재길 108,,37.4274928835,127.6062540793,2757537,"레포츠,레포츠",,[]
,고주내관광농원,경기도 양주시 부흥로 2202 (삼숭동),,37.8085115882,127.0984892732,3018184,"레포츠,레포츠",,[]
,고창CC,전북특별자치도 고창군 심원면 애향갯벌로 70,,35.5160399637,126.5022685709,2737270,"레포츠,레포츠",,[]
,고창군 선운산 국민여가캠핑장,전북특별자치도 고창군 선운사로 158-62,,35.502581735,126.5829506151,2909055,"레포츠,레포츠",,[]
,고창컨트리클럽,전북특별자치도 고창군 심원면 애향갯벌로 70,,35.5160566287,126.502260238,777164,"레포츠,레포츠",,[]
,고창해변승마클럽 휘게팜,전북특별자치도 고창군 상하면 명사십리로 282-7,,35.4702804948,126.4557766326,3111215,"레포츠,레포츠",,[]
,고척 스카이돔,서울특별시 구로구 경인로 430 (고척동),,37.4992128511,126.8668969788,2591873,"레포츠,레포츠",,[]
,고초골낚시터,경기도 용인시 처인구 원삼면 이원로913번길 19-2,,37.1567655586,127.2841020589,131342,"레포츠,레포츠",,[]
,고풍저수지,충청남도 서산시 운산면 고풍리,,36.7894486955,126.602812651,131856,"레포츠,레포츠",,[]
,고향펜션캠핑,경상북도 봉화군 소천면 구마동길 1032,,37.0129351196,128.9385743098,2739363,"레포츠,레포츠",,[]
,고흥권,전라남도 고흥군 도양읍 목넘가는길,,34.5248650445,127.129865487,131096,"레포츠,레포츠",,[]
,곡교천시민체육공원,충청남도 아산시 염치읍 석정리,,36.7993488678,126.9955158011,3081176,"레포츠,레포츠",,[]
,곡성 키즈글램핑,전라남도 곡성군 죽곡면 오죽로 132,,35.160171807,127.3144778213,2763426,"레포츠,레포츠",,[]
,곡성군청소년야영장,전라남도 곡성군 고달면 가정마을길 51,,35.2279401177,127.3698878695,131888,"레포츠,레포츠",,[]
,곡성기차마을 패러글라이딩,전라남도 곡성군 오곡면 덕양서원길 42,,35.263612844,127.3104671975,2554912,"레포츠,레포츠",,[]
,곤달비캠핑장,경상북도 경주시 산내면 하신길 58-31,,35.7325097123,129.0007003481,2726662,"레포츠,레포츠",,[]
,곤지암 골프클럽,경기도 광주시 도척면 도척윗로 280,,37.3331870228,127.2953266164,130991,"레포츠,레포츠",,[]
,곤지암렌탈샵 장비좋은집,경기도 광주시 도척면 독고개길 307,,37.3390143099,127.3054866406,681561,"레포츠,레포츠",,[]
,곤지암루지360,경기도 광주시 도척면 도척윗로 278,,37.3366645398,127.3031619183,2722856,"레포츠,레포츠",,[]
,곤지암리조트 스키장,경기도 광주시 도척면 도척윗로 278,,37.3366645398,127.3031619183,646762,"레포츠,레포츠",,[]
,곤지암야영장,경기도 광주시 도척면 저수지길 224-39,,37.3094157456,127.3489724297,3084956,"레포츠,레포츠",,[]
,골드컨트리클럽,경기도 용인시 기흥구 기흥단지로 398,,37.2174837025,127.1386051932,131761,"레포츠,레포츠",,[]
,골든몽키,강원특별자치도 춘천시 남면 충효로 1381,,37.7333846247,127.576036815,2774552,"레포츠,레포츠",,[]
,골든블루 키즈빌리지,서울특별시 송파구 동남로 189 가락쌍용아파트,,37.4947153102,127.1298703879,2932972,"레포츠,레포츠",,[]
,골든블루마리나,서울특별시 서초구 올림픽대로 2085-14,,37.5125052818,126.9959959554,2647687,"레포츠,레포츠",,[]
,골든쌔들승마클럽,경기도 양평군 용문면 다문리,,37.4951153883,127.5943532024,3033837,"레포츠,레포츠",,[]
,골든에잇배팅센터,인천광역시 남동구 논현고잔로54번길 15-17,,37.3887590533,126.7127335522,2768172,"레포츠,레포츠",,[]
,골든힐롤러장,경상남도 창원시 성산구 충혼로 53 (대원동),,35.2301710661,128.6591801912,3070289,"레포츠,레포츠",,[]
,골짜구니 캠핑장,강원특별자치도 양양군 서면 얼음골길 3,,37.9633201163,128.5164056622,2754430,"레포츠,레포츠",,[]
,골체오름캠핑,제주특별자치도 제주시 조천읍 번영로 1648-41,,33.4516107978,126.7049057085,2739395,"레포츠,레포츠",,[]
,골프존카운티 드래곤,전북특별자치도 남원시 대산면 대사로 500,,35.4344857275,127.341112868,2779274,"레포츠,레포츠",,[]
,골프존카운티 안성H,경기도 안성시 보개면 보삼로 302,,37.0953959184,127.342404069,2750335,"레포츠,레포츠",,[]
,골프존카운티 안성W,경기도 안성시 양성면 교동길 19-70,,37.0709127243,127.1927932746,2750339,"레포츠,레포츠",,[]
,골프존카운티 화랑,충청북도 진천군 문백면 농다리로 809,,36.8161110534,127.4756082123,2769735,"레포츠,레포츠",,[]
,골프존카운티선운,전북특별자치도 고창군 아산면 운곡로 418,,35.4922450462,126.643984334,2779269,"레포츠,레포츠",,[]
,골프클럽 Q,경기도 안성시 죽산면 장계길 20-229,,37.0468745918,127.389601171,2750337,"레포츠,레포츠",,[]
,곰섬오토캠프장,충청남도 태안군 남면 곰섬로 500-17,,36.5886775843,126.2908350691,2726665,"레포츠,레포츠",,[]
,곰섬캠핑장 2구역,충청남도 태안군 곰섬로 500-12,,36.5878915856,126.2921210838,2908322,"레포츠,레포츠",,[]
,곰앤패들보드 캠핑장,강원특별자치도 강릉시 해안로 656-1,,37.8149974438,128.8953593321,2913653,"레포츠,레포츠",,[]
,공릉관광지캠핑장,경기도 파주시 조리읍 장곡로 218,,37.749572006,126.8330874397,2726669,"레포츠,레포츠",,[]
,공무원연금공단 김해상록골프클럽 / 김해상록cc,경상남도 김해시 한림면 김해대로974번길 198,,35.2763628496,128.7974335305,2788193,"레포츠,레포츠",,[]
,공작산계곡 오토캠핑장,강원특별자치도 홍천군 화촌면 당무로 545,,37.7133400455,128.0399230731,2755571,"레포츠,레포츠",,[]
,공주 경비행기,충청남도 공주시 의당면 수촌리,,36.5102371763,127.1257647092,3038514,"레포츠,레포츠",,[]
,공주계곡캠핑장,충청남도 공주시 사곡면 운정길 20,,36.5578604104,127.0203201192,2726673,"레포츠,레포츠",,[]
,공주북캠프,충청남도 공주시 신풍면 영정길 155-3,,36.5146648607,126.9913127791,2734839,"레포츠,레포츠",,[]
,공주한옥마을 웅진오토캠핑장,충청남도 공주시 관광단지길 12,,36.4647337424,127.1076064564,2739405,"레포츠,레포츠",,[]
,과림낚시터,경기도 시흥시 과림저수지길 79 (과림동),,37.4531536068,126.8272879895,2751256,"레포츠,레포츠",,[]
,관동하키센터,강원특별자치도 강릉시 범일로579번길 24,,37.7359034011,128.8740192577,2534281,"레포츠,레포츠",,[]
,관리낚시터,경기도 화성시 향남읍 발안로 341,,37.1330261269,126.9448028855,2747226,"레포츠,레포츠",,[]
,관리도캠핑장,전북특별자치도 군산시 옥도면 관리도길 60-19,,35.8177561603,126.3689423223,2753115,"레포츠,레포츠",,[]
,관악구민운동장,서울특별시 관악구 낙성대로 40,,37.4751755932,126.9574616287,131617,"레포츠,레포츠",,[]
,관악산 무장애숲길,서울특별시 관악구 관악산나들길 149 (신림동),,37.4556526509,126.9457660204,2406545,"레포츠,레포츠",,[]
,관악청소년센터,서울특별시 관악구 신림로23길 17,,37.4702257699,126.935191573,131453,"레포츠,레포츠",,[]
,관음사야영장,제주특별자치도 제주시 산록북로 588,,33.4222588065,126.551005845,2726675,"레포츠,레포츠",,[]
,관흥지민물낚시(수동 제1저수지),전라남도 장흥군 관산읍 수동길,,34.5053945362,126.935869077,131799,"레포츠,레포츠",,[]
,광교호수공원 가족캠핑장,경기도 수원시 영통구 광교호수로 57 (하동),,37.2749562936,127.0652991182,2753042,"레포츠,레포츠",,[]
,광릉 해오름글램핑카라반,경기도 포천시 소흘읍 광릉수목원로874번길 5,,37.7776854861,127.1460913703,2726680,"레포츠,레포츠",,[]
,광릉솔개캠핑장,경기도 포천시 소흘읍 광릉수목원로779번길 120,,37.7643592304,127.1444585696,2728218,"레포츠,레포츠",,[]
,광릉숲길,경기도 남양주시 진접읍 봉선사길 193-13,,37.7474203169,127.1874523571,2638583,"레포츠,레포츠",,[]
,광릉숲이야기캠핑장,경기도 포천시 소흘읍 직동길 44,,37.7666733088,127.1696978664,2739359,"레포츠,레포츠",,[]
,광명스피돔,경기도 광명시 광명로 721 (광명동),,37.4647970389,126.8463803693,999751,"레포츠,레포츠",,[]
,광명시민체육관,경기도 광명시 오리로 703 (하안동),,37.4625588826,126.8729446789,131611,"레포츠,레포츠",,[]
,광명안양천물놀이장,경기도 광명시 철산동,,37.4938524126,126.8697135392,3011251,"레포츠,레포츠",,[]
,광안리 SUP Zone,부산광역시 수영구 남천동,,35.1477386656,129.114673291,2708019,"레포츠,레포츠",,[]
,광안리 해양레포츠센터,부산광역시 수영구 광안해변로54번길 222 광안리 해양레포츠센터,,35.1461832972,129.11535383,2991028,"레포츠,레포츠",,[]
,광운대학교 아이스링크,서울특별시 노원구 광운로 20 (월계동),,37.6194328627,127.0581344826,131607,"레포츠,레포츠",,[]
,광주-기아 챔피언스 필드,광주광역시 북구 서림로 10,,35.1682414234,126.8890596255,2033064,"레포츠,레포츠",,[]
,광주광역시 야외스케이트(썰매)장,광주광역시 서구 내방로 111,,35.1600722649,126.8513520539,2650509,"레포츠,레포츠",,[]
,광주광역시 염주종합체육관,광주광역시 서구 금화로 278 (풍암동),,35.1365809258,126.8781697142,3441610,"레포츠,레포츠",,[]
,광주광역시국제양궁장,광주광역시 남구 회재로 1187 (주월동),,35.1322899634,126.8912158908,3032305,"레포츠,레포츠",,[]
,광주광역시청소년수련원,광주광역시 서구 학생독립로 37,,35.1412413299,126.8674455457,1622322,"레포츠,레포츠",,[]
,광주북구청소년수련관,광주광역시 북구 대천로 86,,35.1848927862,126.9166678776,131450,"레포츠,레포츠",,[]
,광주승마클럽,경기도 광주시 도척면 방도길 137-32,,37.2782800242,127.3249449331,3079620,"레포츠,레포츠",,[]
,광주시패밀리랜드 카라반캠핑장,광주광역시 북구 우치로 690,,35.2254657188,126.9012348904,2739385,"레포츠,레포츠",,[]
,광주실내빙상장,광주광역시 서구 금화로 278 (풍암동),,35.1365809258,126.8781697142,131516,"레포츠,레포츠",,[]
,광주월드컵경기장,광주광역시 서구 금화로 240,,35.1337617441,126.8749061843,131721,"레포츠,레포츠",,[]
,광탄낚시터,경기도 파주시 광탄면 부흥로 194-42,,37.8006777864,126.8679911263,2746703,"레포츠,레포츠",,[]
,광탄리유원지,경기도 양평군 용문면 상광길 23-16,,37.5124419363,127.6366571981,3075506,"레포츠,레포츠",,[]
,괴강관광농원 카라반&캠핑장,충청북도 괴산군 칠성면 괴강로 354-14,,36.7987721531,127.8245107034,2727199,"레포츠,레포츠",,[]
,괴강국민여가캠핑장,충청북도 괴산군 괴산읍 충민로검승3길 10,,36.8068073567,127.8253048488,2726684,"레포츠,레포츠",,[]
,교래생태체험장,제주특별자치도 제주시 조천읍 교래4길 20-13,,33.426179737,126.6712425426,2747469,"레포츠,레포츠",,[]
,교육가족체험장,충청남도 부여군 인세로 40-3,,36.1671071219,126.9723876282,2908569,"레포츠,레포츠",,[]
,구곡폭포 국민여가 캠핑장,강원특별자치도 춘천시 남산면 강촌구곡길 324,,37.7948280972,127.6092569898,2792017,"레포츠,레포츠",,[]
,구니CC,대구광역시 군위군 군위읍 도군로 2450,,36.2539726577,128.542845431,2770827,"레포츠,레포츠",,[]
,구덕야영장,부산광역시 서구 꽃마을로156번길 109,,35.1255892096,129.0097191372,2661479,"레포츠,레포츠",,[]
,구래낚시터,경기도 김포시 양촌읍 김포한강8로 100-59,,37.6299713784,126.6393974117,2768048,"레포츠,레포츠",,[]
,구례 호수공원 수상레저타운,전라남도 구례군 구만제로 677 우리밀가든,,35.2849068614,127.4248510003,3006513,"레포츠,레포츠",,[]
,구례포천사길,충청남도 태안군 원북면 구례포길 47-20,,36.8858667134,126.1983272967,2414848,"레포츠,레포츠",,[]
,구로올레길,서울특별시 구로구 구로동,,37.4874536537,126.8976139551,2591862,"레포츠,레포츠",,[]
,구룡레져타운야영장,강원특별자치도 원주시 소초면 치악로 3403,,37.4404969114,128.0544381778,2763434,"레포츠,레포츠",,[]
,구룡령 옛길,강원특별자치도 양양군 서면 구룡령로 1103-10,,37.9101010048,128.5013864354,2702327,"레포츠,레포츠",,[]
,구룡치(사무락다무락),전북특별자치도 남원시 주천면 정령치로 210-12,,35.3878874755,127.4582342795,2793233,"레포츠,레포츠",,[]
,구룡포청소년수련원,경상북도 포항시 남구 구룡포읍 명월길 51,,36.0299786569,129.574013816,131513,"레포츠,레포츠",,[]
,구름계곡오토캠핑장,경기도 가평군 북면 제령아랫말길 71,,37.8875493507,127.5394633948,2726685,"레포츠,레포츠",,[]
,구름아래오토캠핑장,경상북도 청도군 운문면 운문로 1033-14,,35.6630981341,129.0027187848,2726796,"레포츠,레포츠",,[]
,구름포해수욕장카라반,충청남도 태안군 소원면 구름포길 117,,36.8355800817,126.1526883231,2739410,"레포츠,레포츠",,[]
,구리승마클럽,경기도 구리시 왕숙천로 11-44 (토평동),,37.5838193974,127.1600456594,3085027,"레포츠,레포츠",,[]
,구리토평가족캠핑장,경기도 구리시 왕숙천로 11-140 (토평동),,37.5866662542,127.158112421,2734860,"레포츠,레포츠",,[]
,구마이오토캠핑장,경상북도 상주시 내서면 우서로 287-4,,36.4526794142,128.0284660927,2739369,"레포츠,레포츠",,[]
,구만동오토캠핑장,강원특별자치도 인제군 북면 만해로 221,,38.1931175037,128.326260285,2734811,"레포츠,레포츠",,[]
,구만산장오토캠핑장,경상남도 밀양시 산내면 봉의로 223-6,,35.6004027498,128.8708320865,2727281,"레포츠,레포츠",,[]
,구미CC,경상북도 구미시 장천면 송백로 229,,36.1697756403,128.4868999815,2772306,"레포츠,레포츠",,[]
,구미승마장,경상북도 구미시 고아읍 원대로20길 18,,36.1942586339,128.318167018,3032798,"레포츠,레포츠",,[]
,구미시 낙동강 수상레포츠 체험센터,경상북도 구미시 수출대로 326-20,,36.1100113712,128.3992538584,2501042,"레포츠,레포츠",,[]
,구미시승마장,경상북도 구미시 옥성면 선상동로 1174-7,,36.3251402039,128.2775252873,1750444,"레포츠,레포츠",,[]
,구미시평생교육원,경상북도 구미시 산호대로 243,,36.1055838153,128.3839608909,131207,"레포츠,레포츠",,[]
,구미캠핑장,경상북도 구미시 낙동제방길 200,,36.1311778358,128.3680199206,2726692,"레포츠,레포츠",,[]
,구산오토캠핑장,경상북도 울진군 기성면 기성로 108,,36.7533333627,129.4672462417,2753097,"레포츠,레포츠",,[]
,구시포노을캠핑장,전북특별자치도 고창군 상하면 구시포안길 38,,35.4421777904,126.4354402547,2734862,"레포츠,레포츠",,[]
,구을비도,경상남도 통영시 한산면 매죽리,,34.5796057333,128.5493792431,131629,"레포츠,레포츠",,[]
,구이저수지 둘레길,전북특별자치도 완주군 구이면 구이로 1488-31,,35.7339146593,127.1227050207,2806616,"레포츠,레포츠",,[]
,구재봉활공장,경상남도 하동군 악양면 개치미동길 186,,35.1251631445,127.7089745551,2781616,"레포츠,레포츠",,[]
,구절초마을 캠핑장,강원특별자치도 정선군 여량면 노추산로 794,,37.5146623242,128.7320721367,2745703,"레포츠,레포츠",,[]
,구천계곡오토캠핑장,경상남도 밀양시 단장면 도래재로 133-12,,35.5367358877,128.9229626216,2726701,"레포츠,레포츠",,[]
,구천동 어사길,전북특별자치도 무주군 설천면 구천동1로 159,,35.900923816,127.7752176578,2673996,"레포츠,레포츠",,[]
,구포무장애숲길,부산광역시 북구 낙동북로 722 (구포동),,35.197780951,129.0004318626,2755696,"레포츠,레포츠",,[]
,구학리산채관광마을,강원특별자치도 원주시 신림면 구학산로 1624,,37.2106458398,128.0635663056,2718062,"레포츠,레포츠",,[]
,구화산바베큐,경상북도 김천시 구화산길 64-7,,36.1469989558,128.1024541312,2909668,"레포츠,레포츠",,[]
,국가대표,전북특별자치도 무주군 설천면 구천동로 1101,,35.9111307052,127.7592799068,510546,"레포츠,레포츠",,[]
,국립검마산자연휴양림캠핑장,경상북도 영양군 수비면 검마산길 191,,36.7452242097,129.2340310286,2739358,"레포츠,레포츠",,[]
,국립검봉산자연휴양림 야영장,강원특별자치도 삼척시 원덕읍 임원안길 525-145,,37.237416364,129.2994159033,2753009,"레포츠,레포츠",,[]
,국립나주박물관 야외체험장,전라남도 나주시 반남면 고분로 747,,34.9149272587,126.6590084523,2753109,"레포츠,레포츠",,[]
,국립삼봉자연휴양림 야영장,강원특별자치도 홍천군 내면 삼봉휴양길 276,,37.8520680925,128.4620695486,2755592,"레포츠,레포츠",,[]
,국립용화산자연휴양림,강원특별자치도 춘천시 사북면 사여골길 294,,38.0137526384,127.7594812566,2759594,"레포츠,레포츠",,[]
,국립운장산자연휴양림 야영장,전북특별자치도 진안군 정천면 휴양림길 77,,35.8992816175,127.4211324742,2743821,"레포츠,레포츠",,[]
,국립유명산자연휴양림,경기도 가평군 설악면 유명산길 79-53,,37.5927549446,127.4909597553,2763453,"레포츠,레포츠",,[]
,국립중앙청소년수련원,충청남도 천안시 동남구 목천읍 서리4길 48,,36.78627673,127.2287479169,131847,"레포츠,레포츠",,[]
,국립지리산자연휴양림캠핑장,경상남도 함양군 마천면 음정길 152,,35.3464842667,127.6430218305,2739366,"레포츠,레포츠",,[]
,국립천관산자연휴양림캠핑장,전라남도 장흥군 관산읍 칠관로 842-1150,,34.5452950198,126.8996712831,2739374,"레포츠,레포츠",,[]
,국립칠보산자연휴양림캠핑장,경상북도 영덕군 병곡면 칠보산길 587,,36.6236934386,129.3682061041,2739378,"레포츠,레포츠",,[]
,국립평창청소년수련원,강원특별자치도 평창군 용평면 새터마을길 108,,37.5832702987,128.4020303407,131633,"레포츠,레포츠",,[]
,국립화천숲속야영장,강원특별자치도 화천군 간동면 배후령길 1144-25,,38.0114980747,127.7983944432,2734845,"레포츠,레포츠",,[]
,국망봉 자연휴양림,경기도 포천시 이동면 늠바위길 207-28,,38.0289746665,127.3962889641,2749614,"레포츠,레포츠",,[]
,국민운문산자연휴양림야영장,경상북도 청도군 운문면 운문로 763,,35.6483891199,129.0262365815,2739381,"레포츠,레포츠",,[]
,국민의 숲 트레킹 코스,강원특별자치도 평창군 대관령마루길 340,,37.6846095239,128.740693956,2798935,"레포츠,레포츠",,[]
,국제 롤러스케이트장,인천광역시 서구 청라에메랄드로 99,,37.5336606539,126.655743053,2718884,"레포츠,레포츠",,[]
,국제롤러스케이트,광주광역시 광산구 고봉로 53,,35.1820161644,126.8012809357,3000404,"레포츠,레포츠",,[]
,국제롤러장,인천광역시 서구 청라에메랄드로 99,,37.5336606539,126.655743053,2768204,"레포츠,레포츠",,[]
,국제리더스클럽,제주특별자치도 제주시 조천읍 조함해안로 321-21,,33.5515627877,126.6524885311,2751848,"레포츠,레포츠",,[]
,국토정중앙천문대야영장,강원특별자치도 양구군 국토정중앙면 국토정중앙로 126,,38.0689818427,128.0291661314,2753015,"레포츠,레포츠",,[]
,국화지낚시터,인천광역시 강화군 강화읍 국화길 51,,37.747374113,126.4680820355,1615657,"레포츠,레포츠",,[]
,군산 패러글라이딩 스쿨,전북특별자치도 군산시 성산면 마동1길 5-22,,35.9960539486,126.7830146046,3025742,"레포츠,레포츠",,[]
,군산컨트리클럽,전북특별자치도 군산시 옥구읍 남군산로 1685,,35.8972770194,126.6606864273,776717,"레포츠,레포츠",,[]
,군위 솔밭야영장,대구광역시 군위군 원효길 59-1,,36.047090019,128.6609602738,2909760,"레포츠,레포츠",,[]
,군위오펠GC,대구광역시 군위군 산성면 부흥로 227,,36.1125412686,128.6793845789,2770774,"레포츠,레포츠",,[]
,군위전투전승기념공원 캠핑장,대구광역시 군위군 삼국유사면 동부로 81,,36.1106566776,128.7494895538,2792285,"레포츠,레포츠",,[]
,군자낚시터,경기도 시흥시 시흥대로 216-18 (군자동),,37.3597418832,126.8079395797,2783661,"레포츠,레포츠",,[]
,군파크루지,경상북도 청도군 화양읍 삼신리,,35.6881429625,128.7265256426,2826337,"레포츠,레포츠",,[]
,굴전여가캠핑장,전라남도 여수시 돌산읍 돌산로 3017-15,,34.6924349035,127.7650168484,2727342,"레포츠,레포츠",,[]
,굼벵이캠핑농원,충청남도 태안군 이원면 꾸지나무길 103-10,,36.9365597108,126.2939200483,2727337,"레포츠,레포츠",,[]
,굿뜨래웰빙마을,충청남도 부여군 부여읍 가탑로 75,,36.2756162041,126.9305773912,2749618,"레포츠,레포츠",,[]
,궁농오토캠핑장,경상남도 거제시 장목면 거제북로 2633-16,,35.0007003615,128.7028381133,2732136,"레포츠,레포츠",,[]
,궁지골 농원,전라남도 영광군 묘량면 밀재로7길 140,,35.2087507337,126.5580184901,2749626,"레포츠,레포츠",,[]
,궁평항피싱피어,경기도 화성시 서신면 궁평항로 1069-12,,37.1168317283,126.6836964596,2782600,"레포츠,레포츠",,[]
,귀덕바다투명카약,제주특별자치도 제주시 한림읍 귀덕9길 4,,33.4433301386,126.2911918418,3066943,"레포츠,레포츠",,[]
,귤빛캠핑장,제주특별자치도 제주시 조천읍 함와로 428,,33.5039628424,126.6738044342,2734909,"레포츠,레포츠",,[]
,귤암리캠핑장,강원특별자치도 정선군 정선읍 아랫만지산길 8,,37.335855634,128.6116272377,2763470,"레포츠,레포츠",,[]
,그날카라반,전북특별자치도 무주군 내배방길 15-31,,35.9115055841,127.7548747323,2749644,"레포츠,레포츠",,[]
,그라티아글램핑,경기도 가평군 가평읍 태봉두밀로 421-24,,37.8153284161,127.4547843444,2726703,"레포츠,레포츠",,[]
,그랑블루 글램핑야영장,강원특별자치도 양양군 강현면 동해대로 3273-5,,38.1313276111,128.6205771254,2754435,"레포츠,레포츠",,[]
,그랑프리승마파크,전라남도 담양군 고서면 광산길 43-7,,35.2113991335,126.9761369525,1751137,"레포츠,레포츠",,[]
,그랜드CC,충청북도 청주시 청원구 오창읍 꽃화산길 51-20,,36.7220091028,127.3833330064,2769560,"레포츠,레포츠",,[]
,그랜드스키타운,전북특별자치도 무주군 설천면 만선로 74-1,,35.906586704,127.7551803934,507746,"레포츠,레포츠",,[]
,그랜드컨트리클럽,충청북도 청주시 청원구 오창읍 꽃화산길 51-20,,36.7221646301,127.3827441662,131573,"레포츠,레포츠",,[]
,그랜드하얏트 서울 아이스링크,서울특별시 용산구 소월로 322 (한남동),,37.5404826034,126.9968784173,131519,"레포츠,레포츠",,[]
,그레이스CC,경상북도 청도군 이서면 서녁길 91,,35.6642636516,128.6477776634,2770759,"레포츠,레포츠",,[]
,그레이스글램핑,강원특별자치도 춘천시 남산면 북한강변길 888,,37.8280075815,127.6097531904,2792314,"레포츠,레포츠",,[]
,그루터기캠핑장,강원특별자치도 양양군 서면 구룡령로 1694,,37.9551625876,128.5090149157,2754446,"레포츠,레포츠",,[]
,그리심 글램핑장,충청남도 공주시 어물길 395,,36.5891979467,127.1478078106,2908823,"레포츠,레포츠",,[]
,그린스톤캠핑장,경상북도 문경시 가은읍 완장길 103-63,,36.6830132362,127.9776391505,2727250,"레포츠,레포츠",,[]
,그린애캠핑장,강원특별자치도 원주시 칠봉로 604-5,,37.4407716481,127.8931360731,2908636,"레포츠,레포츠",,[]
,그린앤블루,경상남도 밀양시 고례로 805-25,,35.4894967648,128.9231972431,2909359,"레포츠,레포츠",,[]
,그린오토캠핑장,경상북도 포항시 남구 호미곶면 호미로 1178,,36.0613778846,129.5739712369,2727441,"레포츠,레포츠",,[]
,그린필로우,강원특별자치도 홍천군 마리소리길 182,,37.7361024672,128.2488756918,2909271,"레포츠,레포츠",,[]
,그린하우스캠핑장,경상북도 경주시 산내면 대현길 92,,35.7234952712,129.0653560463,2726711,"레포츠,레포츠",,[]
,그린힐 컨트리클럽,경기도 광주시 곤지암읍 내선길 176,,37.3595779823,127.4247252493,577646,"레포츠,레포츠",,[]
,그림나래 힐링캠프,충청남도 태안군 근흥면 궁틀길 62-51,,36.7187257012,126.2449635855,2749669,"레포츠,레포츠",,[]
,그림책동화마을품캠핑장,경기도 동두천시 삼육사로 1366 (탑동동),,37.8897521293,127.0990368783,2745716,"레포츠,레포츠",,[]
,그자리야영장,강원특별자치도 홍천군 노일로 478,,37.6949501596,127.7238439558,2909303,"레포츠,레포츠",,[]
,글램바오캠핑장,경기도 가평군 가평읍 북한강변로 518,,37.7726043296,127.5361531841,2752914,"레포츠,레포츠",,[]
,글램비글램핑,경기도 화성시 서신면 해안길 64,,37.1698246214,126.6282500464,2734911,"레포츠,레포츠",,[]
,글램인스타,강원특별자치도 정선군 고한읍 고토일길 210-15,,37.218593306,128.8585252972,2912319,"레포츠,레포츠",,[]
,글램조이,인천광역시 강화군 해안서로 689,,37.6888351221,126.3898602814,2847197,"레포츠,레포츠",,[]
,글램킹 글램핑,전라남도 함평군 함평읍 장년길 40,,35.0942317798,126.4768840574,2737326,"레포츠,레포츠",,[]
,글램파크 글램핑,경기도 포천시 이동면 화동로 1925-47,,38.0190391289,127.3645366043,2753065,"레포츠,레포츠",,[]
,글램핑 앤 카라반 (포항),경상북도 포항시 남구 호미곶면 구만길 64,,36.0794891942,129.5463147992,2749680,"레포츠,레포츠",,[]
,글램핑로망,대구광역시 달성군 옥포로111길 85-6 무릉도원관광농원,,35.7411354827,128.4942168233,2908431,"레포츠,레포츠",,[]
,글램핑스테이션,충청북도 괴산군 연풍면 연풍로 815,,36.7817264352,127.9514386999,2753092,"레포츠,레포츠",,[]
,글램핑스토리,경상남도 합천군 가야면 구미가천로 345-1,,35.7492744022,128.0878357616,2749699,"레포츠,레포츠",,[]
,글램핑앤카라반,경기도 양평군 단월면 단월로 600,,37.5860508287,127.6777429965,2749709,"레포츠,레포츠",,[]
,글램핑클럽레스피아,강원특별자치도 홍천군 북방면 구룡밭길 24-30,,37.6856901952,127.7277133213,2755019,"레포츠,레포츠",,[]
,글램핑클럽레스피아 in 태안,충청남도 태안군 소원면 구름포길 117,,36.8355800817,126.1526883231,2796881,"레포츠,레포츠",,[]
,글램핑클럽레스피아 in포천백운계곡,경기도 포천시 이동면 도평리,,38.0603541828,127.3878526982,3011312,"레포츠,레포츠",,[]
,글램핑포엠,경상북도 청도군 능소화길 6,,35.6380537253,128.8527159611,2909175,"레포츠,레포츠",,[]
,글렌252,경기도 양평군 양동면 황거길 135,,37.4566834008,127.7273200506,2792601,"레포츠,레포츠",,[]
,글렌로스 골프클럽,경기도 용인시 처인구 포곡읍 에버랜드로562번길 69,,37.294517301,127.1857543098,780311,"레포츠,레포츠",,[]
,글로리아 야영장,충청남도 홍성군 서부면 서부서길554번길 70,,36.5793566901,126.4682915039,2792167,"레포츠,레포츠",,[]
,금강 둘레길,충청북도 영동군 양산면,,36.1347175648,127.6705317424,2746562,"레포츠,레포츠",,[]
,금강뷰,충청남도 금산군 낙안길 107-13,,36.1151209723,127.5806486078,2908719,"레포츠,레포츠",,[]
,금강송 체험 야영장,경상북도 울진군 금강송면 십이령로 1105,,37.0105240159,129.2124388795,2749715,"레포츠,레포츠",,[]
,금강자연휴양림캠핑장,세종특별자치시 금남면 산림박물관길 110,,36.4364197939,127.2352513289,2749716,"레포츠,레포츠",,[]
,금계캠핑장,충청남도 공주시 문금길 86,,36.6376533756,126.9836212651,2908813,"레포츠,레포츠",,[]
,금곡낚시터,경기도 파주시 법원읍 술이홀로1372번길 347,,37.8926397264,126.8926390188,2764900,"레포츠,레포츠",,[]
,금관숲야영장,충청북도 청주시 상당구 미원면 운암계원로 628,,36.6206102409,127.7257217763,2727329,"레포츠,레포츠",,[]
,금능해수욕장 야영장,제주특별자치도 제주시 한림읍 금능리,,33.3913100306,126.2360672447,2907715,"레포츠,레포츠",,[]
,금다래캠핑장,경기도 가평군 북면 화악산로 1087-24,,37.9501225126,127.533748181,2740102,"레포츠,레포츠",,[]
,금당산 맨발로,광주광역시 서구 풍암동,,35.1166389141,126.8889137074,3441364,"레포츠,레포츠",,[]
,금대 에코힐링 캠핑장,강원특별자치도 원주시 판부면 영원산성길 372,,37.2933993402,128.0183263014,2033279,"레포츠,레포츠",,[]
,금대자동차야영장,강원특별자치도 원주시 판부면 영원산성길 372,,37.2934659986,128.0182985243,2734906,"레포츠,레포츠",,[]
,금동산야,경기도 포천시 신북면 상아골길 55,,37.9395746249,127.1281022206,2749767,"레포츠,레포츠",,[]
,금물산하늘소캠프,경기도 양평군 청운면 삼백골길 45,,37.5499154461,127.7908754655,2734920,"레포츠,레포츠",,[]
,금방아 민박캠핑장,강원특별자치도 영월군 무릉도원면 무릉법흥로 516,,37.3179121542,128.2603760066,2757116,"레포츠,레포츠",,[]
,금빛수로보트하우스,경기도 김포시 장기동,,37.6435565664,126.6765741878,3007490,"레포츠,레포츠",,[]
,금산국민여가오토캠핑장,충청남도 금산군 제원면 닥실길 16,,36.1051052351,127.5686971651,2727222,"레포츠,레포츠",,[]
,금산만악리수목원 오토캠핑장,충청남도 금산군 초미동길 138-10,,36.1547916808,127.4372686479,2908747,"레포츠,레포츠",,[]
,금산인삼골오토캠핑장,충청남도 금산군 제원면 달고개길 124,,36.0878269823,127.5874542954,2727226,"레포츠,레포츠",,[]
,금산청소년수련원,충청남도 금산군 제원면 용화로 343,,36.0957790254,127.5971032217,3067893,"레포츠,레포츠",,[]
,금수문화공원 야영장,경상북도 성주군 금수면 무학3길 64,,35.9304290812,128.0999797538,2749785,"레포츠,레포츠",,[]
,금오도 비렁길,전라남도 여수시 남면 용머리길,,34.5371985513,127.7111643607,2483594,"레포츠,레포츠",,[]
,금오랜드 사계절썰매장,경상북도 구미시 금오산로 341,,36.1132455951,128.3165472009,131017,"레포츠,레포츠",,[]
,금오랜드 실내아이스링크장,경상북도 구미시 금오산로 341 금오랜드,,36.1130678186,128.3155056314,250478,"레포츠,레포츠",,[]
,금오산랜드,경상남도 하동군 진교면 구고속도로 374-30,,35.016636353,127.8617139609,3058607,"레포츠,레포츠",,[]
,금오산야영장,경상북도 구미시 금오산상가길 12 (남통동),,36.1108235963,128.3137086304,3029654,"레포츠,레포츠",,[]
,금원수목원수영장,경기도 광주시 남종면 태허정로 389,,37.4784254589,127.2793239339,3082256,"레포츠,레포츠",,[]
,금은모래캠핑장,경기도 여주시 강변유원지길 105 (연양동),,37.2933622985,127.6673579734,2734822,"레포츠,레포츠",,[]
,금이낚시터,경기도 시흥시 금이진말길 159 (금이동),,37.3991460277,126.829508741,2751249,"레포츠,레포츠",,[]
,금진방파제,강원특별자치도 강릉시 옥계면 금진리,,37.6504723123,129.0524725126,131272,"레포츠,레포츠",,[]
,금천낚시터,강원특별자치도 태백시 금천길 159,,37.0939352562,128.9953529312,2702249,"레포츠,레포츠",,[]
,금촌청소년문화의집,경기도 파주시 시민회관길 40,,37.7586144499,126.7801281391,752301,"레포츠,레포츠",,[]
,금호강 오토캠핑장,대구광역시 북구 검단동 458-4번지,,35.9186842139,128.6115682298,2718709,"레포츠,레포츠",,[]
,기산골캠핑장,경기도 양주시 백석읍 기산로 413,,37.7765762612,126.9359328224,2727179,"레포츠,레포츠",,[]
,기차마을레일바이크,전라남도 곡성군 오곡면 기차마을로 232,,35.2776556637,127.3082114814,2784734,"레포츠,레포츠",,[]
,기흥CC,경기도 화성시 풀무골로106번길 244,,37.191464633,127.1466024194,2747178,"레포츠,레포츠",,[]
,기흥컨트리클럽,경기도 화성시 동탄면 풀무골로106번길 244,,37.1914118485,127.1458941519,131416,"레포츠,레포츠",,[]
,길명낚시공원,경기도 포천시 일동면 영일로 316,,37.9474011145,127.2596649597,2752678,"레포츠,레포츠",,[]
,길상낚시터,인천광역시 강화군 길상면 초지로 453,,37.6245528757,126.4996186818,2755854,"레포츠,레포츠",,[]
,길안다슬기캠프,경상북도 안동시 길안면 웃장터길 80,,36.4549620001,128.898374855,2753106,"레포츠,레포츠",,[]
,길정 낚시터,인천광역시 강화군 양도면 고려왕릉로 209,,37.6638171566,126.4661845393,2757130,"레포츠,레포츠",,[]
,길캠프,강원특별자치도 영월군 무릉도원면 황정길 29,,37.3030146559,128.1541193431,2757124,"레포츠,레포츠",,[]
,김녕요트투어,제주특별자치도 제주시 구좌읍 구좌해안로 229-16,,33.5582634073,126.7371893521,1064572,"레포츠,레포츠",,[]
,김삿갓 계곡 캠핑장,강원특별자치도 영월군 김삿갓면 김삿갓로 216-30,,37.0793127576,128.602694004,2757126,"레포츠,레포츠",,[]
,김삿갓삿갓 쉼터,강원특별자치도 영월군 강변로 1390,,37.1138907361,128.5298356163,2908375,"레포츠,레포츠",,[]
,김삿갓휴게소 체험 캠핑장,강원특별자치도 영월군 김삿갓면 영월동로 2134,,37.1215191374,128.6089394187,2757149,"레포츠,레포츠",,[]
,김수녕양궁장,충청북도 청주시 상당구 1순환로1514번길 89 (용정동),,36.6271364406,127.5258311713,3034941,"레포츠,레포츠",,[]
,김제모악산캠핑파크,전북특별자치도 김제시 금산면 금산리 79-9,,35.7160569961,127.0439791521,2724409,"레포츠,레포츠",,[]
,김천맑은계곡 오토캠핑장,경상북도 김천시 대야길 307,,36.0192823782,127.9185600671,2909644,"레포츠,레포츠",,[]
,김천부항댐 산내들오토캠핑장,경상북도 김천시 지례면 부항댐길 50,,35.9780109743,128.0118862532,2371230,"레포츠,레포츠",,[]
,김천시 사계절썰매장,경상북도 김천시 대항면 운수리,,36.1198448285,128.0109213376,3115101,"레포츠,레포츠",,[]
,김천실내테니스장&김천오토캠핑장,경상북도 김천시 초곡길 287-97,,36.1410260153,128.1781670249,2909565,"레포츠,레포츠",,[]
,김천포도CC,경상북도 김천시 구성면 남김천대로 2532,,36.0421433855,128.0567194108,2758271,"레포츠,레포츠",,[]
,김포 SEASIDE 컨트리클럽,경기도 김포시 월곶면 김포대로2801번길 219,,37.7100518536,126.5341520243,131336,"레포츠,레포츠",,[]
,김포사계절썰매장,경기도 김포시 월곶면 용강로13번길 38,,37.7209509632,126.5556803032,131795,"레포츠,레포츠",,[]
,김포시청소년수련원,경기도 김포시 월곶면 용강로13번길 38,,37.7207870316,126.5521834056,131696,"레포츠,레포츠",,[]
,김포조각공원사계절썰매장,경기도 김포시 월곶면 용강로13번길 38,,37.7209509632,126.5556803032,2736378,"레포츠,레포츠",,[]
,김포캠핑파크,경기도 김포시 월곶면 용강로 325,,37.7472812758,126.5585126392,2734826,"레포츠,레포츠",,[]
,김포한강오토캠핑장,경기도 김포시 하성면 월하로912번길 64,,37.7033936573,126.6549772606,2734831,"레포츠,레포츠",,[]
,김해가야테마파크눈썰매장,경상남도 김해시 가야테마길 161 (어방동),,35.2522311829,128.8920398207,3075672,"레포츠,레포츠",,[]
,김해생림오토캠핑장,경상남도 김해시 생림면 금곡로382번길 39,,35.3659836152,128.8125825367,2727255,"레포츠,레포츠",,[]
,김해승마클럽,경상남도 김해시 화목로 264-53 (화목동),,35.1812108797,128.8652496482,3060326,"레포츠,레포츠",,[]
,김해카라반르몽드,경상남도 김해시 가야테마길 161,,35.2516757215,128.8937757956,2377274,"레포츠,레포츠",,[]
,깃대캠핑장,충청북도 보은군 마로면 세중기대로 261-128,,36.3994453425,127.8060540742,2749912,"레포츠,레포츠",,[]
,깊은골캠핑장,전북특별자치도 무주군 설천면 구천동로 1284-6,,35.9262179048,127.7606682656,2727286,"레포츠,레포츠",,[]
,깊이울관광농원,경기도 포천시 신북면 깊이울로 141,,37.9237801057,127.1753344699,2737955,"레포츠,레포츠",,[]
,깊이울달빛캠핑장,경기도 포천시 신북면 깊이울로 200,,37.9217024541,127.1689740009,2749921,"레포츠,레포츠",,[]
,까치양어장,경기도 시흥시 수인로2107번길 146 (조남동),,37.3674559154,126.8664229326,2747730,"레포츠,레포츠",,[]
,꽃길글램핑,경상남도 산청군 금서면 왕등재로 160,,35.3973372674,127.8240573222,2907756,"레포츠,레포츠",,[]
,꽃내라팜,강원특별자치도 고성군 간성읍 꽃내마루길 75,,38.349370682,128.4272240119,2753110,"레포츠,레포츠",,[]
,꽃주렁나무주렁캠핑장,경기도 용인시 처인구 이동읍 경기동로1024번길 46,,37.114471876,127.2091655782,2754447,"레포츠,레포츠",,[]
,꽃지안면도레포츠,충청남도 태안군 안면읍 꽃지해안로 412,,36.5028549221,126.3373969954,2769838,"레포츠,레포츠",,[]
,꽃지카트장,충청남도 태안군 안면읍 꽃지1길 197,,36.503166015,126.3384330048,3057022,"레포츠,레포츠",,[]
,꾸러기캠핑장,경상남도 진주시 금곡면 검암길 31,,35.1155170245,128.1823916169,2749947,"레포츠,레포츠",,[]
,꿈꾸는 캠핑장,전라남도 곡성군 고달면 고산로 325,,35.2927327394,127.3661448688,2022673,"레포츠,레포츠",,[]
,꿈꾸는계곡 야영장,강원특별자치도 양양군 현북면 어성전길 389,,37.9329711347,128.674122878,2744430,"레포츠,레포츠",,[]
,꿈꾸는농부오토캠핑장,대전광역시 동구 산내로 716,,36.2358773991,127.4671443494,2749952,"레포츠,레포츠",,[]
,꿈꾸는시계,충청남도 논산시 벌곡면 수락로443번길 47-2,,36.1877380619,127.2880199718,2749964,"레포츠,레포츠",,[]
,꿈꾸는캠핑장,경상남도 합천군 봉산면 서부로 4326,,35.6254848175,128.0423042332,2728538,"레포츠,레포츠",,[]
,꿈애오토캠핑장,경상북도 칠곡군 왜관읍 봉계1길 6,,35.9986278062,128.4541993302,2728544,"레포츠,레포츠",,[]
,꿈에그린캠핑장,경기도 포천시 이동면 화동로1870번길 31,,38.0139287338,127.3710056078,2732133,"레포츠,레포츠",,[]
,꿈엔들캠핑장,강원특별자치도 영월군 무릉도원면 무릉법흥로 968-12,,37.3429013262,128.2809706378,2749989,"레포츠,레포츠",,[]
,꿈의대화캠핑장,강원특별자치도 평창군 대화면 해뜰마을길 49-6,,37.5020945122,128.4514977642,2749997,"레포츠,레포츠",,[]
,나드리캠핑장,충청북도 옥천군 청성면 삼남2길 6,,36.2923314003,127.7407739591,2750009,"레포츠,레포츠",,[]
,나린오토캠핑장,경기도 연천군 미산면 어삼로 391-81,,38.0186847758,126.9720114465,2734842,"레포츠,레포츠",,[]
,나무새캠핑장,경기도 포천시 신북면 간자동길 138-74,,37.9716712915,127.1506769993,2728539,"레포츠,레포츠",,[]
,나무야나무야캠핑장,충청북도 괴산군 유상길 85 하프타임스쿨2막학교,,36.7789494294,127.9761226792,2908089,"레포츠,레포츠",,[]
,나인힐스,경기도 용인시 처인구 원삼면 보개원삼로1372번길 41,,37.1177955847,127.3132338541,2726699,"레포츠,레포츠",,[]
,나조스트,강원특별자치도 영월군 김삿갓면 김삿갓로 638,,37.1094759905,128.6043707397,2734825,"레포츠,레포츠",,[]
,나주 죽산보 오토캠핑장,전라남도 나주시 우정로 10,,35.0247530385,126.7818948936,2791956,"레포츠,레포츠",,[]
,나주글램핑어스,전라남도 나주시 경현길 65,,35.0366087503,126.7051486053,2750018,"레포츠,레포츠",,[]
,나진피서지,전라남도 여수시 화양면 나진리,,34.702136794,127.6157185442,2752374,"레포츠,레포츠",,[]
,낙동강 위더스 럭셔리글램핑,경상남도 창녕군 박진로 627,,35.4253889349,128.4047083038,2909661,"레포츠,레포츠",,[]
,낙동강레포츠밸리강변오토캠핑장,대구광역시 달성군 구지면 구지서로 199,,35.6728770044,128.3678575964,2750032,"레포츠,레포츠",,[]
,낙화담협동조합,경상북도 칠곡군 지천면 지천로 395-70,,35.9717869769,128.4852001181,3510366,"레포츠,레포츠",,[]
,난지캠핑장,서울특별시 마포구 한강난지로 28 (상암동),,37.5702380314,126.8726055709,2750941,"레포츠,레포츠",,[]
,난지한강공원 익스트림장,서울특별시 마포구 한강난지로 162 (상암동),,37.5630252055,126.8851546298,1029885,"레포츠,레포츠",,[]
,난지한강공원물놀이장,서울특별시 마포구 한강난지로 162 (상암동),,37.5630252055,126.8851546298,3057076,"레포츠,레포츠",,[]
,남강캠프,강원특별자치도 영월군 무릉도원면 무릉법흥로 1050-16,,37.3503837776,128.2800010589,2734828,"레포츠,레포츠",,[]
,남동25시야구센터,인천광역시 남동구 경신로60번길 22 (수산동),,37.4433529672,126.7270668402,3430135,"레포츠,레포츠",,[]
,남부CC,경기도 용인시 기흥구 사은로 163 (보라동),,37.2570427615,127.1245248045,2742125,"레포츠,레포츠",,[]
,남부골프연습장,경기도 용인시 기흥구 민속촌로 95,,37.261600399,127.1151394164,577266,"레포츠,레포츠",,[]
,남산국치길,서울특별시 중구 주자동,,37.5605523511,126.9889146857,2778449,"레포츠,레포츠",,[]
,남서울컨트리클럽,경기도 성남시 분당구 판교백현로 161 (백현동),,37.3819358701,127.0823306773,130985,"레포츠,레포츠",,[]
,남선공원 스케이트장,대전광역시 서구 남선로 66 (탄방동),,36.3484244318,127.3988001827,3079868,"레포츠,레포츠",,[]
,남수원컨트리클럽,경기도 화성시 황계남길 21-10,,37.2144344985,127.0080004513,131559,"레포츠,레포츠",,[]
,남애스쿠버리조트,강원특별자치도 양양군 현남면 매바위길 77,,37.941561231,128.7874401442,3038535,"레포츠,레포츠",,[]
,남양주별내빙상장,경기도 남양주시 덕송3로 76 (별내동),,37.673727533,127.1126029667,3013742,"레포츠,레포츠",,[]
,남양주컨트리클럽,경기도 남양주시 오남읍 진건오남로 516-31,,37.6790454598,127.2161989273,1030473,"레포츠,레포츠",,[]
,남여주GC(남여주골프클럽),경기도 여주시 가여로 532 (하거동),,37.22829692,127.630621492,2764887,"레포츠,레포츠",,[]
,남원 백두대간 에코롯지,전북특별자치도 남원시 운봉읍 주촌리,,35.397367826,127.5079490882,3040467,"레포츠,레포츠",,[]
,남원백두대간힐링캠핑장,전북특별자치도 남원시 운봉읍 행정공안길 299,,35.3954019559,127.5408934534,2750050,"레포츠,레포츠",,[]
,남원워터월드수상스키장,전북특별자치도 남원시 주생면 도산리 산24-3,,35.3798437324,127.2859969298,2787407,"레포츠,레포츠",,[]
,남이섬베스트캠핑장,경기도 가평군 가평읍 북한강변로 517-8,,37.7721599192,127.5352032838,2754454,"레포츠,레포츠",,[]
,남작골 농촌체험휴양마을 야영장,경상북도 성주군 보월로 8-23,,35.8035604451,128.2703209521,2909328,"레포츠,레포츠",,[]
,남전낚시터,경기도 화성시 비봉면 남이로132번길 79-13,,37.2386036246,126.8348071655,2747371,"레포츠,레포츠",,[]
,남지개비리길,경상남도 창녕군 남지읍 용산리 160-2,,35.3946013859,128.4405698794,2746543,"레포츠,레포츠",,[]
,남창낚시터(남창지),충청남도 천안시 서북구 성거읍 보명사길 62,,36.8612592247,127.1984346924,2758134,"레포츠,레포츠",,[]
,남천야영장,충청북도 단양군 영춘면 남천4길 33,,37.0458009007,128.506706359,2734847,"레포츠,레포츠",,[]
,남촌CC,경기도 광주시 곤지암읍 부항길 135-38,,37.3527063364,127.4126793148,2750699,"레포츠,레포츠",,[]
,남파랑길(부산),부산광역시 남구 용호동,,35.1003385361,129.1212267969,2872199,"레포츠,레포츠",,[]
,남한강,충청북도 충주시 엄정면 목계리,,37.0753497633,127.8836197407,131293,"레포츠,레포츠",,[]
,남한강 래프팅(단양),충청북도 단양군 영춘면 강변로 704,,37.0872735337,128.4866152711,131787,"레포츠,레포츠",,[]
,남한강 승마 클럽,충청북도 충주시 중앙탑면 북부로 2140,,37.0708358689,127.8550807709,3075194,"레포츠,레포츠",,[]
,남한강 자전거길,경기도 남양주시 와부읍 경강로926번길 80,,37.5496414597,127.2387644741,2605334,"레포츠,레포츠",,[]
,남한강수상스키장,경기도 양평군 옥천면 남한강변길 274-1,,37.5101858123,127.440033431,2758033,"레포츠,레포츠",,[]
,남해 노랑카라반 & 고카트,경상남도 남해군 이동면 신전리,,34.7694295489,127.9524179567,2819540,"레포츠,레포츠",,[]
,남해 힐링국민여가캠핑장,경상남도 남해군 성남로 79-14,,34.7780424478,127.9509678617,2909246,"레포츠,레포츠",,[]
,남해군요트학교,경상남도 남해군 삼동면 동부대로1030번길 42-26,,34.7937813616,128.0528363392,1008874,"레포츠,레포츠",,[]
,남해금산오토캠핑장,경상남도 남해군 남해대로796번길 54,,34.7351367144,127.9839021995,2909274,"레포츠,레포츠",,[]
,남해더왕글램핑장,경상남도 남해군 설천면 설천로 224-79,,34.884660319,127.9086299294,2754436,"레포츠,레포츠",,[]
,남해스포츠파크,경상남도 남해군 서면 스포츠파크길 15,,34.8063984218,127.8385936219,131734,"레포츠,레포츠",,[]
,남해초전마을캠핑장,경상남도 남해군 미조면 동부대로14번길 27-21,,34.7293826852,128.0343229478,2728561,"레포츠,레포츠",,[]
,남해카약체험센터,경상남도 남해군 남면 남면로1229번길 10-34,,34.7448168207,127.8610793434,2782839,"레포츠,레포츠",,[]
,낭도야영장,전라남도 여수시 여산길 150 여천낭도중학교,,34.6005580012,127.541547029,2909143,"레포츠,레포츠",,[]
,낭만에코파크,인천광역시 강화군 양도면 중앙로814번길 19-16,,37.7018981624,126.4283147267,2729260,"레포츠,레포츠",,[]
,낭만캠프,강원특별자치도 화천군 간동면 모현동로 185-41,,38.043158293,127.7993517398,2750088,"레포츠,레포츠",,[]
,낭추골 현장학습원 사계절썰매장,충청북도 청주시 상당구 낭성면 단재로 1890,,36.5978775694,127.6181514858,131801,"레포츠,레포츠",,[]
,낭추골캠핑장,충청북도 청주시 상당구 단재로 1890,,36.5984163811,127.6173126573,2907868,"레포츠,레포츠",,[]
,내곡낚시터,충청북도 음성군 금왕읍 호수마을길 78,,37.0169807354,127.5386330175,2770039,"레포츠,레포츠",,[]
,내를 건너서 숲으로 오토캠핑장,경상북도 청도군 청려로 3470,,35.6789655605,128.8410186269,2909151,"레포츠,레포츠",,[]
,내리계곡솔밭캠핑장,강원특별자치도 영월군 김삿갓면 내리계곡로 1039-18,,37.102258867,128.6828000473,2728546,"레포츠,레포츠",,[]
,내리금봉캠핑장,강원특별자치도 영월군 김삿갓면 내리계곡로 1146,,37.1087218063,128.6719452706,2757153,"레포츠,레포츠",,[]
,내리캠핑장,경기도 평택시 팽성읍 내리길 64-23,,36.975304238,127.0325742968,2792121,"레포츠,레포츠",,[]
,내린천 래프팅,강원특별자치도 인제군 인제읍 내린천로 6211,,38.0431160103,128.2067618712,131776,"레포츠,레포츠",,[]
,내린천 수변공원,강원특별자치도 인제군 인제읍 내린천로 5693,,38.0099454896,128.2392543756,2615452,"레포츠,레포츠",,[]
,내린천 짚트랙 휴레저,강원특별자치도 인제군 인제읍 내린천로 5693,,38.0099454896,128.2392543756,2384239,"레포츠,레포츠",,[]
,내린천솔밭힐링캠핑장,강원특별자치도 인제군 상남면 가산동길 25,,37.9104608189,128.2910971458,2761768,"레포츠,레포츠",,[]
,내설악 미리내캠프,강원특별자치도 인제군 북면 십이선녀탕길 165,,38.1805210696,128.2909638867,3079546,"레포츠,레포츠",,[]
,내설악글램핑파크,강원특별자치도 인제군 북면 설악로 3252-81,,38.136655915,128.2482246815,2750111,"레포츠,레포츠",,[]
,내소힐링캠프,전북특별자치도 부안군 진서면 원암길 49-6,,35.6102000587,126.5827312563,2728571,"레포츠,레포츠",,[]
,내안의숲오토캠핑장,충청남도 부여군 옥산면 내대리,,36.1851455712,126.7449130848,2728587,"레포츠,레포츠",,[]
,내장산골프앤리조트,전북특별자치도 정읍시 첨단과학로 476,,35.5026559552,126.8658921254,2778936,"레포츠,레포츠",,[]
,내장산국민여가캠핑장,전북특별자치도 정읍시 내장산로 410 (부전동),,35.5240318204,126.8959805753,2728542,"레포츠,레포츠",,[]
,내장야영장,전북특별자치도 정읍시 내장산로 800,,35.4986239651,126.9179209415,2728551,"레포츠,레포츠",,[]
,내창트레킹,제주특별자치도 서귀포시 남원읍 하례중앙로 95,,33.2691991171,126.6253611869,2711404,"레포츠,레포츠",,[]
,내촌낚시터,경기도 포천시 내촌면 내진로30번길 64,,37.7873635514,127.2238256627,2752684,"레포츠,레포츠",,[]
,내츄럴리조트 애견캠핑장,경기도 안성시 죽산면 죽양대로 136-17,,37.0946282856,127.4377621468,2734889,"레포츠,레포츠",,[]
,내평계곡캠핑장,강원특별자치도 삼척시 근덕면 내평길 190,,37.3249189583,129.2358438957,2753116,"레포츠,레포츠",,[]
,너울서프,강원특별자치도 강릉시 옥계면 금진뒷길 92,,37.6413648407,129.0427875536,3069527,"레포츠,레포츠",,[]
,넌스키난보드,강원특별자치도 원주시 지정면 구재로 132,,37.3988190692,127.7919686623,512084,"레포츠,레포츠",,[]
,네스트캠핑,경기도 가평군 북면 화악산로 943-50,,37.9365131293,127.5414145499,2750117,"레포츠,레포츠",,[]
,네이스트 프라이빗,충청북도 음성군 덕생로 167-15,,36.8944264826,127.5981561112,2907706,"레포츠,레포츠",,[]
,노꼬담꼬,경상북도 경주시 산내면 감존길 390-65,,35.8231699061,129.0532542952,2750120,"레포츠,레포츠",,[]
,노동오토캠핑장,충청북도 단양군 단양읍 단양노동길 2-5,,36.9561892469,128.3738292051,2750125,"레포츠,레포츠",,[]
,노르딕민박,충청북도 충주시 중앙탑면 반천안길 55,,37.0380896599,127.8561538347,2754441,"레포츠,레포츠",,[]
,노마드글램핑,경기도 가평군 원흥길 46-12,,37.8187673194,127.3261015317,2909643,"레포츠,레포츠",,[]
,노문야영장,경기도 양평군 갈문길 22-17,,37.6463143436,127.4337134059,2907914,"레포츠,레포츠",,[]
,노벨CC(고성노벨컨트리클럽),경상남도 고성군 회화면 회진로 567,,35.069826139,128.4053705482,2755374,"레포츠,레포츠",,[]
,노블스키샵,전북특별자치도 무주군 설천면 구천동로 1083-11,,35.9095142154,127.7588910966,508237,"레포츠,레포츠",,[]
,노산팔경캠핑장,경기도 양평군 서종면 노문길 42,,37.6361181884,127.4273031731,2732135,"레포츠,레포츠",,[]
,노스팜CC,경기도 파주시 광탄면 쇠장이길 265,,37.7889132646,126.9110291923,2756052,"레포츠,레포츠",,[]
,노을빛바다애글램핑,인천광역시 강화군 화도면 장화리 474,,37.6214316354,126.3765439251,2792628,"레포츠,레포츠",,[]
,노을진 캠핑장,인천광역시 서구 정서진로 500,,37.5698259156,126.657144694,2792614,"레포츠,레포츠",,[]
,노을캠핑장,인천광역시 강화군 양도면 해안서로 695,,37.689379493,126.3892880961,2740108,"레포츠,레포츠",,[]
,노을캠핑장(서울),서울특별시 마포구 하늘공원로 108-1 (상암동),,37.5695215557,126.8786300417,2734894,"레포츠,레포츠",,[]
,노진낚시터,경기도 화성시 장안면 남양황라로 188-55,,37.0220866393,126.8139261308,2747380,"레포츠,레포츠",,[]
,노추산 모정탑길,강원특별자치도 강릉시 왕산면 대기리,,37.5709532143,128.7407252028,1869883,"레포츠,레포츠",,[]
,녹두장군 전봉준관,전북특별자치도 순창군 쌍치면 피노길 65-29,,35.5241699103,127.0127229851,1614574,"레포츠,레포츠",,[]
,녹두장군 전봉준관캠핑장,전북특별자치도 순창군 쌍치면 피노길 65-29,,35.5242226823,127.0127229838,2749727,"레포츠,레포츠",,[]
,녹색 오토캠핑장,경상북도 문경시 가은읍 대야로 1560,,36.6702648669,127.9869164588,2749745,"레포츠,레포츠",,[]
,녹색경관길,강원특별자치도 양양군 강현면 정암리,,38.1416567253,128.6082251472,2702330,"레포츠,레포츠",,[]
,녹수원글램핑,충청남도 공주시 유구읍 덕곡리,,36.6286486142,126.969914409,2728565,"레포츠,레포츠",,[]
,녹천캠핑,경기도 가평군 조종면 운악청계로333번길 55-19,,37.8458756861,127.3485959123,2745710,"레포츠,레포츠",,[]
,논산 탑정호글램핑,충청남도 논산시 가야곡면 종연리 238-7,,36.1752399106,127.1537934103,2749755,"레포츠,레포츠",,[]
,놀터글램핑,경기도 동두천시 신천로 274-57 (상봉암동),,37.941395258,127.0523868752,2749759,"레포츠,레포츠",,[]
,놀터캠핑장,경상남도 고성군 동해면 외산로 353,,35.0702991116,128.4500971847,2729271,"레포츠,레포츠",,[]
,농월정오토캠핑장,경상남도 함양군 안의면 월림리 727-1,,35.6249080133,127.7816994772,2749760,"레포츠,레포츠",,[]
,높은터캠핑장,강원특별자치도 홍천군 높은터로 233,,37.6488077849,127.8459064614,2909326,"레포츠,레포츠",,[]
,뇌운계곡글램핑,강원특별자치도 평창군 평창읍 뇌운계곡로 659-6,,37.4157476105,128.3821899203,2909084,"레포츠,레포츠",,[]
,눈내리는겨울,강원특별자치도 평창군 대관령면 올림픽로 236,,37.6652110774,128.7050116534,522920,"레포츠,레포츠",,[]
,눈의나라,강원특별자치도 정선군 사북읍 하이원길 36,,37.2232891555,128.815201255,512033,"레포츠,레포츠",,[]
,뉴문마리나,전라남도 목포시 해안로 6 (죽교동),,34.784437166,126.3682761851,3321323,"레포츠,레포츠",,[]
,뉴삼봉수상레저,경기도 남양주시 조안면 삼봉리,,37.5944519684,127.3390179595,3018011,"레포츠,레포츠",,[]
,뉴서울 다이빙 풀,경기도 광명시 하안로288번길 15,,37.4623118393,126.881366141,131913,"레포츠,레포츠",,[]
,뉴서울컨트리클럽,경기도 광주시 삼지곡길 95 (삼동),,37.4189754793,127.2065322379,130984,"레포츠,레포츠",,[]
,뉴스프링빌 컨트리클럽,경기도 이천시 사실로527번길 158 뉴스프링C.C,,37.1543185026,127.4314221445,131544,"레포츠,레포츠",,[]
,뉴욕카라반,강원특별자치도 속초시 동해대로 3847-7,,38.1783273325,128.6017023729,2744403,"레포츠,레포츠",,[]
,뉴코리아 컨트리클럽,경기도 고양시 덕양구 신원2로 57 (신원동),,37.6657715444,126.8827658325,577066,"레포츠,레포츠",,[]
,뉴힐링캠프,경기도 포천시 이동면 금강로 6135-19,,38.0754218864,127.3888243865,2734033,"레포츠,레포츠",,[]
,느랭이골 글램핑,전라남도 광양시 다압면 토끼재길 119-32,,35.0600705098,127.7114232446,2481694,"레포츠,레포츠",,[]
,느랭이골 자연 리조트,전라남도 광양시 다압면 토끼재길 119-32,,35.0600288482,127.7114399102,2481652,"레포츠,레포츠",,[]
,느루캠핑장,충청남도 부여군 장암로 67-28,,36.2381530787,126.8875377955,2908529,"레포츠,레포츠",,[]
,느티나무 캠핑장,강원특별자치도 영월군 김삿갓면 내리계곡로 1061,,37.1040363589,128.6785198216,2755825,"레포츠,레포츠",,[]
,느티나무그늘아래캠핑장,경기도 파주시 문산읍 사목로108번길 63-11,,37.875861463,126.756521414,2728558,"레포츠,레포츠",,[]
,느티나무야영장,경상남도 산청군 삼장면 대원사길 807,,35.3715199878,127.7816145178,2749790,"레포츠,레포츠",,[]
,느티담길캠핑장,대구광역시 군위군 부흥로 362-33 야영장,,36.118021409,128.6905056633,2909741,"레포츠,레포츠",,[]
,늘솔길캠핑장,강원특별자치도 춘천시 동면 야시대로 1502,,37.8569519779,127.9362393037,2792289,"레포츠,레포츠",,[]
,늘솔길캠핑촌,경상북도 포항시 북구 기계면 봉좌산길 114,,36.0653223077,129.1597463726,2749803,"레포츠,레포츠",,[]
,늘예솔글램핑,경상남도 거창군 북상면 덕유월성로 1384-5,,35.7643275292,127.7368997214,2720894,"레포츠,레포츠",,[]
,늘편한캠핑장,강원특별자치도 홍천군 두촌면 황병고개길 25-10,,37.8632294257,128.1046460452,2755612,"레포츠,레포츠",,[]
,늘푸른관광농원,강원특별자치도 춘천시 북산면 추곡약수길 47,,38.033891602,127.8883494625,2759597,"레포츠,레포츠",,[]
,늘푸른낚시터,경기도 남양주시 별내면 청학로48번길 29-13,,37.706601695,127.1241287512,2762898,"레포츠,레포츠",,[]
,늘푸른숲,부산광역시 금정구 체육공원로 270 (선동),,35.266130818,129.1071456915,3027022,"레포츠,레포츠",,[]
,늘푸른쉼터오토캠핑장,경기도 가평군 설악면 어비산길 76,,37.5974240124,127.4999976879,2726797,"레포츠,레포츠",,[]
,늘푸른전당,경상남도 창원시 성산구 두대로 97 (삼동동),,35.2298126855,128.6543250696,131477,"레포츠,레포츠",,[]
,늘푸른체험학교 캠핑장,경상북도 영천시 대창면 영지길 100,,35.8582634411,128.9196983639,1991659,"레포츠,레포츠",,[]
,늘푸른캠핑장,충청남도 서천군 마서면 장천로 905-20,,36.0842053992,126.644746915,2728772,"레포츠,레포츠",,[]
,늘푸른펜션캠핑장,강원특별자치도 영월군 김삿갓면 내리계곡로 1116-4,,37.1078886394,128.6756560752,2749815,"레포츠,레포츠",,[]
,다누리움 캠핑장,경기도 용인시 처인구 이동읍 묘봉리,,37.1294207658,127.2435259408,3046402,"레포츠,레포츠",,[]
,다둥이네캠핑장,경기도 가평군 북면 화악산로 642-18,,37.9355164368,127.5637514314,3074999,"레포츠,레포츠",,[]
,다람쥐 쉼터,전북특별자치도 완주군 운주면 금고당로 1016,,36.0297238233,127.3486160121,2749829,"레포츠,레포츠",,[]
,다리안관광지 캠핑장,충청북도 단양군 단양읍 소백산등산길 12,,36.9648169146,128.4207386458,2754483,"레포츠,레포츠",,[]
,다릿재농원캠핑장,충청북도 충주시 산척면 밀목길 109-13,,37.1141136061,127.9724495238,2728569,"레포츠,레포츠",,[]
,다물민족학교 다물평생교육원,경상남도 산청군 단성면 호암로 631,,35.317061559,127.9002305096,131522,"레포츠,레포츠",,[]
,다볼펜션,강원특별자치도 춘천시 남산면 둔일길 202,,37.7745001777,127.623997913,2761774,"레포츠,숙박",,[]
,다빈치동력패러,충청남도 보령시 남포면 삼현리,,36.31444672,126.5419112666,3487248,"레포츠,레포츠",,[]
,다사체육공원,대구광역시 달성군 다사읍 다사로 441,,35.890134984,128.47778082,3015838,"레포츠,레포츠",,[]
,다시캠핑장,경상북도 고령군 덕운로 1043-68,,35.7988874022,128.1958998711,2909864,"레포츠,레포츠",,[]
,다온숲,세종특별자치시 전동면 깊은내길 213,,36.6429630983,127.2539745824,2728572,"레포츠,레포츠",,[]
,다온카라반,충청남도 서산시 대산읍 광암4길 132,,36.9375749898,126.3815787296,2728581,"레포츠,레포츠",,[]
,다옴 햇골 캠핑장,강원특별자치도 화천군 사내면 소이길 42,,38.0599455348,127.518338002,2755660,"레포츠,레포츠",,[]
,다옴펜션캠핑장,강원특별자치도 화천군 사내면 큰방단길 63,,38.0530827761,127.5360976939,2755663,"레포츠,레포츠",,[]
,다이노캠핑장,경상남도 고성군 삼산면 두포5길 193,,34.9232489953,128.2988059444,2729277,"레포츠,레포츠",,[]
,다이브라이프,서울특별시 서초구 반포대로20길 27 (서초동),,37.4881167222,127.0113174718,2773417,"레포츠,레포츠",,[]
,다이브랜드,제주특별자치도 서귀포시 보목포로 29 (보목동),,33.2408297167,126.6059829492,636073,"레포츠,레포츠",,[]
,다이아몬드베이,부산광역시 남구 분포로 101,,35.1327486905,129.1153680858,2784350,"레포츠,레포츠",,[]
,다인리조트 카라반,제주특별자치도 제주시 애월읍 애월해안로 400-9,,33.4714751921,126.3512637615,2749835,"레포츠,레포츠",,[]
,다인캠핑장,충청남도 천안시 동남구 광덕면 해사동길 33,,36.6751027528,127.0350822839,2734179,"레포츠,레포츠",,[]
,닥박골 휴양림,경기도 포천시 신북면 깊이울로1길 48-17,,37.9297433316,127.1771091341,2749841,"레포츠,레포츠",,[]
,닥터스노우,강원특별자치도 평창군 대관령면 올림픽로 56,,37.6738294379,128.7005062406,522878,"레포츠,레포츠",,[]
,단아한펜션,전북특별자치도 순창군 산동신흥길 6,,35.3890032532,127.0922832789,2908949,"레포츠,레포츠",,[]
,단양 무지개 오토캠핑장,충청북도 단양군 가곡면 가대1길 84-7,,37.0448242351,128.4123898317,2749846,"레포츠,레포츠",,[]
,단양 사계절썰매장,충청북도 단양군 단양읍 삼봉로 421-59,,36.9872158962,128.3555160522,2761652,"레포츠,레포츠",,[]
,단양 투고 패러글라이딩,충청북도 단양군 가곡면 두산길 262,,37.00240111,128.4006504571,3074932,"레포츠,레포츠",,[]
,단양 패러 명가,충청북도 단양군 가곡면 두산길 262,,37.00240111,128.4006504571,3074954,"레포츠,레포츠",,[]
,단양 패러글라이딩 패러는 내친구,충청북도 단양군 가곡면 두산길 196-52,,36.9967294703,128.396956509,3089064,"레포츠,레포츠",,[]
,단양 패러글라이딩 패러에 반하다,충청북도 단양군 가곡면 두산길 196-88,,36.9942491621,128.3949623153,3075069,"레포츠,레포츠",,[]
,단양 패러일번지,충청북도 단양군 가곡면 두산길 196-91,,36.9936742244,128.3947595726,2518166,"레포츠,레포츠",,[]
,단양드림레저 패러글라이딩,충청북도 단양군 단양읍 다리안로 99,,36.9870913992,128.3815609462,2368508,"레포츠,레포츠",,[]
,단양레포츠,충청북도 단양군 강변로 481 청아레져,,37.0692256017,128.4862991639,446372,"레포츠,레포츠",,[]
,단양생태체육공원,충청북도 단양군 단양읍 별곡리,,36.9921543301,128.361509816,3014132,"레포츠,레포츠",,[]
,단양천동계곡캠핑장그린농원,충청북도 단양군 단양읍 천동4길 10-8,,36.9662111702,128.4191998536,2757187,"레포츠,레포츠",,[]
,단양클레이사격장,충청북도 단양군 단양읍 노동장현로 207-17,,36.9630277003,128.3924523393,1012493,"레포츠,레포츠",,[]
,단양팔경 산악오토바이,충청북도 단양군 단양읍 다리안로 74-17,,36.9853637546,128.3781057505,3014046,"레포츠,레포츠",,[]
,단양패러마을 패러글라이딩,충청북도 단양군 가곡면 두산길 196-52,,36.9967294703,128.396956509,2586827,"레포츠,레포츠",,[]
,단종대왕 유배길,강원특별자치도 영월군 주천면 주천리 1125-4,,37.2686874192,128.268029547,2524948,"레포츠,레포츠",,[]
,단호샌드파크캠핑장,경상북도 안동시 남후면 풍산단호로 835-35,,36.555745457,128.6303151605,2728589,"레포츠,레포츠",,[]
,달곡캠프,울산광역시 북구 달곡1길 134,,35.6095564464,129.4200199249,2749851,"레포츠,레포츠",,[]
,달과별캠핑장,강원특별자치도 영월군 상동읍 덕구로 432-25,,37.0951954566,128.8108860297,2757196,"레포츠,레포츠",,[]
,달구벌승마공원,대구광역시 달성군 화원읍 명곡로 118,,35.7885357172,128.4964125449,3009817,"레포츠,레포츠",,[]
,달궁자동차야영장,전북특별자치도 남원시 산내면 덕동리 274번지 외 22필지,,35.3546040835,127.5578735716,2728600,"레포츠,레포츠",,[]
,달궁힐링야영장,전북특별자치도 남원시 산내면 덕동리 287-3,,35.3519848942,127.5555488451,2749861,"레포츠,레포츠",,[]
,달빛고운병곡캠핑장,경상남도 거창군 북상면 병곡길 447-11,,35.8091564656,127.7756478666,2720194,"레포츠,레포츠",,[]
,달빛글램핑,경기도 포천시 일동면 사기막길 67-6,,37.9651004824,127.3376823109,2728580,"레포츠,레포츠",,[]
,달빛담은캠핑장,전라남도 보성군 벌교읍 장암길 284-37,,34.8028109044,127.4122477195,2734187,"레포츠,레포츠",,[]
,달빛수상레저,경기도 남양주시 화도읍 북한강로 1132-32,,37.6145552815,127.3440502567,3017953,"레포츠,레포츠",,[]
,달빛정원글램핑,경기도 가평군 설악면 유명산길 122-10,,37.5928132017,127.4871878741,2763393,"레포츠,레포츠",,[]
,달빛캠핑장,경기도 양평군 단월면 윗고북길 56,,37.5883043677,127.5826126736,2792610,"레포츠,레포츠",,[]
,달서구청소년수련관,대구광역시 달서구 상화로 420,,35.807251427,128.5596342372,1610250,"레포츠,레포츠",,[]
,달서아트센터 수영장,대구광역시 달서구 문화회관길 160,,35.8435549789,128.5230031246,2366762,"레포츠,레포츠",,[]
,달서천 자전거 광장,대구광역시 서구 달서천로 199 (비산동),,35.8824956255,128.5562130057,3399442,"레포츠,레포츠",,[]
,달월낚시터,경기도 시흥시 군자로 125-39,,37.3723675344,126.77057874,2751635,"레포츠,레포츠",,[]
,달이머무는집,충청북도 영동군 황간면 월류봉길 57,,36.2327908737,127.889367919,2749473,"레포츠,레포츠",,[]
,달자캠핑장,충청북도 영동군 상촌면 대해리,,36.0885436722,127.9035206208,2749476,"레포츠,레포츠",,[]
,달재오토캠핑장,충청북도 제천시 백운면 덕동로2길 23-13,,37.2162404376,127.9570507333,2729181,"레포츠,레포츠",,[]
,달천공원오토캠핑장,경상남도 창원시 의창구 북면 달천길 150,,35.2832362201,128.5982757466,2729190,"레포츠,레포츠",,[]
,달콤이네캠핑장,강원특별자치도 원주시 문막읍 취병로 106,,37.311276577,127.8009453907,2728901,"레포츠,레포츠",,[]
,달콤한캠핑장,강원특별자치도 홍천군 내촌면 비선동길 121-29,,37.7928490952,128.1250963072,2734204,"레포츠,레포츠",,[]
,달토 풀빌라 글램핑,경상북도 영덕군 병곡면 흰돌로 85-32,,36.6123149532,129.4081667996,3073445,"레포츠,레포츠",,[]
,담양 용마루길,전라남도 담양군 용면 추월산로 735,,35.3875211686,126.9930309983,2013935,"레포츠,레포츠",,[]
,담양금성오토캠핑장,전라남도 담양군 금성면 새덕굴길 135-88,,35.3659687771,127.0354583433,2729195,"레포츠,레포츠",,[]
,담양댐인증센터,전라남도 담양군 금성면 금성산성길 293,,35.3712928779,127.0180986342,2754770,"레포츠,레포츠",,[]
,담양레이나 CC,전라남도 담양군 담양읍 깊은실길 169,,35.3100775539,127.0164836657,715953,"레포츠,레포츠",,[]
,담양힐링파크,전라남도 담양군 봉산면 탄금길 9-26,,35.2714781967,126.9609673343,2726659,"레포츠,레포츠",,[]
,담터금학캠핑장,경기도 포천시 관인면 담터길 339,,38.1609526723,127.1896706647,2908402,"레포츠,레포츠",,[]
,담터라온글램핑,강원특별자치도 철원군 담터길 352,,38.1620358784,127.1896484127,2908906,"레포츠,레포츠",,[]
,담터오지글램핑,강원특별자치도 철원군 담터길 350,,38.161941445,127.1896484155,2912988,"레포츠,레포츠",,[]
,담터오지캠핑장,경기도 포천시 관인면 담터길 409,,38.166429774,127.1877429024,2743822,"레포츠,레포츠",,[]
,닷돈재야영장,충청북도 제천시 한수면 미륵송계로 1647,,36.8459772193,128.0926881084,1684574,"레포츠,레포츠",,[]
,당골낚시터,경기도 화성시 장안면 물골길 193-39,,37.0556114497,126.8653955486,2747382,"레포츠,레포츠",,[]
,당사현대차오션캠프,울산광역시 북구 당사동,,35.5821407755,129.4565286294,2821304,"레포츠,레포츠",,[]
,당진 오봉제,충청남도 당진시 신평면,,36.8724638115,126.7446448085,131590,"레포츠,레포츠",,[]
,당진 장고항,충청남도 당진시 석문면 장고항로,,37.0312922335,126.5595239472,131815,"레포츠,레포츠",,[]
,당진 초대리지,충청남도 당진시 신평면 새내큰말길,,36.9027352443,126.7404332581,131599,"레포츠,레포츠",,[]
,당진난지도 국민여가캠핑장,충청남도 당진시 석문면 난지1길 52-11,,37.0445994676,126.4248191536,2764869,"레포츠,레포츠",,[]
,당진해양캠핑공원,충청남도 당진시 신평면 산정길 112,,36.8960595947,126.8179542043,2729203,"레포츠,레포츠",,[]
,당평오토캠핑장,강원특별자치도 횡성군 갑천면 외갑천로 301,,37.5657016002,128.0400441159,2755702,"레포츠,레포츠",,[]
,당항포 요트체험,경상남도 고성군 회화면 당항만로 1116,,35.0563858594,128.3986687125,2613128,"레포츠,레포츠",,[]
,당항포오토캠핑장,경상남도 고성군 회화면 당항만로 1116,,35.0563858594,128.3986687125,2728900,"레포츠,레포츠",,[]
,대가야역사테마관광지캠핑장,경상북도 고령군 대가야읍 대가야로 1216,,35.7201252528,128.2596991686,2757198,"레포츠,레포츠",,[]
,대가야캠프타운,경상북도 고령군 운수면 물한1길 78-8,,35.7951678088,128.317478133,2728904,"레포츠,레포츠",,[]
,대강오토캠핑장,충청북도 단양군 대강면 두음리,,36.91929591,128.3551680588,3014192,"레포츠,레포츠",,[]
,대관령 소나무숲길,강원특별자치도 강릉시 성산면 삼포암길 17,,37.7191760422,128.7960490187,2784104,"레포츠,레포츠",,[]
,대관령솔내음오토캠프장,강원특별자치도 강릉시 성산면 삼포암길 48,,37.7172956951,128.795588007,2729143,"레포츠,레포츠",,[]
,대구iM뱅크PARK,대구광역시 북구 고성로 191,,35.8830627794,128.5861797933,2606238,"레포츠,레포츠",,[]
,대구광역시청소년수련원,대구광역시 달서구 앞산순환로 180,,35.8200081984,128.5531788967,131451,"레포츠,레포츠",,[]
,대구교육팔공산수련원,대구광역시 동구 용천로 538 (신무동),,35.9943793908,128.664292017,3090506,"레포츠,레포츠",,[]
,대구사격장,대구광역시 북구 문주길 170,,35.9113223289,128.5243483468,1895255,"레포츠,레포츠",,[]
,대구삼성라이온즈파크,대구광역시 수성구 연호동,,35.8411720547,128.6812614766,3008741,"레포츠,레포츠",,[]
,대구수성구청소년수련관,대구광역시 수성구 청수로45길 100,,35.8450540459,128.6323962254,1613631,"레포츠,레포츠",,[]
,대구스타디움,대구광역시 수성구 유니버시아드로 180,,35.8299818185,128.6901804487,131714,"레포츠,레포츠",,[]
,대구시민운동장,대구광역시 북구 고성로 191,,35.8804436428,128.5867964789,1353888,"레포츠,레포츠",,[]
,대구아이스파크,대구광역시 동구 입석로1길 69-4 (입석동),,35.8933072082,128.6481296055,3058070,"레포츠,레포츠",,[]
,대구활공랜드,대구광역시 달성군 구지면 국가산단북로25길 10-4,,35.664375874,128.4055795085,3011991,"레포츠,레포츠",,[]
,대궐오토캠핑장,경기도 양주시 백석읍 기산로440번길 177,,37.769016086,126.9390105347,2729211,"레포츠,레포츠",,[]
,대기농촌체험휴양마을,경상남도 합천군 가회면 대기2길 17-3,,35.4621997676,128.0018399468,2757142,"레포츠,레포츠",,[]
,대기리야영장,강원특별자치도 강릉시 왕산면 왕산로 1327,,37.5883185884,128.7776435739,2753118,"레포츠,레포츠",,[]
,대나무골오토캠핑장,전라남도 담양군 월산면 가산길 364,,35.3374316237,126.9478084973,3006272,"레포츠,레포츠",,[]
,대덕산농원캠핑장,전라남도 영광군 법성면 대덕길2길 105,,35.3503329108,126.4507939485,2747474,"레포츠,레포츠",,[]
,대덕승마장,대구광역시 달서구 앞산순환로 206,,35.8211941975,128.5543870908,131547,"레포츠,레포츠",,[]
,대덕저수지,충청북도 충주시 노은면 대덕길 122,,37.0584985562,127.7121606539,131292,"레포츠,레포츠",,[]
,대동 낚시터,충청남도 아산시 음봉면 송촌리,,36.8487496445,127.0471153503,2758372,"레포츠,레포츠",,[]
,대동승마랜드,경상남도 김해시 대동면 대동로485번길 132,,35.2483829077,128.9622504712,3060324,"레포츠,레포츠",,[]
,대둔산 그린시티 오토캠핑장,전북특별자치도 완주군 운주면 산북신복길 50,,36.0866228009,127.3434649524,2747484,"레포츠,레포츠",,[]
,대둔산 도립공원 수락캠핑장,충청남도 논산시 벌곡면 수락리,,36.1438517018,127.3048252021,3035170,"레포츠,레포츠",,[]
,대둔산 캠핑펜션 오토캠핑장,전북특별자치도 완주군 대둔산로 2100-24,,36.10680372,127.3370899817,2908922,"레포츠,레포츠",,[]
,대둔산글램핑캠핑장,전북특별자치도 완주군 운주면 원장선로 42-209,,36.0769172827,127.2826484128,2747491,"레포츠,레포츠",,[]
,대둔산자연휴양림캠핑장,충청남도 금산군 진산면 대둔산로 6,,36.1230797656,127.344166692,2747501,"레포츠,레포츠",,[]
,대룡산 오토캠핑장,강원특별자치도 홍천군 성동로 1612,,37.8258815208,127.8378297287,2909351,"레포츠,레포츠",,[]
,대명 비발디파크 스노위랜드,강원특별자치도 홍천군 서면 한치골길 262,,37.6407750399,127.6779191584,250475,"레포츠,레포츠",,[]
,대명낚시터,경기도 양평군 단월면 소부록길 35,,37.5687388789,127.6740216175,2758029,"레포츠,레포츠",,[]
,대봉스카이랜드 모노레일 앤 짚라인,경상남도 함양군 병곡면 병곡지곡로 333-2,,35.5854667389,127.7085792075,3058749,"레포츠,레포츠",,[]
,대봉캠핑랜드,경상남도 함양군 병곡면 원산지소길 192,,35.5882242387,127.6790317456,3344166,"레포츠,레포츠",,[]
,대부도바다낚시터,경기도 안산시 단원구 대부북동 1870-71,,37.2779357512,126.5517845992,2782505,"레포츠,레포츠",,[]
,대부도아라뜰캠핑장,경기도 안산시 단원구 부흥로 232-21 (대부남동),,37.2205321434,126.6001817669,2729231,"레포츠,레포츠",,[]
,대부도캠핑성,경기도 안산시 단원구 부흥로 232-68 (대부남동),,37.2192683388,126.59664879,2729238,"레포츠,레포츠",,[]
,대부도캠핑시티,경기도 안산시 단원구 대부황금로 110 (선감동),,37.2015573474,126.6448754445,3035856,"레포츠,레포츠",,[]
,대석낚시터,경기도 양평군 강상면 강남로 1811,,37.4269405931,127.4777268508,2764903,"레포츠,레포츠",,[]
,대성글램핑,경상북도 칠곡군 북삼읍 금오동천로 120-8,,36.065095205,128.2998361308,2728914,"레포츠,레포츠",,[]
,대성수상레저,경기도 가평군 청평면 대성강변길 14,,37.681484266,127.3795395377,231996,"레포츠,레포츠",,[]
,대숲글램핑장,전라남도 담양군 가사문학면 가사문학로 782,,35.1909739716,126.9943358572,2747512,"레포츠,레포츠",,[]
,대영베이스CC,충청북도 충주시 대소원면 성종두담길 113,,36.9469081747,127.839157965,2769524,"레포츠,레포츠",,[]
,대영힐스CC,충청북도 충주시 대소원면 성종두담길 114,,36.9504579596,127.8497069165,2769551,"레포츠,레포츠",,[]
,대왕암공원오토캠핑장,울산광역시 동구 등대로 80-61,,35.4881260102,129.4391689141,2728918,"레포츠,레포츠",,[]
,대운산 자연휴양림,경상남도 양산시 탑골길 209,,35.4182349735,129.2027081483,2743856,"레포츠,레포츠",,[]
,대원사계곡길,경상남도 산청군 삼장면 대원사길 588,,35.3626601487,127.7970217271,2795891,"레포츠,레포츠",,[]
,대유랜드,제주특별자치도 서귀포시 상예로 381,,33.27764454,126.3950726325,131784,"레포츠,레포츠",,[]
,대율저수지,전북특별자치도 김제시 금구면 대화리,,35.7887124369,127.033169895,131479,"레포츠,레포츠",,[]
,대장경오토캠핑장,경상남도 합천군 가야면 가야산로 1199,,35.7666954485,128.1320174986,2747528,"레포츠,레포츠",,[]
,대저캠핑장,부산광역시 강서구 체육공원로6번길 184,,35.2074545784,128.9847746284,2729157,"레포츠,레포츠",,[]
,대전 한화생명 볼파크,대전광역시 중구 대종로 373,,36.3162759121,127.4315370174,2766990,"레포츠,레포츠",,[]
,대전광역시시설관리공단 한밭수영장(실내),대전광역시 중구 대종로 373,,36.3162759121,127.4315370174,131586,"레포츠,레포츠",,[]
,대전근로자종합복지회관,대전광역시 대덕구 대화로 10,,36.3683308474,127.418997836,131149,"레포츠,레포츠",,[]
,대전드림아레나,대전광역시 유성구 대덕대로 480 (도룡동),,36.3759931713,127.3802705364,3377139,"레포츠,레포츠",,[]
,대전엑스포시민광장스케이트장,대전광역시 서구 둔산대로 169 한밭수목원,,36.3659250159,127.3879840082,3008960,"레포츠,레포츠",,[]
,대전월드컵경기장,대전광역시 유성구 월드컵대로 32,,36.3651962068,127.3251146529,131720,"레포츠,레포츠",,[]
,대천 국가대표 패러글라이딩,충청남도 보령시 남포면 창동1길 119-9,,36.3198945284,126.6125936578,1825915,"레포츠,레포츠",,[]
,대천 짚트랙,충청남도 보령시 해수욕장10길 80,,36.3209537055,126.5067170399,2615569,"레포츠,레포츠",,[]
,대천오토캠핑장,충청남도 보령시 주교면 문화마을길 178-58,,36.369913433,126.5917553312,2747534,"레포츠,레포츠",,[]
,대천항 아인스월드,충청남도 보령시 대천항중앙길 2 (신흑동),,36.3271642376,126.5145217314,3083600,"레포츠,레포츠",,[]
,대천해수욕장 스카이바이크,충청남도 보령시 해수욕장10길 75,,36.3206259636,126.5066115021,2750944,"레포츠,레포츠",,[]
,대천해수욕장캠핑장,충청남도 보령시 신흑동,,36.3037447578,126.5178109351,2734212,"레포츠,레포츠",,[]
,대청호,충청북도 청주시 상당구 문의면 대청호반로 206,,36.4796664905,127.4843917225,131040,"레포츠,레포츠",,[]
,대청호오백리길,대전광역시 동구 천개동로 34,,36.3739061524,127.4719596145,1907688,"레포츠,레포츠",,[]
,대충캠핑장,경상남도 고성군 대가면 유흥갈천길 240,,35.0240514419,128.2906567817,2728903,"레포츠,레포츠",,[]
,대풍바위 오토캠핑장,경상남도 통영시 욕지면 욕지일주로 301,,34.6416355242,128.2699602388,2747548,"레포츠,레포츠",,[]
,대현캠핑장,충청북도 제천시 봉양읍 명암로 692,,37.1947160505,128.1551224236,2757154,"레포츠,레포츠",,[]
,대호단양CC,충청북도 단양군 매포읍 고양5길 43,,37.0911108389,128.2782560572,2769886,"레포츠,레포츠",,[]
,대호레져글램핑,충청북도 충주시 동량면 미라실로 691,,37.0090632287,128.0490623363,2747567,"레포츠,레포츠",,[]
,대황강 자연휴식체험장 야영장,전라남도 곡성군 석곡면 주석로 620-40,,35.1250191954,127.2550950622,2791884,"레포츠,레포츠",,[]
,대회산캠핑장,경기도 포천시 영북면 대회산길 79-89,,38.0675533925,127.2396716047,2728924,"레포츠,레포츠",,[]
,더 초리골,경기도 파주시 법원읍 초리골길 284-16,,37.8579743875,126.8960619206,2756057,"레포츠,레포츠",,[]
,더 카트 인 통영,경상남도 통영시 도산면 도산일주로 147,,34.898124973,128.351704767,2679663,"레포츠,레포츠",,[]
,더드림핑 야영장,경기도 남양주시 화도읍 북한강로 1630-18,,37.652740207,127.3699051351,2744456,"레포츠,레포츠",,[]
,더모스트글램핑,경상북도 문경시 문경대로 2259-9,,36.7315431822,128.0959383062,2909483,"레포츠,레포츠",,[]
,더무빙카라반,부산광역시 기장군 장안읍 해맞이로 290,,35.322705286,129.2701438223,2747589,"레포츠,레포츠",,[]
,더반 힐 글램핑,충청남도 보령시 오천면 오천해안로 555,,36.4247861875,126.5041645549,2747602,"레포츠,레포츠",,[]
,더반GC,경기도 이천시 대월면 대월로 627-141,,37.2100020376,127.4907790914,2763728,"레포츠,레포츠",,[]
,더베이101요트투어,부산광역시 해운대구 동백로 52 (우동),,35.1566216976,129.152097571,3076754,"레포츠,레포츠",,[]
,더불어사는터,강원특별자치도 영월군 무릉도원면 두산길 199-8,,37.3104391681,128.1737895766,2757602,"레포츠,레포츠",,[]
,더설렘글램핑,경기도 포천시 일동면 윗갈기1길 60,,37.9666610691,127.3190617446,2908435,"레포츠,레포츠",,[]
,더세븐글램핑카라반,경기도 포천시 이동면 화동로 2496-22,,38.0652703099,127.389724604,2734112,"레포츠,레포츠",,[]
,더숲관광농원캠핑장,인천광역시 강화군 길상면 보리고개로 187-5,,37.6275411986,126.487228066,2755743,"레포츠,레포츠",,[]
,더숲캠핑장,경상북도 경주시 내남면 내외로 731-107,,35.709028273,129.2566285991,2734213,"레포츠,레포츠",,[]
,더스타오토캠핑장,전라남도 여수시 돌산읍 상하동길 268,,34.7182045333,127.7818619437,2732467,"레포츠,레포츠",,[]
,더시크릿가든 캠프지라운드,강원특별자치도 춘천시 남산면 방하로 297,,37.7693827914,127.552904532,2761798,"레포츠,레포츠",,[]
,더시크릿수상레저,경기도 남양주시 화도읍 경춘로 2630,,37.6672830404,127.3741987684,2765247,"레포츠,레포츠",,[]
,더쎈패러글라이딩,충청북도 단양군 가곡면 두산길 262,,37.00240111,128.4006504571,3104431,"레포츠,레포츠",,[]
,더예감스테이,경상남도 산청군 호암로 702-22,,35.3213083533,127.9031301426,2909580,"레포츠,레포츠",,[]
,더오창호,충청북도 청주시 청원구 화복로 780-106,,36.7516895957,127.4151598804,2907845,"레포츠,레포츠",,[]
,더존카라반글램핑,경기도 포천시 이동면 화동로2076번길 125,,38.0328044825,127.3804125251,2913103,"레포츠,레포츠",,[]
,더좋은 펜션 캠핑장,강원특별자치도 영월군 무릉도원면 엄둔길 180,,37.3117401291,128.2329619893,2757604,"레포츠,레포츠",,[]
,더캠프,울산광역시 울주군 상북면 삽재로 420,,35.6352604761,129.0494071427,2747614,"레포츠,레포츠",,[]
,더크로스비GC,경기도 이천시 호법면 중부대로798번길 177,,37.2339644877,127.4111106133,2763719,"레포츠,레포츠",,[]
,더클라임 클라이밍 마곡점,서울특별시 강서구 마곡동로 62 (마곡동),,37.5606079049,126.8339038169,3076152,"레포츠,레포츠",,[]
,더클라임 클라이밍 양재점,"서울특별시 강남구 남부순환로 2615 (도곡동, 극동스타클래스)",,37.4852341646,127.0358930949,2753381,"레포츠,레포츠",,[]
,더클라임 클라이밍 홍대B점,서울특별시 마포구 양화로 125 (서교동),,37.5548017901,126.9203238777,3082411,"레포츠,레포츠",,[]
,더파크12 글램핑카라반,강원특별자치도 홍천군 서면 밤벌길2번길 35,,37.6947701467,127.6020605795,3484525,"레포츠,레포츠",,[]
,더포레스트 캠핑장,경기도 양평군 지평면 일신리길 134-23,,37.4404734698,127.689596158,2743819,"레포츠,레포츠",,[]
,더하루야영장,전북특별자치도 무주군 무풍면 구천동로 543,,35.9014660746,127.811786623,2747629,"레포츠,레포츠",,[]
,더하루캠핑파크,경상남도 창원시 마산합포구 진전면 일암1길 74,,35.125263882,128.3785797499,2728926,"레포츠,레포츠",,[]
,더헤븐cc,경기도 안산시 단원구 대선로 466 (대부남동),,37.2290749906,126.5654902448,2773729,"레포츠,레포츠",,[]
,더휴글램핑,경기도 양평군 옥천면 옥천체육공원길 4,,37.5230569354,127.4615505518,2757166,"레포츠,레포츠",,[]
,덕구계곡 트레킹,경상북도 울진군 북면 덕구온천로 905,,37.078564792,129.281752875,802388,"레포츠,레포츠",,[]
,덕동계곡 초록꿈체험마을 오토캠핑장,충청북도 제천시 구학산로 690,,37.1868333813,127.9928400298,2907912,"레포츠,레포츠",,[]
,덕동골캠핑장,충청북도 제천시 백운면 덕동로2길 23-26,,37.2172597616,127.9569229378,2381740,"레포츠,레포츠",,[]
,덕동산마루오토캠핑장,충청북도 제천시 백운면 덕동로 161-3,,37.1975347481,127.9833127995,2733008,"레포츠,레포츠",,[]
,덕동산상낙원캠핑장,충청북도 제천시 백운면 덕동로 609-90,,37.2132544207,127.9435575903,2728932,"레포츠,레포츠",,[]
,덕동자동차야영장,전북특별자치도 남원시 산내면 지리산로 593,,35.3658057802,127.568439015,2664801,"레포츠,레포츠",,[]
,덕바위 사계절 썰매장,충청남도 논산시 연산면 선비로604번길 46,,36.2385554367,127.1846084094,2758867,"레포츠,레포츠",,[]
,덕봉낚시터,경기도 안성시 양성면 덕봉서원로 601-76,,37.0532674595,127.1883386132,2758020,"레포츠,레포츠",,[]
,덕봉산 해안생태탐방로,강원특별자치도 삼척시 근덕면 덕산리,,37.3881145258,129.2387028096,2720434,"레포츠,레포츠",,[]
,덕산국민여가캠핑장,인천광역시 강화군 내가면 강화서로227번길 91,,37.7175371673,126.3805742237,2522131,"레포츠,레포츠",,[]
,덕산참숯랜드,충청남도 예산군 덕산면 노곡길 55,,36.6747793627,126.6482116169,2792127,"레포츠,레포츠",,[]
,덕산해변바다정원캠핑장,강원특별자치도 삼척시 근덕면 덕산해변길 82,,37.3857898122,129.2396416859,2729109,"레포츠,레포츠",,[]
,덕삼지,충청남도 당진시 정미면 덕삼리,,36.8388528113,126.5280208734,131296,"레포츠,레포츠",,[]
,덕송지 수상 풍차 낚시터,충청남도 서산시 팔봉면 한재무두리1길 5-24,,36.8331529964,126.3393742292,2758366,"레포츠,레포츠",,[]
,덕우저수지,경기도 화성시 봉담읍 유리,,37.1711519599,126.9272145357,131032,"레포츠,레포츠",,[]
,덕유대3야영장,전북특별자치도 무주군 설천면 백련사길 2,,35.8970964864,127.775948252,3341359,"레포츠,레포츠",,[]
,덕유대오토캠핑장,전북특별자치도 무주군 설천면 백련사길 2,,35.8900750128,127.7732125726,2734227,"레포츠,레포츠",,[]
,덕유캠프농장,전북특별자치도 무주군 설천면 구천동로 1262-4,,35.9247458285,127.7594850775,2729290,"레포츠,레포츠",,[]
,덕진수영장,전북특별자치도 전주시 덕진구 들사평로 50 (덕진동1가),,35.8403914885,127.1255658775,3066619,"레포츠,레포츠",,[]
,덕풍계곡 트레킹,강원특별자치도 삼척시 가곡면 풍곡리,,37.1234072063,129.1560321578,789377,"레포츠,레포츠",,[]
,덕풍계곡캠핑장,강원특별자치도 삼척시 가곡면 덕풍길 44,,37.1224518086,129.1585152983,2753150,"레포츠,레포츠",,[]
,덤바위캠핑장,충청북도 진천군 문백면 농다리로 615,,36.7999963588,127.4822275101,2729300,"레포츠,레포츠",,[]
,데일리랜드 오토캠핑장,강원특별자치도 춘천시 동산면 윗성골길 36,,37.7585394903,127.84567546,2759574,"레포츠,레포츠",,[]
,델피노 CC (대명 델피노),강원특별자치도 고성군 토성면 미시령옛길 1153,,38.207524686,128.4973942731,131517,"레포츠,레포츠",,[]
,도고CC,충청남도 아산시 선장면 삼봉산길 188,,36.7777495055,126.8903564323,2769768,"레포츠,레포츠",,[]
,도고온천모두캠핑장,충청남도 아산시 도고면 도고온천로 207-20,,36.7660895564,126.8800354577,2729306,"레포츠,레포츠",,[]
,도농한강공원물놀이장,경기도 남양주시 다산동,,37.6096523057,127.1489153797,3012120,"레포츠,레포츠",,[]
,도담삼봉 모터보트,충청북도 단양군 매포읍 삼봉로 644-13,,37.000814077,128.3418057718,2022070,"레포츠,레포츠",,[]
,도덕산캠핑장,경기도 광명시 밤일안로42번길 69 (하안동),,37.4596478905,126.8606431028,2729250,"레포츠,레포츠",,[]
,도둑골캠핑장,경상남도 하동군 옥종면 호계천로 224,,35.1969604835,127.8596233408,2734231,"레포츠,레포츠",,[]
,도란도란,전북특별자치도 전주시 완산구 간납로 13,,35.8170252309,127.1560026687,2733014,"레포츠,레포츠",,[]
,도래재별빛마을캠핑장,경상남도 밀양시 단장면 도래재로 578-10,,35.5611918217,128.9420908249,2745717,"레포츠,레포츠",,[]
,도레미캠핑장,충청북도 괴산군 불정면 관동로세평4길 24,,36.8574153385,127.8202094301,2729313,"레포츠,레포츠",,[]
,도리돌캠핑장,경기도 포천시 이동면 화동로 2464-1,,38.0613929275,127.3866138922,2745721,"레포츠,레포츠",,[]
,도리수상레저,경기도 여주시 점동면 도리,,37.2283511106,127.7080200588,2781732,"레포츠,레포츠",,[]
,도림사오토캠핑리조트,전라남도 곡성군 곡성읍 도림로 74,,35.2621428145,127.2668710843,2729316,"레포츠,레포츠",,[]
,도마치캠핑장,경기도 포천시 이동면 화동로 2318-6,,38.0499886249,127.3824062801,2729323,"레포츠,레포츠",,[]
,도명산캠핑장,충청북도 괴산군 청천면 고성4길 4-2,,36.6600734443,127.7841821067,2792229,"레포츠,레포츠",,[]
,도사곡자연휴양림야영장,강원특별자치도 정선군 사북읍 지장천로 436-27,,37.2267328283,128.7956223479,2762785,"레포츠,레포츠",,[]
,도원야영장,전라남도 화순군 이서면 도원길 80-30,,35.1110641014,127.0269877618,2792260,"레포츠,레포츠",,[]
,도원패밀리캠핑장,강원특별자치도 영월군 무릉도원면 엄둔길 390,,37.3277965949,128.2321671431,2757612,"레포츠,레포츠",,[]
,도토리캠프,경상남도 진주시 명석면 광제산로 737,,35.276593577,128.0388777259,2745723,"레포츠,레포츠",,[]
,도화지오토캠핑장,경상북도 경산시 와촌면 대한길 45-18,,35.9698538999,128.7872596477,2745726,"레포츠,레포츠",,[]
,독도바다낚시터,경기도 안산시 단원구 대부북동 642-171,,37.2390405255,126.5668565146,2761272,"레포츠,레포츠",,[]
,독립기념관 캠핑장,충청남도 천안시 동남구 독립기념관로 1 독립기념관,,36.7773972648,127.2326089252,131464,"레포츠,레포츠",,[]
,독정낚시터,경기도 안성시 원곡면 원당로 108,,37.0396518649,127.1603970735,2758019,"레포츠,레포츠",,[]
,돈내미농장,경기도 동두천시 천보산로456번길 49-1 (탑동동),,37.8749013052,127.1112695227,2792564,"레포츠,레포츠",,[]
,돌개마실 캠핑장,전북특별자치도 부안군 진서면 구룡댐길 65,,35.6079809518,126.5877864175,2745728,"레포츠,레포츠",,[]
,돌고래수상리조트,경기도 가평군 설악면 유명로 2418,,37.7138566557,127.4424078757,2781458,"레포츠,레포츠",,[]
,돌고래하우스카라반,제주특별자치도 서귀포시 이어도로 826-58,,33.2327483647,126.4994784697,2753163,"레포츠,레포츠",,[]
,돌담캠핑가든,인천광역시 강화군 삼산북로 397-1,,37.7012575941,126.3282433636,2908228,"레포츠,레포츠",,[]
,돌담캠핑장글램핑,경상남도 창원시 마산합포구 진동면 입곡길 326,,35.1359873912,128.5169145966,2729333,"레포츠,레포츠",,[]
,돌머리오토캠핑장,전라남도 함평군 함평읍 주포로 600-29,,35.0864265028,126.4403874834,2747018,"레포츠,레포츠",,[]
,돌배야영장(제1야영장),강원특별자치도 인제군 북면 만해로 163-15,,38.1919814197,128.3207913737,2761810,"레포츠,레포츠",,[]
,돌배야영장(제2야영장),강원특별자치도 인제군 북면 만해로 149,,38.1901704865,128.3190804743,2761818,"레포츠,레포츠",,[]
,돌산캠핑장,경기도 파주시 광탄면 산수골길 151-68,,37.810695596,126.8419487791,2734233,"레포츠,레포츠",,[]
,돌집야영장,강원특별자치도 화천군 간동면 춘양로 777-9,,38.0226885787,127.8059045345,2755664,"레포츠,레포츠",,[]
,돌풀마루,전라남도 구례군 산동면 산수유꽃길로 117,,35.3286195113,127.4777618694,2748025,"레포츠,레포츠",,[]
,돌하르방캠핑장,제주특별자치도 제주시 한경면 낙수로 271-40,,33.3238814232,126.2389573829,2729335,"레포츠,레포츠",,[]
,돔아일랜드,전라남도 화순군 학포로 2653-20 황칠나라,,35.046261969,126.9615618269,2909076,"레포츠,레포츠",,[]
,동강 래프팅(영월),강원특별자치도 영월군 영월읍 제방안길,,37.1959002553,128.5038327432,131774,"레포츠,레포츠",,[]
,동강 래프팅(정선),강원특별자치도 정선군 정선읍,,37.3032764016,128.6298487995,131778,"레포츠,레포츠",,[]
,동강 래프팅(평창),강원특별자치도 평창군 미탄면 마하리,,37.2858854076,128.560061137,2605318,"레포츠,레포츠",,[]
,동강드림래프팅,강원특별자치도 영월군 영월읍 어라연길 48,,37.2346793779,128.5171803963,131941,"레포츠,레포츠",,[]
,동강또랑마을/동강마을,경상남도 함양군 휴천면 동강리,,35.4289410166,127.7665198931,2787143,"레포츠,레포츠",,[]
,동강레포츠,강원특별자치도 평창군 미탄면 마하길 41-5,,37.2917010437,128.5410987766,2394618,"레포츠,레포츠",,[]
,동강빌리지카라반,강원특별자치도 영월군 영월읍 동강로 223,,37.2001665022,128.5075767259,2744434,"레포츠,레포츠",,[]
,동강시스타CC,강원특별자치도 영월군 영월읍 사지막길 160,,37.2183923754,128.5177752708,2702454,"레포츠,레포츠",,[]
,동강아름캠프,강원특별자치도 영월군 김삿갓면 영월동로 2435,,37.1152815843,128.6414894677,2757619,"레포츠,레포츠",,[]
,동강전망휴양림오토캠핑장,강원특별자치도 정선군 신동읍 동강로 916-212,,37.2597337758,128.6079603967,2744482,"레포츠,레포츠",,[]
,동검도노을캠핑장,인천광역시 강화군 길상면 동검길 159-13,,37.5874657045,126.5096271305,2757627,"레포츠,레포츠",,[]
,동검레저바다낚시,인천광역시 강화군 길상면 동검길65번길 93-6,,37.5862743699,126.5206206021,2768071,"레포츠,레포츠",,[]
,동교낚시터,경기도 포천시 원동교길 259 (동교동),,37.8505210139,127.1222719991,2756079,"레포츠,레포츠",,[]
,동구청소년자연수련원,대전광역시 동구 산내로474번길 123,,36.2233118636,127.4500434378,131449,"레포츠,레포츠",,[]
,동그라미캠핑장,강원특별자치도 횡성군 안흥면 실미송한길 367-24,,37.4391848467,128.1436496105,2755708,"레포츠,레포츠",,[]
,동당미펜션 야영장,강원특별자치도 횡성군 서원면 압곡로 195,,37.4753286897,127.8892965195,2755713,"레포츠,레포츠",,[]
,동래 베네스트 골프클럽,부산광역시 금정구 하정로 66 (선동),,35.2649113679,129.099457506,2736435,"레포츠,레포츠",,[]
,동래아이스링크,부산광역시 동래구 충렬대로 420 (안락동),,35.1962858084,129.1039423369,3061018,"레포츠,레포츠",,[]
,동막골캠핑장,강원특별자치도 삼척시 근덕면 내평길 223-1,,37.3242606675,129.2341607328,2753184,"레포츠,레포츠",,[]
,동명 방파제,강원특별자치도 속초시 영금정로 46,,38.2114873475,128.6009597378,2702210,"레포츠,레포츠",,[]
,동물카라반,경기도 가평군 상면 임초밤안골로 313,,37.7470123919,127.3595477907,2747024,"레포츠,레포츠",,[]
,동산계곡펜션,대구광역시 군위군 부계면 원효길 129-9,,36.0465290598,128.6657182027,2757656,"레포츠,레포츠",,[]
,동산오토캠핑장,대구광역시 군위군 원효길 40,,36.048523137,128.6581160396,2909725,"레포츠,레포츠",,[]
,동상힐링캠핑장,전북특별자치도 완주군 동상면 동상주천로 160-25,,35.9600560344,127.3072965449,2757666,"레포츠,레포츠",,[]
,동서울레스피아 골프장,강원특별자치도 원주시 지정면 신평석화로 236,,37.4007621316,127.8793829286,131577,"레포츠,레포츠",,[]
,동서울승마클럽,경기도 남양주시 와부읍 월문천로 280-7,,37.5989052476,127.2423210725,3085278,"레포츠,레포츠",,[]
,동창선아트스테이,경상남도 남해군 연곡로 13 동창선초등학교,,34.8694810083,128.0409354206,2909325,"레포츠,레포츠",,[]
,동천 야외물놀이장,울산광역시 중구 남외동 964,,35.5737339542,129.3394835214,2502579,"레포츠,레포츠",,[]
,동천재활체육센터,서울특별시 노원구 노원로18길 41,,37.6442385976,127.0739601103,3006882,"레포츠,레포츠",,[]
,동촌GC,충청북도 충주시 노은면 감노로 1327,,37.0568271219,127.7446716631,2769559,"레포츠,레포츠",,[]
,동해 논골담길(등대 담화마을),강원특별자치도 동해시 일출로 97,,37.5522210485,129.1183390829,1223212,"레포츠,레포츠",,[]
,동해 웰빙레포츠타운,강원특별자치도 동해시 덕골길 10,,37.5169914597,129.1021555093,2702453,"레포츠,레포츠",,[]
,동해 주노글램핑장,강원특별자치도 동해시 쉬눔길 80,,37.4719809902,129.1538855941,2746937,"레포츠,레포츠",,[]
,동호방파제,경상남도 통영시 정량동,,34.8421717211,128.4412706549,131277,"레포츠,레포츠",,[]
,동화힐링캠프 글램핑,경기도 파주시 파평면 두포리,,37.892386054,126.8412520662,3033376,"레포츠,레포츠",,[]
,돼지문화원카라반,강원특별자치도 원주시 지정면 송정로 130,,37.3915991041,127.8687369354,2763360,"레포츠,레포츠",,[]
,두곡해수욕장야영장,경상남도 남해군 남면 당항리,,34.7686371944,127.9080190773,2747027,"레포츠,레포츠",,[]
,두레캠핑장,경기도 가평군 청평면 상지로 171,,37.7687257851,127.4700787576,2744437,"레포츠,레포츠",,[]
,두루웰캠핑장,강원특별자치도 철원군 갈말읍 지경리,,38.2270368398,127.352853743,2908935,"레포츠,레포츠",,[]
,두류공원인라인스케이트장,대구광역시 달서구 성당동,,35.8450388632,128.5620913067,3015800,"레포츠,레포츠",,[]
,두류수영장,대구광역시 달서구 공원순환로 237,,35.8470136317,128.5616524012,131587,"레포츠,레포츠",,[]
,두리캠핑장,경기도 여주시 흥천면 이여로 778-10,,37.3543911948,127.5070596079,2734245,"레포츠,레포츠",,[]
,두메낚시터,경기도 안성시 죽산면 두메호수로 90,,37.0094684945,127.4283959434,2753982,"레포츠,레포츠",,[]
,두모마을야영장,경상남도 남해군 상주면 양아로533번길 18,,34.7339780123,127.9553741638,2747033,"레포츠,레포츠",,[]
,두미리관광농원,강원특별자치도 홍천군 서면 개야로 304-229,,37.677034071,127.6428101742,2791690,"레포츠,레포츠",,[]
,두밀숲캠핑장,경기도 가평군 가평읍 태봉두밀로 655-9,,37.808278833,127.4328809909,2750799,"레포츠,레포츠",,[]
,두밀촌낚시터,인천광역시 서구 두밀로 91,,37.6293692003,126.6692613652,2770372,"레포츠,레포츠",,[]
,두바퀴로 가는 자동차,경상북도 경주시 산내면 외칠일부길 278-182,,35.7541961566,129.0008525031,2757995,"레포츠,레포츠",,[]
,두산분교 캠핑장,강원특별자치도 영월군 무릉도원면 두산길 237-4,,37.3083088077,128.1710898819,2757688,"레포츠,레포츠",,[]
,두산오토캠핑장,강원특별자치도 영월군 무릉도원면 새막골길 165-13,,37.3178908554,128.1615154621,2757679,"레포츠,레포츠",,[]
,두창낚시터,경기도 용인시 처인구 원삼면 두창호수로 105,,37.14890904,127.334417175,2746354,"레포츠,레포츠",,[]
,둔내캠프,강원특별자치도 횡성군 둔내면 용현로 429,,37.5354702622,128.2551728007,2755714,"레포츠,레포츠",,[]
,둘레길캠핑장,충청남도 태안군 이원면 꾸지나무길 37-76,,36.9320824561,126.2942062523,2729338,"레포츠,레포츠",,[]
,둥그레휴양마을,충청북도 보은군 동학로 21-6 사무소,,36.4998244459,127.7461788614,2907993,"레포츠,레포츠",,[]
,둥지캠핑장,경기도 가평군 설악면 묵안로 976-62,,37.6011769317,127.5313780623,2732969,"레포츠,레포츠",,[]
,둥지캠핑장,충청북도 보은군 회인내북로 874 주택,,36.566362293,127.6489968199,2907979,"레포츠,레포츠",,[]
,둥지캠핑장,강원특별자치도 화천군 돈내미길 183-39,,38.070875465,127.5533178137,2909495,"레포츠,레포츠",,[]
,둥지펜션캠핑장,경상북도 청도군 운문면 운문로 1212,,35.6736856364,128.9923888376,2734254,"레포츠,레포츠",,[]
,드래곤 오토캠핑장,충청북도 제천시 백운면 덕동로 205-4,,37.2012731393,127.9796769073,3033910,"레포츠,레포츠",,[]
,드론스포츠코리아,전라남도 고흥군 돈청길 25-17 금산종합고등학교,,34.4664715786,127.1298891363,2907931,"레포츠,레포츠",,[]
,드림바다실내낚시터,경기도 김포시 풍무로9번길 26 (풍무동),,37.5976182411,126.7200826114,2770823,"레포츠,레포츠",,[]
,드림서프라운지,부산광역시 수영구 남천동로 108번길 40,,35.1466582055,129.1132817753,3112126,"레포츠,레포츠",,[]
,드림월드프로샵,강원특별자치도 횡성군 둔내면 고원로 397,,37.4982437048,128.2390059239,514175,"레포츠,레포츠",,[]
,드림카약투어,경상남도 남해군 미조면 미송로303번길 48-1,,34.7075572062,128.0261964403,2782810,"레포츠,레포츠",,[]
,드림캠핑장,전라남도 보성군 득량면 공룡로 751,,34.7030766173,127.1883587419,2729340,"레포츠,레포츠",,[]
,드림파크CC,인천광역시 서구 거월로 61,,37.5732892425,126.6481593065,2768223,"레포츠,레포츠",,[]
,드림피플엔터,광주광역시 남구 천변좌로338번길 16 (구동),,35.1486189729,126.9088194808,3441600,"레포츠,레포츠",,[]
,드림하이원스키샵,강원특별자치도 정선군 고한읍 물한리길 52,,37.2101716627,128.8383023595,506828,"레포츠,레포츠",,[]
,드비치골프클럽,경상남도 거제시 장목면 거제북로 1573,,35.0176424489,128.6774370941,2755481,"레포츠,레포츠",,[]
,드위트리글램핑,강원특별자치도 정선군 남면 지장천로 146-47,,37.2353538004,128.782153851,2744535,"레포츠,레포츠",,[]
,득량만바다낚시공원,전라남도 보성군 득량면 선소당산길 36-13,,34.6949525235,127.1880311942,2782566,"레포츠,레포츠",,[]
,든해솔계곡캠핑장,경상남도 산청군 신등면 정곡척지로475번길 142-12,,35.4028224515,127.9634504599,2734261,"레포츠,레포츠",,[]
,들꽃피는언덕 캠핑장,경기도 양주시 백석읍 권율로 870,,37.7761850732,126.9599861905,2738778,"레포츠,레포츠",,[]
,들살이오토캠핑장,울산광역시 울주군 상북면 배내로 1064-4,,35.5347321882,129.0108188811,2729342,"레포츠,레포츠",,[]
,들소리캠핑장,전라남도 영암군 신북면 들소리로 384-14,,34.9285205024,126.6789452471,2729344,"레포츠,레포츠",,[]
,들음카라반캠핑장,전라남도 장성군 북하면 가인길 59-9,,35.4350249176,126.8766623316,2747041,"레포츠,레포츠",,[]
,등대바다낚시터,경기도 안산시 단원구 금당구지길 91 (대부남동),,37.230383613,126.5906962493,2761434,"레포츠,레포츠",,[]
,등억알프스야영장,울산광역시 울주군 상북면 알프스온천로 43,,35.5533176437,129.087897735,2734311,"레포츠,레포츠",,[]
,디-포레 카라반 파크,제주특별자치도 제주시 구좌읍 송당6길 78-1,,33.464846672,126.7811876771,2762837,"레포츠,레포츠",,[]
,디데이펜션,강원특별자치도 홍천군 서면 안굴업길 39-9,,37.6172943874,127.6755617265,2744436,"레포츠,레포츠",,[]
,디스커버리 클라이밍스퀘어ICN,인천광역시 서구 완정로 70,,37.598064476,126.6673290848,2779988,"레포츠,레포츠",,[]
,디투어스캠프클럽,충청북도 제천시 청풍면 청풍명월로 246,,37.0104483667,128.1548361388,2747043,"레포츠,레포츠",,[]
,디파트글램핑장,경기도 양평군 화서로246번길 13-9,,37.6403838742,127.4008054594,2998725,"레포츠,레포츠",,[]
,딥스테이션,경기도 용인시 처인구 포곡읍 성산로 523,,37.2806636007,127.199725656,3433028,"레포츠,레포츠",,[]
,따봉캠핑장,경기도 파주시 파주읍 통일로 1604-26,,37.8520620663,126.7902190045,2792097,"레포츠,레포츠",,[]
,딱따구리청소년수련원,경기도 양주시 광적면 현석로 313-44,,37.8327698118,126.9415029278,131339,"레포츠,레포츠",,[]
,땅끝바다낚시터&글램핑,전라남도 해남군 송지면 갈산길 95,,34.305262807,126.516080141,2747044,"레포츠,레포츠",,[]
,땅끝오토캠핑리조트,전라남도 해남군 송지면 갈산길 25-5,,34.3097651449,126.5200158003,1820336,"레포츠,레포츠",,[]
,땅끝오토캠핑장,전라남도 해남군 송지면 갈산길 25-15,,34.3095263004,126.5210796014,2745698,"레포츠,레포츠",,[]
,땅끝황토펜션오토캠핑장,경상북도 포항시 남구 구룡포읍 땅끝마을길 72,,36.0196327583,129.5820578574,2727454,"레포츠,레포츠",,[]
,땅에미소캠핑장,경기도 연천군 청산면 거저울길 339,,38.0558769565,127.0865304222,2734677,"레포츠,레포츠",,[]
,땡땡이글램핑,전라남도 장흥군 천관산문학길 30,,34.504471941,126.9072410549,2909098,"레포츠,레포츠",,[]
,또바기 애견 글램핑 펜션,경기도 가평군 북면 멱골로 205-10,,37.908566971,127.5730930423,2909693,"레포츠,레포츠",,[]
,또올래캠프,경기도 가평군 북면 가화로 2745-70,,37.9745819607,127.4477664188,2732992,"레포츠,레포츠",,[]
,뚜뚜키즈풀빌라&글램핑,경기도 가평군 가평읍 태봉두밀로406번길 14-27,,37.8185114352,127.4578506383,2745701,"레포츠,레포츠",,[]
,뚝섬 윈드서핑장,서울특별시 광진구 강변북로 2326 (자양동),,37.5270995313,127.0794573887,2743751,"레포츠,레포츠",,[]
,뜨란솔 캠핑장,강원특별자치도 영월군 무릉도원면 무릉법흥로 782-26,,37.3318914025,128.2765658039,2757671,"레포츠,레포츠",,[]
,라라솔캠핑장,강원특별자치도 횡성군 서원면 경강로 646-30,,37.5233699459,127.8675248589,2755715,"레포츠,레포츠",,[]
,라라캠핑장,경상남도 양산시 원동로 1899-30,,35.3964267006,128.9245135864,2909640,"레포츠,레포츠",,[]
,라라캠핑장,경상북도 경주시 서왕길 381-14,,35.687766642,129.3963642113,2910116,"레포츠,레포츠",,[]
,라라플레이스,강원특별자치도 양양군 하조대2길 48-69,,38.0237365004,128.7204075401,2908194,"레포츠,레포츠",,[]
,라마다 짚트랙,전라남도 여수시 강남로 11,,34.7170457484,127.74829824,2994563,"레포츠,레포츠",,[]
,라무키즈글램핑,경기도 가평군 북면 가화로 2372-42,,37.9545070844,127.4781614576,2726664,"레포츠,레포츠",,[]
,라비돌 컨트리클럽(퍼블릭골프장),경기도 화성시 정남면 세자로 286,,37.1871455658,126.9841755929,131417,"레포츠,레포츠",,[]
,라싸CC,경기도 포천시 이동면 제비울2길 161,,37.9977475427,127.3848575956,2751297,"레포츠,레포츠",,[]
,라온골프클럽,제주특별자치도 제주시 한경면 용금로 998,,33.3394969174,126.2742984087,989025,"레포츠,레포츠",,[]
,라온글램핑,전라남도 장성군 북하면 병풍로 963-14,,35.3336584072,126.8640465702,2727285,"레포츠,레포츠",,[]
,라온레포츠,경상남도 합천군 용주면 합천호수로 828-5,,35.5468943839,128.0803557687,1920958,"레포츠,레포츠",,[]
,라온야영장,전라남도 담양군 용면 금성산성길 548,,35.3761225071,126.9958393718,2745702,"레포츠,레포츠",,[]
,라온힐캠핑장,경기도 가평군 상면 수목원로 224,,37.7586082949,127.3611306432,2909713,"레포츠,레포츠",,[]
,라파엘펜션글램핑장,경상남도 고성군 회화면 당항만로 945,,35.0468283151,128.3829258966,2745704,"레포츠,레포츠",,[]
,라포레캠핑장,충청남도 아산시 음봉면 음봉면로 87,,36.8550372247,127.0140903813,2727332,"레포츠,레포츠",,[]
,라플란드,강원특별자치도 평창군 봉평면 흥정계곡4길 71-70,,37.6473973114,128.313822488,2909129,"레포츠,레포츠",,[]
,락가든GC,경기도 포천시 일동면 화동로 738,,37.9315844536,127.3109218488,2751453,"레포츠,레포츠",,[]
,락인뜰,인천광역시 중구 늘목로 38,,37.4542097734,126.3958189907,2733992,"레포츠,레포츠",,[]
,래미안밸리,전북특별자치도 완주군 운주면 금고당로 617,,36.0612312023,127.340646437,2727223,"레포츠,레포츠",,[]
,러브팜캠핑장,강원특별자치도 화천군 사내면 화악산로 938-14,,38.0578099362,127.5325312128,2755668,"레포츠,레포츠",,[]
,러브팩토리펜션캠핑장,강원특별자치도 정선군 남면 광락로 519,,37.3196338042,128.6797049479,2762791,"레포츠,레포츠",,[]
,러빙네이쳐 캠핑장,강원특별자치도 인제군 남면 설악로 1129,,38.0015496678,128.1156769726,2913686,"레포츠,레포츠",,[]
,러빙유카라반캠핑장,충청남도 당진시 고대면 삼선산수목원길 50,,36.9107315928,126.5839194355,2745706,"레포츠,레포츠",,[]
,러쉬 실내 카트장,전북특별자치도 전주시 완산구 전주객사3길 72 (고사동),,35.8203690535,127.142095485,3056500,"레포츠,레포츠",,[]
,럭셔리 안성M글램핑 카라반,경기도 안성시 금광면 연내동길 201-13,,36.9730025383,127.3887644282,2792574,"레포츠,레포츠",,[]
,럭셔리 토리글램핑,경상남도 사천시 토끼로 215,,34.9820003851,127.9647613871,2907695,"레포츠,레포츠",,[]
,레끄레오캠핑장,경상북도 청도군 선암로 387-116,,35.6749113266,128.8876118757,2909128,"레포츠,레포츠",,[]
,레이저태그스포츠 광안점,부산광역시 수영구 광안해변로 269 (민락동),,35.1558823541,129.12306956,3335951,"레포츠,레포츠",,[]
,레이저태그스포츠 오월드점,대전광역시 중구 사정공원로 70 (사정동),,36.2897866276,127.3951104345,3336500,"레포츠,레포츠",,[]
,레이캐슬CC,세종특별자치시 전의면 의당전의로 252,,36.6178815231,127.1907059528,2770237,"레포츠,레포츠",,[]
,레이크문오토캠핑장,경기도 포천시 영중면 호국로3296번길 31-46,,38.0341244405,127.2656868706,2734679,"레포츠,레포츠",,[]
,레이크밸리 승마클럽,경기도 포천시 가산면 우금3길 59,,37.8207095576,127.2177391418,131898,"레포츠,레포츠",,[]
,레인보우 서프,충청남도 태안군 소원면 만리포2길 182,,36.7892353155,126.1455957409,3057111,"레포츠,레포츠",,[]
,레인보우수상레저,경기도 가평군 설악면 유명로 2270,,37.7041495818,127.4495741729,3015799,"레포츠,레포츠",,[]
,레저캠프,경기도 가평군 청평면 고성리 580,,37.7123771343,127.4893480919,2723686,"레포츠,레포츠",,[]
,레저테마파크,경기도 양평군 개군면 신내길7번길 55,,37.4688228545,127.5324762378,3031964,"레포츠,레포츠",,[]
,레전드히어로즈 잠실롯데월드몰점,서울특별시 송파구 올림픽로 300 (신천동),,37.5141653654,127.1040749597,2946635,"레포츠,레포츠",,[]
,레포밸리,강원특별자치도 양양군 양양읍 고노동길 98-50,,38.0544171266,128.6215849823,2927441,"레포츠,레포츠",,[]
,레포츠114,강원특별자치도 철원군 갈말읍 군탄리 707-17,,38.1769472284,127.297421422,131738,"레포츠,레포츠",,[]
,렉스필드 컨트리클럽,경기도 여주시 산북면 광여로 1115,,37.3988874411,127.4313790783,131887,"레포츠,레포츠",,[]
,렛츠고 강화캠핑,인천광역시 강화군 화도면 동녘말길 238-7,,37.6205378261,126.4068661726,2758006,"레포츠,레포츠",,[]
,렛츠런파크 서울,경기도 과천시 경마공원대로 107,,37.4476881606,127.0157237676,2650374,"레포츠,레포츠",,[]
,로뎀하우스,전북특별자치도 완주군 운주면 금고당로 1070-14,,36.0255298926,127.3506826066,2745707,"레포츠,레포츠",,[]
,로라비트,경기도 수원시 영통구 덕영대로 1566 (영통동),,37.2451874572,127.0619141469,3057778,"레포츠,레포츠",,[]
,로라비트 일산점,경기도 고양시 일산서구 한류월드로 300 (대화동),,37.6646082788,126.7545414686,3018677,"레포츠,레포츠",,[]
,로얄링스CC,충청남도 태안군 태안읍 기업도시6길 43,,36.7224490956,126.3387438841,2769845,"레포츠,레포츠",,[]
,로얄새들승마클럽,경기도 고양시 일산동구 견달산로 402,,37.6999804147,126.8249034835,1749672,"레포츠,레포츠",,[]
,로얄포레CC,충청북도 충주시 신니면 화치3길 35,,36.9945053046,127.678034989,2769561,"레포츠,레포츠",,[]
,로제비앙CC,경기도 광주시 곤지암읍 오향길 180,,37.377783256,127.3723989167,2750959,"레포츠,레포츠",,[]
,로코코캠핑장,경기도 남양주시 수동면 지둔로 358-4,,37.715076126,127.2998513774,2757979,"레포츠,레포츠",,[]
,로하스캠핑장,전북특별자치도 정읍시 산내면 산호수길 204-70,,35.5339561069,127.0823554438,2727296,"레포츠,레포츠",,[]
,록키스키,강원특별자치도 횡성군 둔내면 고원로 389,,37.4987519689,128.2384254056,513977,"레포츠,레포츠",,[]
,롤러스타 롤러스케이트장,인천광역시 연수구 청학동 496-4 연수광장프라자,,37.4176856233,126.6772304292,3080260,"레포츠,레포츠",,[]
,롤링팝 롤러스케이트장,경기도 하남시 미사강변중앙로170번길 10 (망월동),,37.5614697916,127.1918684014,2782086,"레포츠,레포츠",,[]
,롤퀸롤러장,서울특별시 성북구 동소문로20나길 47 (동선동1가),,37.5931074437,127.0191498961,3060926,"레포츠,레포츠",,[]
,롤킹롤러스케이트장,충청남도 천안시 서북구 한들3로 8 (백석동),,36.824226056,127.1240701938,3036804,"레포츠,레포츠",,[]
,롤파크,서울특별시 종로구 종로 33,,37.5710121125,126.9814539585,2768087,"레포츠,레포츠",,[]
,롯데월드 아이스링크(실내),서울특별시 송파구 올림픽로 240 롯데월드,,37.5123821225,127.0976311526,131297,"레포츠,레포츠",,[]
,롱비치 서프스쿨,강원특별자치도 양양군 현남면 갯마을길 42-20,,37.9486463554,128.7789684675,2500865,"레포츠,레포츠",,[]
,루이힐스CC,경기도 양주시 어하고개로 186-54 (삼숭동),,37.8119947829,127.11319894,2748389,"레포츠,레포츠",,[]
,루지월드-대명비발디파크,강원특별자치도 홍천군 서면 한치골길 262,,37.6523905338,127.6873540732,2774565,"레포츠,레포츠",,[]
,루트7,경상북도 포항시 북구 송라면 동해대로 3166,,36.2464363719,129.3712003034,2727457,"레포츠,레포츠",,[]
,루파니애견캠핑장,충청북도 괴산군 감물면 감물로 362-54,,36.8591717527,127.8781208517,2705357,"레포츠,레포츠",,[]
,룩스글램핑앤팜,경상북도 안동시 도산면 양평길 23-56,,36.7485218754,128.8418268638,2757999,"레포츠,레포츠",,[]
,룰루랄라캠핑장,경상북도 영덕군 창수면 오서로 471,,36.5863138475,129.3415595715,2748001,"레포츠,레포츠",,[]
,르쏠레이475카페글램핑,강원특별자치도 양구군 양구읍 상리,,37.2059731861,126.9416400388,2908128,"레포츠,레포츠",,[]
,리버랜드,경기도 가평군 설악면 유명로 2320,,37.7082713138,127.4489546649,131755,"레포츠,레포츠",,[]
,리버시티수상스키장,서울특별시 강남구 압구정로11길 37-53 (압구정동),,37.5291121024,127.0191711533,767780,"레포츠,레포츠",,[]
,리버카라반,강원특별자치도 홍천군 북방면 노일로 144-10,,37.6752944308,127.7412457311,2747862,"레포츠,레포츠",,[]
,리버티,강원특별자치도 양양군 현북면 하광정리 599-4,,38.0240142717,128.721729634,2946583,"레포츠,레포츠",,[]
,리버포인트 수상레저,경기도 가평군 청평면 호반로 474,,37.7104683867,127.4547290754,2773872,"레포츠,레포츠",,[]
,리버힐즈오토캠핑장,강원특별자치도 영월군 무릉도원면 도원운학로 1043,,37.2960049949,128.188344246,2733994,"레포츠,레포츠",,[]
,리베라컨트리클럽,경기도 화성시 중리길 183,,37.1902586109,127.112758297,131415,"레포츠,레포츠",,[]
,리썸카라반 (마농왓 노을),제주특별자치도 서귀포시 대정읍 일과대수로27번길 12,,33.2393822902,126.2301766861,2798778,"레포츠,레포츠",,[]
,리앤리CC,경기도 가평군 조종면 운악청계로 702-24,,37.8729810461,127.3585719883,2759826,"레포츠,레포츠",,[]
,리앤파크,충청북도 영동군 황간면 구룡로 321,,36.2560293648,127.8603254194,2748254,"레포츠,레포츠",,[]
,리오카라반,경기도 가평군 상면 축령로70번길 44-61,,37.7795531136,127.3629743106,2909615,"레포츠,레포츠",,[]
,리즈밸리글램핑캠핑장,경기도 가평군 설악면 어비산길 201-34,,37.5917915698,127.5128966796,2747868,"레포츠,레포츠",,[]
,리틀보이 캠핑장,경상남도 고성군 옥수길 13,,35.0979974536,128.3760918024,2909173,"레포츠,레포츠",,[]
,리틀프린스 스키샵,전북특별자치도 무주군 설천면 만선로 34-1,,35.9104362764,127.7557357959,507759,"레포츠,레포츠",,[]
,리프레쉬 캠핑장,강원특별자치도 평창군 봉평면 흥정계곡4길 7-25,,37.6502748719,128.3199107398,2761826,"레포츠,레포츠",,[]
,림스캠핑&글램핑,전라남도 강진군 해강로 1038-30,,34.6029997332,126.7366480937,2907960,"레포츠,레포츠",,[]
,링크나인GC,경기도 화성시 마도면 해운로630번길 49,,37.1718293613,126.7532108625,2747383,"레포츠,레포츠",,[]
,링크독애견파크 글램핑&오토캠핑장,경기도 가평군 설악면 신천중앙로28번길 101-60,,37.6608497995,127.4900050878,2757969,"레포츠,레포츠",,[]
,마가리캠핑장,강원특별자치도 평창군 봉평면 전나무골길 224-10,,37.6457874481,128.3696063861,2733995,"레포츠,레포츠",,[]
,마검포태안캠핑장,충청남도 태안군 마검포길 311-42,,36.6071143553,126.2911678887,2908303,"레포츠,레포츠",,[]
,마검포힐링캠핑촌,충청남도 태안군 남면 마검포길 313-30,,36.6095279604,126.2908373002,2727360,"레포츠,레포츠",,[]
,마곡 실내배드민턴장,서울특별시 강서구 양천로 251,,37.5732147415,126.8321675094,2755467,"레포츠,레포츠",,[]
,마노아워터캠핑장,경상남도 합천군 봉산면 압곡3길 9,,35.6424887286,128.0578662915,2792871,"레포츠,레포츠",,[]
,마량 방파제,충청남도 서천군 서면 서인로 56,,36.1294478189,126.5036250656,131273,"레포츠,레포츠",,[]
,마령큰시내들캠핑장,전북특별자치도 진안군 마령면 관마로 1248-14,,35.7382096948,127.3446157494,2748056,"레포츠,레포츠",,[]
,마로니에숲캠핑장,충청북도 옥천군 이원면 장찬길 159-73,,36.2450064,127.5943438649,2727221,"레포츠,레포츠",,[]
,마루노리캠핑장,강원특별자치도 원주시 지정면 지정로 1234,,37.3808183765,127.7921663893,2727204,"레포츠,레포츠",,[]
,마루펜션 캠핑장,강원특별자치도 영월군 주천면 평창강로 221,,37.2988076135,128.3446578796,2757687,"레포츠,레포츠",,[]
,마루한캠핑장,전라남도 담양군 금성면 상신기길 108,,35.3150721536,127.0586659172,2741004,"레포츠,레포츠",,[]
,마리원캠핑장,인천광역시 강화군 길상면 장흥로101번길 6,,37.6154791269,126.5106318153,2734148,"레포츠,레포츠",,[]
,마린어드벤처파크,부산광역시 영도구 동삼동 1,,35.0766545066,129.0904384534,3045648,"레포츠,레포츠",,[]
,마린오토캠핑장,충청남도 태안군 안면읍 방포항길 91,,36.5052545897,126.334094453,3065202,"레포츠,레포츠",,[]
,마방캠핑장,경상북도 봉화군 소천면 구마동길 502,,36.9853082686,128.9665531963,2747967,"레포츠,레포츠",,[]
,마부농원,충청북도 청주시 서원구 남이면 대림로 390-41,,36.604015364,127.4418087882,2769593,"레포츠,레포츠",,[]
,마스터피스CC,경상북도 고령군 쌍림면 산막길 47-80,,35.7044179095,128.2162339837,2772300,"레포츠,레포츠",,[]
,마실빌리지,경기도 남양주시 오남읍 팔현로216번길 24-1,,37.6894528412,127.2304334414,2744524,"레포츠,레포츠",,[]
,마실캠핑장,경기도 파주시 적성면 국사로 271,,37.9598953804,126.871355705,2727469,"레포츠,레포츠",,[]
,마실휴양농원,경기도 화성시 비봉면 남전리,,37.2334239361,126.84990316,3081858,"레포츠,레포츠",,[]
,마에스트로CC,경기도 안성시 양성면 안성맞춤대로 2134-36,,37.1042434225,127.2604556712,2750418,"레포츠,레포츠",,[]
,마우나오션 컨트리클럽,경상북도 경주시 양남면 동남로 982,,35.6909714418,129.3754937212,131760,"레포츠,레포츠",,[]
,마운틴캠핑장,경기도 용인시 처인구 원삼면 후평로185번길 50,,37.1352299602,127.3286403041,2727235,"레포츠,레포츠",,[]
,"마을야영장, 침산추월",세종특별자치시  침산2길 8-6 침산커뮤니티센터,,36.6003187068,127.2940443719,2908284,"레포츠,레포츠",,[]
,마음수련 메인센터(마음수련 논산 메인센터),충청남도 논산시 상월면 상월로 749-23,,36.3219875052,127.1814786757,2770347,"레포츠,레포츠",,[]
,마의태자캠핑장,강원특별자치도 인제군 상남면 엄달골길 165,,37.8672565592,128.2416223876,2791907,"레포츠,레포츠",,[]
,마이다스레이크 이천,경기도 이천시 설성면 설가로 602,,37.1771175599,127.5244880912,2764370,"레포츠,레포츠",,[]
,마이다스밸리 골프클럽,경기도 가평군 설악면 다락재로 73-111,,37.6658292017,127.4587161211,577738,"레포츠,레포츠",,[]
,마이산풍혈냉천캠핑장,전북특별자치도 진안군 성수면 용포로 345,,35.7209220381,127.3027088119,2748121,"레포츠,레포츠",,[]
,마이웨이리조트관광,경상남도 밀양시 산외면 엄광길 103-16,,35.5378751709,128.8009760482,2747936,"레포츠,인문",,[]
,마인드글램퍼스,경기도 양평군 단월면 대부록길 37,,37.5803987789,127.6816455854,2744530,"레포츠,레포츠",,[]
,마전낚시터,경기도 포천시 가산면 마전길 129-1,,37.8491256222,127.2139414421,2752716,"레포츠,레포츠",,[]
,마정 낚시터,충청남도 천안시 서북구 직산읍 금곡로 176,,36.8744892819,127.0999515433,2758429,"레포츠,레포츠",,[]
,마중펜션캠핑장,강원특별자치도 횡성군 유동북길 190,,37.5951173446,128.1720063115,2755728,"레포츠,레포츠",,[]
,마천청소년센터,서울특별시 송파구 성내천로 319 (마천동),,37.4923910635,127.1566596841,3060929,"레포츠,레포츠",,[]
,만경지(능제저수지),전북특별자치도 김제시 만경읍 장산리,,35.8416001031,126.8275090753,131058,"레포츠,레포츠",,[]
,만리포몰디브,충청남도 태안군 소원면 천리포1길 143-22,,36.7964150839,126.1480536631,2758015,"레포츠,레포츠",,[]
,만리포미소카라반,충청남도 태안군 소원면 만리포2길 112-1,,36.7838802899,126.1403796884,2758018,"레포츠,레포츠",,[]
,만리포솔향기캠핑장,충청남도 태안군 소원면 모항항길 29,,36.7780365672,126.1431240376,2727363,"레포츠,레포츠",,[]
,만산동국민여가캠핑장,강원특별자치도 화천군 상서면 만산동로 1042,,38.1354276038,127.6251065482,2755693,"레포츠,레포츠",,[]
,만연산 오감연결길,전라남도 화순군 화순읍 진각로 276-33,,35.0772895397,126.9919694778,2674994,"레포츠,레포츠",,[]
,만정낚시터,경기도 안성시 공도읍 만수동길 53-8,,37.0175659329,127.1832261797,2741611,"레포츠,레포츠",,[]
,만정민트바다낚시터,인천광역시 중구 영종순환로 279-20,,37.5150026654,126.5522724652,2768146,"레포츠,레포츠",,[]
,만정바다좌대낚시터,인천광역시 중구 영종순환로 279-20,,37.5150026654,126.5522724652,2768151,"레포츠,레포츠",,[]
,만정사계절바다낚시터,인천광역시 중구 영종순환로 279-20,,37.5150026654,126.5522724652,2768158,"레포츠,레포츠",,[]
,만정캠핑장,인천광역시 중구 영종순환로 279-20,,37.5154692369,126.5499393322,2018189,"레포츠,레포츠",,[]
,만천하 스카이워크,충청북도 단양군 적성면 옷바위길 10,,36.9776749798,128.3370707587,2519536,"레포츠,레포츠",,[]
,만촌인라인롤러스케이트장,대구광역시 수성구 만촌동,,35.8743956228,128.656929358,3024306,"레포츠,레포츠",,[]
,만촌자전거경기장,대구광역시 수성구 팔현길 241 (만촌동),,35.874467837,128.6569349112,3024181,"레포츠,레포츠",,[]
,만해마을 수련원,강원특별자치도 인제군 북면 만해로 91,,38.1862375638,128.3166085986,131834,"레포츠,레포츠",,[]
,말 테마파크 골프장 (렛츠런파크 제주),제주특별자치도 제주시 애월읍 평화로 2144,,33.4042417055,126.3980250961,637398,"레포츠,레포츠",,[]
,말리부수상레저,경기도 가평군 청평면 경춘로 548,,37.71970248,127.4032640472,3018573,"레포츠,레포츠",,[]
,말보로맨오토캠핑장,강원특별자치도 고성군 토성면 서신평1길 46,,38.2312888772,128.5124588291,2744533,"레포츠,레포츠",,[]
,말타는사람들,경상북도 영주시 봉현면 소백로 1806-28,,36.8577396302,128.5323762374,3060356,"레포츠,레포츠",,[]
,맑은개울캠핑장,경상북도 상주시 화서면 하송3길 178-5,,36.4860604386,127.9588602538,2747992,"레포츠,레포츠",,[]
,맑은누리캠핑장,충청북도 영동군 상촌면 물한계곡로 1212,,36.062504459,127.8752210677,2748273,"레포츠,레포츠",,[]
,맑은물소리캠핑장,경기도 가평군 설악면 가마소길 17-270,,37.6348775006,127.4728546234,2741006,"레포츠,레포츠",,[]
,맘빌리지카라반캠핑장,충청남도 태안군 소원면 법산길 350-60,,36.7380394146,126.2023947133,2727374,"레포츠,레포츠",,[]
,망봉산둘레길,경상남도 거제시 장목면 송진포리,,34.9987367394,128.7054240522,2755697,"레포츠,레포츠",,[]
,망상오토캠핑리조트,강원특별자치도 동해시 동해대로 6370,,37.6004758138,129.0785022768,2745708,"레포츠,레포츠",,[]
,망상오토캠핑리조트제2오토캠핑장,강원특별자치도 동해시 동해대로 6270-16,,37.5900662042,129.0938567768,2747854,"레포츠,레포츠",,[]
,매미캠프,경상남도 거제시 장목면 옥포대첩로 1279-3,,34.9662931134,128.703555638,2792745,"레포츠,레포츠",,[]
,매봉힐링쉼터오토캠핑장,강원특별자치도 원주시 신림면 창촌길 132,,37.2606553667,128.1387997417,2763367,"레포츠,레포츠",,[]
,매일민박캠핑장,강원특별자치도 철원군 근남면 하오재로 1531,,38.193176224,127.4657305173,2762799,"레포츠,레포츠",,[]
,매향리캠핑장,경기도 화성시 우정읍 매향리,,37.0380586042,126.746262381,3017596,"레포츠,레포츠",,[]
,매화둠벙마을영농조합법인,충청남도 태안군 원북면 동해길 301-41,,36.8121173891,126.226823881,2748177,"레포츠,레포츠",,[]
,매화마을 녹색길,강원특별자치도 평창군 평창읍 도돈리 29-31,,37.3273714997,128.3718407004,2702539,"레포츠,레포츠",,[]
,맨하탄수상레저,경기도 가평군 청평면 대성강변길 45,,37.6795872742,127.3801145403,3025632,"레포츠,레포츠",,[]
,맹동저수지,충청북도 음성군 맹동면 군자길 1492,,36.894289904,127.5714974013,131043,"레포츠,레포츠",,[]
,맹방비치캠핑장,강원특별자치도 삼척시 근덕면 맹방해변로 140,,37.3875533985,129.2345781955,2727187,"레포츠,레포츠",,[]
,머체왓숲길,제주특별자치도 서귀포시 남원읍 서성로 755,,33.3305236796,126.6739417036,2662724,"레포츠,레포츠",,[]
,멍글멍글 펫 글램핑,충청북도 청주시 청원구 오창읍 오산가좌로 650-28,,36.7173982465,127.3679456278,2792213,"레포츠,레포츠",,[]
,멍우리협곡캠핑장,경기도 포천시 영북면 소회산길 400,,38.0915976949,127.2335742349,2727383,"레포츠,레포츠",,[]
,메가오토캠핑장,경기도 포천시 일동면 수입로 342,,37.9959298065,127.3151806857,2747888,"레포츠,레포츠",,[]
,메이더카라반,제주특별자치도 제주시 구좌읍 일주동로 1626,,33.5519830557,126.7066754804,2748136,"레포츠,레포츠",,[]
,메이플글램핑,경기도 포천시 이동면 화동로 2236-25,,38.0441530565,127.3748821408,2908462,"레포츠,레포츠",,[]
,메타파크,전라남도 담양군 금성면 금성산성길 260,,35.3708124358,127.0215594513,2727280,"레포츠,레포츠",,[]
,메타피아 오래캠핑장,경기도 가평군 북면 화악산로 233,,37.9025118656,127.5593305865,2758204,"레포츠,레포츠",,[]
,면천낚시터,충청남도 당진시 면천면 면천로 844-5,,36.8111170095,126.6815605034,131253,"레포츠,레포츠",,[]
,명도그오토캠핑장,경상남도 남해군 설천면 설천로 176-187,,34.8860518315,127.9087632151,2727272,"레포츠,레포츠",,[]
,명돈골캠핑장,경기도 가평군 북면 논남기길 19-36,,37.9674663432,127.4596710971,2726668,"레포츠,레포츠",,[]
,명동사격장,서울특별시 중구 명동8가길 27 (충무로2가),,37.5618993737,126.9865398642,131901,"레포츠,레포츠",,[]
,명봉산 솔밭관광농원 오토캠핑장,강원특별자치도 원주시 흥업면 승안동길 242-56,,37.3051758488,127.8736501159,2791441,"레포츠,레포츠",,[]
,명성가족캠핑촌,인천광역시 옹진군 영흥면 영흥로722번길 39,,37.2729985412,126.4560434548,2755756,"레포츠,레포츠",,[]
,명수원,경상북도 경주시 장사길 46-17,,35.7897930785,129.0510776512,2910042,"레포츠,레포츠",,[]
