name,region,lat,lon,tags
가계해수욕장,전라남도,34.4354594945,126.3547412438,"관광,자연"
가고파 꼬부랑길 벽화마을,경상남도,35.2077664004,128.5696552845,"관광,문화"
가곡유황온천&스파,강원특별자치도,37.1507494904,129.2062296318,"관광,문화"
가금철교 문화공원,경기도,37.7533531645,127.0455151412,"관광,문화"
가나아트파크,경기도,37.7254519094,126.9497496852,"관광,문화"
가남체육공원,경기도,37.2017093544,127.5349142281,"관광,문화"
가덕도,부산광역시,35.0399121452,128.8284150154,"관광,자연"
가덕도 등대,부산광역시,35.0006471157,128.8295937487,"관광,자연"
가덕도외양포전망대,부산광역시,35.0017831264,128.8310519246,"관광,문화"
가덕산,경기도,37.9202321907,127.5683098007,"관광,자연"
가람리조트,강원특별자치도,37.8364309102,128.0184630062,"관광,문화"
가력도항,전북특별자치도,35.7269248004,126.5314023248,"관광,자연"
가령폭포,강원특별자치도,37.8326534604,128.159522544,"관광,자연"
가루매마을,경기도,37.4519513148,127.6145192906,"관광,문화"
가리산(홍천),강원특별자치도,37.8543978969,127.9988086966,"관광,자연"
가리왕산,강원특별자치도,37.461826298,128.5634777835,"관광,자연"
가림상회,충청남도,36.1899003585,126.8928691464,"관광,문화"
가마골계곡,전라남도,35.445187367,127.0227046757,"관광,자연"
가마미해수욕장,전라남도,35.399729392,126.4090769892,"관광,자연"
가마오름,제주특별자치도,33.3057279944,126.2466098987,"관광,자연"
가뫼골마을,경상남도,35.258656593,128.0324121006,"관광,문화"
가문이오름(감은이오름),제주특별자치도,33.4018299117,126.6876111209,"관광,자연"
가사해수욕장,전라남도,34.370487281,126.9281702396,"관광,자연"
가산사,충청북도,36.4015885618,127.5973920906,"관광,문화"
가산산성마을,경상북도,36.0501079498,128.597812985,"관광,문화"
가산서원,전라남도,35.2313226604,126.6931003984,"관광,문화"
가산수변공원,경상남도,35.295064808,129.0178748959,"관광,문화"
가산수피아,경상북도,36.0861545517,128.4850691574,"관광,자연"
가새기오름,제주특별자치도,33.4893700755,126.5038611983,"관광,자연"
가섭사,충청북도,36.96663397,127.7030557496,"관광,문화"
가세오름,제주특별자치도,33.3931758821,126.7231832338,"관광,자연"
가시리국산화풍력발전단지,제주특별자치도,33.3939370848,126.7341100468,"관광,문화"
가시오름,제주특별자치도,33.2236315617,126.2500169782,"관광,자연"
가실벚꽃길,경기도,37.2938508782,127.1950173777,"관광,문화"
가실성당,경상북도,35.9363922928,128.4048776375,"관광,문화"
가야공원,부산광역시,35.1483453258,129.0276891748,"관광,자연"
가야금산조테마공원,전라남도,34.7919693222,126.6856118867,"관광,문화"
가야금신조기념관,전라남도,34.7919693222,126.6856118867,"관광,문화"
가야산 소리길,경상남도,35.7759415388,128.1273204393,"관광,자연"
가야산 야생화식물원,경상북도,35.80312761,128.1418573045,"관광,자연"
가야산(서산),충청남도,36.7039864327,126.6091060355,"관광,자연"
가야산국립공원(백운동 지구),경상북도,35.8002612681,128.1418796034,"관광,자연"
가야의 거리,경상남도,35.2392795268,128.8739750841,"관광,문화"
가왕 송흥록·국창 박초월 생가,전북특별자치도,35.4575758647,127.5626899062,"관광,문화"
가우도 모노레일,전라남도,34.5339749368,126.7847455361,"관광,문화"
가우도 출렁다리,전라남도,34.5288669609,126.7717356912,"관광,문화"
가원습지 생태자연공원,강원특별자치도,37.4736521046,129.1070564038,"관광,자연"
가을동화 감귤밭,제주특별자치도,33.2556272247,126.5518123101,"관광,문화"
가의도,충청남도,36.6761471358,126.0727080861,"관광,자연"
가인 김병로 생가터,전북특별자치도,35.4505693165,126.9774224423,"관광,문화"
가장마을,전북특별자치도,35.4101221138,127.5179339854,"관광,문화"
가제산,충청남도,36.8646346339,126.2905250464,"관광,자연"
가조 백두산천지온천,경상남도,35.6985345364,128.0229317531,"관광,문화"
가조도선착장,경상남도,34.9285746891,128.5261915327,"관광,자연"
가족문화센터,울산광역시,35.5319960593,129.2905556337,"관광,문화"
가지산도립공원(밀양),경상남도,35.5803348234,128.9804563782,"관광,자연"
가창 찐빵 골목,대구광역시,35.8027142041,128.622223298,"관광,문화"
가천 다랭이마을,경상남도,34.7279803963,127.8943963083,"관광,문화"
가탄마을,경상남도,35.1951401371,127.6380178715,"관광,문화"
가파도 소망전망대,제주특별자치도,33.1688017961,126.2688165585,"관광,문화"
가파마을,충청남도,36.4978037404,126.8800510114,"관광,문화"
가평 아홉마지기마을,경기도,37.8475697154,127.4877442849,"관광,문화"
가평 연인산마을,경기도,37.9014296489,127.4626644345,"관광,문화"
가평 영양잣마을,경기도,37.7741593259,127.3645382139,"관광,문화"
가평 현충탑,경기도,37.8126354086,127.5157483134,"관광,문화"
가평별묘,경기도,37.6196823854,127.4915450327,"관광,문화"
가평학도의용대 참전비,경기도,37.8248171919,127.5085736093,"관광,문화"
가포수변공원,경상남도,35.1552892222,128.5842831951,"관광,문화"
가포해안변공원,경상남도,35.1575501862,128.5901742863,"관광,문화"
가학산,전라남도,34.1522183506,126.6593100914,"관광,자연"
가호서원,경상남도,35.1664473205,128.3325771223,"관광,문화"
가회동성당,서울특별시,37.5820858828,126.9846616856,"관광,문화"
각골공원,경기도,37.2914704176,126.8741021292,"관광,문화"
각사산촌생태마을,경상남도,35.7729976524,128.1397749758,"관광,문화"
각산,경상남도,34.9434368938,128.0571209743,"관광,자연"
각시바위오름,제주특별자치도,33.2777271543,126.5259918298,"관광,자연"
각연사(괴산),충청북도,36.7543041419,127.9274860663,"관광,문화"
간곡서원,충청남도,36.1825403583,126.90839295,"관광,문화"
간데메공원,서울특별시,37.5728353382,127.0490783005,"관광,문화"
간송옛집,서울특별시,37.6649464754,127.0282025819,"관광,문화"
간월도 어리굴젓 기념탑,충청남도,36.6097467485,126.416512046,"관광,문화"
간월도마을,충청남도,36.6192846446,126.4227029018,"관광,문화"
간월산,울산광역시,35.5561610255,129.0480650268,"관광,자연"
간월산 자연휴양림,울산광역시,35.5671043874,129.0560529115,"관광,자연"
간월암(서산),충청남도,36.6038362307,126.4114209947,"관광,문화"
간월재,울산광역시,35.5482424218,129.0453821487,"관광,자연"
간이해변,강원특별자치도,38.204182519,128.5946244301,"관광,자연"
간재선생유지,전북특별자치도,35.7943022476,126.63718561,"관광,문화"
간절곶,울산광역시,35.3589668021,129.3605738299,"관광,자연"
간절곶 소망길,울산광역시,35.3546337414,129.3492110511,"관광,자연"
간절곶소망우체통,울산광역시,35.3588057199,129.3611487843,"관광,문화"
간현관광지,강원특별자치도,37.3646293574,127.8340575195,"관광,문화"
갈거계곡,전북특별자치도,35.9085419668,127.4377085322,"관광,자연"
갈계숲,경상남도,35.7789272818,127.8160256582,"관광,자연"
갈기산,충청북도,36.112113826,127.6280083624,"관광,자연"
갈남항,강원특별자치도,37.2807757781,129.3251150597,"관광,자연"
갈두마을(땅끝마을),전라남도,34.2998052878,126.5285847288,"관광,문화"
갈두천권역마을,충청남도,36.7988972173,126.2574770059,"관광,문화"
갈론계곡,충청북도,36.7344745015,127.8531905026,"관광,자연"
갈마공원,대전광역시,36.3571340745,127.3721884377,"관광,문화"
갈마못(갈뫼못),제주특별자치도,33.3873529469,126.8116979172,"관광,자연"
갈매구릉산자락길,경기도,37.6280830442,127.1238754676,"관광,문화"
갈매중앙공원,경기도,37.6311631455,127.1185814171,"관광,문화"
갈멜정원,전라남도,34.7020883495,127.0538844612,"관광,자연"
갈모봉 산림욕장,경상남도,34.9718346636,128.2676407226,"관광,자연"
갈산공원,서울특별시,37.5061176314,126.8684105358,"관광,문화"
갈산공원,경기도,37.4836871538,127.4973262186,"관광,자연"
갈음이해수욕장,충청남도,36.6957489937,126.1520087212,"관광,자연"
갈천서원,경상남도,35.0480785952,128.2510123914,"관광,문화"
갈천약수터,강원특별자치도,37.9058931889,128.5029086488,"관광,자연"
갈현체육공원,인천광역시,37.5777207077,126.7285768374,"관광,문화"
감낭오름,제주특별자치도,33.3250274801,126.3497088457,"관광,자연"
감로암(서울),서울특별시,37.5753815016,127.0066515383,"관광,문화"
감못(부지),경상북도,35.835102108,128.7670624312,"관광,문화"
감사공묘역,제주특별자치도,33.5129949735,126.6611469938,"관광,문화"
감삼못공원,대구광역시,35.8586426972,128.5522334637,"관광,문화"
감성공작소,강원특별자치도,37.4423790237,129.1631079016,"관광,문화"
감수굴 밭담길,제주특별자치도,33.5310570194,126.8432807691,"관광,문화"
감악산 출렁다리,경기도,37.9390158074,126.9446579202,"관광,문화"
감악산(거창),경상남도,35.5964221995,127.9295566252,"관광,자연"
감악산항노화웰니스체험장,경상남도,35.5901644033,127.9199604172,"관광,문화"
감응사(경북),경상북도,35.9347328236,128.3325146302,"관광,문화"
감중공원,인천광역시,37.4932378921,126.6736203249,"관광,문화"
감천계곡,경상남도,35.191908815,128.5126162513,"관광,자연"
감천사(부산),부산광역시,35.1833036953,129.0912632411,"관광,문화"
감추사,강원특별자치도,37.5146783131,129.1265089534,"관광,문화"
감포항,경상북도,35.8078329413,129.5040374805,"관광,자연"
감포해상공원,경상북도,35.8041139317,129.5048652927,"관광,자연"
갑곶돈대,인천광역시,37.7335377029,126.5171140395,"관광,문화"
갑사,충청남도,36.3650187978,127.1875769727,"관광,문화"
갑사계곡,충청남도,36.3691793379,127.1822106747,"관광,자연"
갑오동학혁명 100주년 기념탑,전북특별자치도,35.5097335146,126.9002222297,"관광,문화"
강경 구 연수당 건재 약방,충청남도,36.162022392,127.0184336426,"관광,문화"
강경 중앙초등학교 강당,충청남도,36.1602309428,127.0191725131,"관광,문화"
강경역사문화안내소(구 강경노동조합),충청남도,36.1610252177,127.0146367865,"관광,문화"
강구항 대게거리,경상북도,36.3588462265,129.3913285689,"관광,자연"
강나루생태공원,경상남도,35.3898253912,128.5092306571,"관광,자연"
강남,서울특별시,37.5268958352,127.0270732739,"관광,문화"
강남 마이스 관광특구,서울특별시,37.5118092746,127.0591318945,"관광,문화"
강당골 산촌체험관,충청남도,36.716994812,127.0155023533,"관광,문화"
강당골계곡,충청남도,36.7053240494,127.0221465167,"관광,자연"
강댕이 미륵불,충청남도,36.7778111433,126.6025046578,"관광,문화"
강덕사,전라남도,34.654422834,126.802682706,"관광,문화"
강동 워터파크,경상북도,35.8179335881,129.3056850979,"관광,문화"
강동 해수온천,울산광역시,35.6138565417,129.4505699154,"관광,문화"
강동 화암 주상절리,울산광역시,35.6341985442,129.4424755991,"관광,자연"
강동리조트 프라이빗콘도,경상북도,35.8228050635,129.2952942021,"관광,문화"
강동몽돌해변 (정자해변),울산광역시,35.6278381472,129.4423980082,"관광,자연"
강동예찬시비,서울특별시,37.5426290283,127.1207892964,"관광,문화"
강따라 방림 가는길,강원특별자치도,37.4496840341,128.4586570232,"관광,자연"
강릉 3.1운동 기념공원,강원특별자치도,37.7972995865,128.9002177764,"관광,문화"
강릉 경포대,강원특별자치도,37.7955691591,128.8965126086,"관광,문화"
강릉 굴산사지,강원특별자치도,37.7072681694,128.8918046506,"관광,문화"
강릉 남산공원,강원특별자치도,37.7480551515,128.8934282457,"관광,문화"
강릉 녹색도시체험센터,강원특별자치도,37.752184886,128.8758158157,"관광,문화"
강릉 대기리마을,강원특별자치도,37.5883185884,128.7776435739,"관광,문화"
강릉 대도호부 관아,강원특별자치도,37.7532767444,128.8921226461,"관광,문화"
강릉 메타버스 체험관,강원특별자치도,37.7879702339,128.906528608,"관광,문화"
강릉 모래내 한과마을(갈골한과),강원특별자치도,37.8138296931,128.8328344506,"관광,문화"
강릉 방동리 무궁화,강원특별자치도,37.8274342795,128.8639367794,"관광,자연"
강릉 복사꽃마을,강원특별자치도,37.8801348222,128.7773762919,"관광,문화"
강릉 선교장,강원특별자치도,37.7865588677,128.8850778068,"관광,문화"
강릉 솔향수목원,강원특별자치도,37.6979158879,128.8617409792,"관광,자연"
강릉 안목해맞이공원,강원특별자치도,37.7743308995,128.9451477738,"관광,문화"
강릉 오금집,강원특별자치도,37.7563708685,128.8940418219,"관광,문화"
강릉 오죽헌,강원특별자치도,37.7787651808,128.8776814918,"관광,문화"
강릉 월화거리,강원특별자치도,37.7559015445,128.8974470859,"관광,문화"
강릉 임영관 삼문,강원특별자치도,37.7531378647,128.8917699042,"관광,문화"
강릉 통일공원,강원특별자치도,37.7204603916,128.9984085388,"관광,문화"
강릉 한복 문화 창작소,강원특별자치도,37.7588151581,128.9006133766,"관광,문화"
강릉 한울타리마을,강원특별자치도,37.6128390281,128.9747778772,"관광,문화"
강릉 해살이마을,강원특별자치도,37.7929261321,128.8109759564,"관광,문화"
강릉 해운정,강원특별자치도,37.7862090263,128.8911356052,"관광,문화"
강릉수월래,강원특별자치도,37.7690162327,128.8737571477,"관광,문화"
강릉시강남축구공원,강원특별자치도,37.7418033471,128.9062745042,"관광,문화"
강릉아기동물농장,강원특별자치도,37.8462598232,128.8611225614,"관광,문화"
강릉아트센터,강원특별자치도,37.7716996777,128.8954273345,"관광,문화"
강릉안반데기관광농원,강원특별자치도,37.6087932748,128.7400518871,"관광,문화"
강릉커피거리,강원특별자치도,37.7726505813,128.9473504054,"관광,문화"
강릉향교,강원특별자치도,37.7635561721,128.8952470467,"관광,문화"
강문솟대다리,강원특별자치도,37.7985635711,128.9126221751,"관광,문화"
강문해변,강원특별자치도,37.7948530151,128.9190439335,"관광,자연"
강변스파랜드,서울특별시,37.5349377239,127.0913227521,"관광,문화"
강변저류지,강원특별자치도,37.1802648936,128.4483742907,"관광,자연"
강상체육공원,경기도,37.4832897707,127.4859661494,"관광,문화"
강서역사문화거리,서울특별시,37.5722343802,126.8366643489,"관광,문화"
강서체육공원,부산광역시,35.2078571105,128.9738950093,"관광,문화"
강서한강공원,서울특별시,37.5860935311,126.8171601831,"관광,문화"
강씨봉 자연휴양림,경기도,37.9700067673,127.4083868175,"관광,자연"
강아지숲,강원특별자치도,37.7364886333,127.6620400154,"관광,문화"
강영천효자문,경기도,37.9689765715,127.4214078804,"관광,문화"
강원 경찰충혼탑,강원특별자치도,37.9167408445,127.7130161606,"관광,문화"
강원 영월 김삿갓면 [슬로시티],강원특별자치도,37.1256818109,128.5701372137,"관광,문화"
강원숲체험장,강원특별자치도,37.9630563077,127.6397214646,"관광,문화"
강원특별자치도 탄광문화촌,강원특별자치도,37.2631362582,128.4669118411,"관광,문화"
강원특별자치도립화목원,강원특별자치도,37.9233347533,127.7254731639,"관광,자연"
강정고령보,대구광역시,35.8411597415,128.4650416326,"관광,문화"
강정천,제주특별자치도,33.2566620021,126.474738413,"관광,자연"
강진 갯들소리마을,전라남도,34.4985032699,126.7458720283,"관광,문화"
강진 백련사 동백나무 숲,전라남도,34.5876738723,126.7486001914,"관광,자연"
강진 오감통,전라남도,34.6391324006,126.773588414,"관광,문화"
강진다원,전라남도,34.7409031836,126.7061613195,"관광,문화"
강진만,전라남도,34.595223382,126.770150892,"관광,자연"
강진영랑생가,전라남도,34.6421930307,126.7652918469,"관광,문화"
강진향교,전라남도,34.6503616614,126.7714883256,"관광,문화"
강천사 모과나무,전북특별자치도,35.3987570781,127.0556862716,"관광,자연"
강천사(순창),전북특별자치도,35.3984154482,127.0555668463,"관광,문화"
강천사(제천),충청북도,37.206525119,128.2669759133,"관광,문화"
강천사계곡,전북특별자치도,35.3998321107,127.0647187774,"관광,자연"
강천산휴양농원,전북특별자치도,35.4277205858,127.0627071317,"관광,문화"
강천섬,경기도,37.23438905,127.6942516838,"관광,자연"
강촌 출렁다리공원,강원특별자치도,37.813601407,127.6358095763,"관광,문화"
강촌유원지,강원특별자치도,37.8157038798,127.6325486998,"관광,문화"
강하예술공원,경기도,37.498750559,127.4144027534,"관광,문화"
강하체육공원,경기도,37.4966119139,127.4141833901,"관광,문화"
강한사,경기도,37.2991248935,127.6331386778,"관광,문화"
강화 갑곶리 탱자나무,인천광역시,37.7541460175,126.4948543916,"관광,자연"
강화 고인돌 유적 [유네스코 세계유산],인천광역시,37.7734344221,126.4374730037,"관광,문화"
강화 달빛동화마을,인천광역시,37.6803032508,126.416496966,"관광,문화"
강화 덕진진,인천광역시,37.6492060173,126.5256656119,"관광,문화"
강화 동막해변,인천광역시,37.5932918804,126.4570623331,"관광,자연"
강화 사기리 탱자나무,인천광역시,37.6165030596,126.4567228313,"관광,자연"
강화 석수문,인천광역시,37.7468243111,126.4756785763,"관광,문화"
강화 선원사지,인천광역시,37.7188250962,126.4924889291,"관광,문화"
강화 아르미애월드,인천광역시,37.7029259337,126.4347557746,"관광,문화"
강화 용두레마을,인천광역시,37.7184755935,126.3604121578,"관광,문화"
강화 장정리 오층석탑,인천광역시,37.7798472622,126.4203938355,"관광,문화"
강화 전등사,인천광역시,37.6316934164,126.4829144565,"관광,문화"
강화 초지진,인천광역시,37.6326163996,126.5322543599,"관광,문화"
강화 화개산 모노레일,인천광역시,37.7837223036,126.2902251211,"관광,문화"
강화 화문석마을,인천광역시,37.8020036798,126.4584675001,"관광,문화"
강화도,인천광역시,37.7465023392,126.4877441465,"관광,자연"
강화도 자연체험농장,인천광역시,37.6077579313,126.5178813669,"관광,문화"
강화도령 화문석 체험장,인천광역시,37.7678991029,126.4457501762,"관광,문화"
강화도제적봉 평화전망대,인천광역시,37.8263253898,126.432966382,"관광,문화"
강화루지(강화씨사이드리조트),인천광역시,37.6171759306,126.4981273568,"관광,문화"
강화산성,인천광역시,37.7560400476,126.4838970101,"관광,문화"
강화오상리고인돌군,인천광역시,37.7323802364,126.4009025027,"관광,문화"
강화유수부동헌,인천광역시,37.7508851202,126.4854359021,"관광,문화"
강화전적지,인천광역시,37.7335599037,126.5160196946,"관광,문화"
강화함상공원,인천광역시,37.7001614769,126.3840493884,"관광,문화"
강화해수랜드,인천광역시,37.6260699674,126.5337766252,"관광,문화"
같이삽시도,충청남도,36.3460870976,126.3532940863,"관광,문화"
개군레포츠공원,경기도,37.435873896,127.5326299514,"관광,문화"
개금벚꽃길,부산광역시,35.1462842377,129.0164402096,"관광,자연"
개나리공원,경기도,37.2110137213,127.0667924378,"관광,문화"
개덕사,충청남도,36.2309235405,127.5307471419,"관광,문화"
개똥이네농장,제주특별자치도,33.4949185817,126.6227951824,"관광,문화"
개목사(안동),경상북도,36.6579122746,128.6679949669,"관광,문화"
개목항,충청남도,36.831950203,126.1678092685,"관광,자연"
개미들마을,강원특별자치도,37.3190202362,128.6927565739,"관광,문화"
개실마을,경상북도,35.6677222637,128.2274589909,"관광,문화"
개심사 목조여래좌상과 목조관음보살좌상,충청북도,36.8149947491,127.794835129,"관광,문화"
개심사(괴산),충청북도,36.8149253105,127.7947184742,"관광,문화"
개암사,전북특별자치도,35.6628507594,126.6498267208,"관광,문화"
개오리오름,제주특별자치도,33.4262287923,126.6125115262,"관광,자연"
개운사(서울),서울특별시,37.5899857439,127.0280213987,"관광,문화"
개운포성지,울산광역시,35.4763394037,129.3426304352,"관광,문화"
개천사 비자나무숲,전라남도,34.8981389244,126.9116143586,"관광,자연"
개천지와 조성지,경상북도,36.3880253434,128.4624487572,"관광,자연"
개태사(논산),충청남도,36.2407281973,127.2293710155,"관광,문화"
개화산 호국공원,서울특별시,37.5812522032,126.804514251,"관광,문화"
개화예술공원,충청남도,36.3133182941,126.6585619211,"관광,문화"
객사길,전북특별자치도,35.817666612,127.143728744,"관광,문화"
갯골자연휴양림,강원특별자치도,38.080790683,128.1281817583,"관광,자연"
갯마을해변,강원특별자치도,37.9448496992,128.785448555,"관광,자연"
거금도,전라남도,34.4745705867,127.1247616096,"관광,자연"
거금생태숲,전라남도,34.4538883157,127.2156652719,"관광,자연"
거꾸로옛이야기나라숲,경상북도,36.57756052,127.9281326564,"관광,문화"
거꾸로천문대,충청북도,36.5937998565,127.4411146872,"관광,자연"
거꾸로하우스,서울특별시,37.5457465853,127.0361052512,"관광,문화"
거락계곡,경상남도,35.1416258192,128.3721854292,"관광,자연"
거례리 수목공원&반지교,강원특별자치도,38.0760051882,127.6897357562,"관광,문화"
거류산,경상남도,34.9953368097,128.3798219747,"관광,자연"
거리공원,서울특별시,37.4995521419,126.8916141621,"관광,문화"
거린사슴,제주특별자치도,33.3073171985,126.4543696003,"관광,자연"
거린사슴전망대,제주특별자치도,33.3062367724,126.4550112359,"관광,문화"
거문대교,전라남도,34.0564312951,127.3018063143,"관광,문화"
거문도,전라남도,34.0274901869,127.308948058,"관광,자연"
거문도해수욕장,전라남도,34.0199742783,127.3043097534,"관광,자연"
거북바위,인천광역시,37.4391529006,126.37916537,"관광,자연"
거북선공원,전라남도,34.7606283453,127.6667403776,"관광,문화"
거북선나루터,서울특별시,37.5182707714,126.9676539295,"관광,자연"
거북선대교,전라남도,34.7364352647,127.74951153,"관광,문화"
거북선마을,경상남도,34.9985498643,128.040620983,"관광,문화"
거북섬,경기도,37.3214690582,126.6797384195,"관광,자연"
거슨새미오름,제주특별자치도,33.4521283086,126.7610119406,"관광,자연"
거열산성군립공원,경상남도,35.6928937045,127.8786196518,"관광,자연"
거일1리 어촌체험마을,경상북도,36.710988344,129.475113485,"관광,문화"
거잠포선착장,인천광역시,37.4221140221,126.4254255008,"관광,자연"
거잠포해변,인천광역시,37.4221334646,126.4254532761,"관광,자연"
거전마을 [농촌체험],충청남도,36.3597300019,126.8403693657,"관광,문화"
거제 계도어촌체험마을,경상남도,34.9748138011,128.5174966194,"관광,문화"
거제 쌍근어촌체험마을,경상남도,34.7624916086,128.5893265378,"관광,문화"
거제 우제봉전망대,경상남도,34.730535603,128.6750254917,"관광,문화"
거제 윤돌섬,경상남도,34.8057356483,128.6808257769,"관광,자연"
거제 지세포진성,경상남도,34.8329582924,128.7187106519,"관광,문화"
거제대교,경상남도,34.8837038163,128.4764387198,"관광,문화"
거제도,경상남도,34.8548244444,128.5172414841,"관광,자연"
거제도 포로수용소 유적공원,경상남도,34.8764184192,128.6253953896,"관광,문화"
거제도 해금강,경상남도,34.7333354513,128.6839246455,"관광,자연"
거제도해초쑥 영농조합법인,경상남도,34.8677204249,128.6826850817,"관광,문화"
거제식물원,경상남도,34.8568253143,128.5781500188,"관광,자연"
거제자연휴양림,경상남도,34.7841760229,128.6296446835,"관광,자연"
거제저도유람선,경상남도,35.0010475573,128.7035269333,"관광,문화"
거제케이블카,경상남도,34.7843399541,128.6330110537,"관광,자연"
거조사,경상북도,36.0201338921,128.7646046699,"관광,문화"
거진항,강원특별자치도,38.4465127542,128.4598152167,"관광,자연"
거창 갈계리 삼층석탑,경상남도,35.7931506445,127.8147003936,"관광,문화"
거창 감악사지 승탑,경상남도,35.5905507092,127.933350892,"관광,문화"
거창 강남사지 석조여래입상,경상남도,35.7403816619,127.8165766434,"관광,문화"
거창 거기리 성황단,경상남도,35.7559265332,127.9391237212,"관광,문화"
거창 내오리 지석묘,경상남도,35.7819116096,127.8907050804,"관광,문화"
거창 당동 당집,경상남도,35.7241036091,128.0087489825,"관광,문화"
거창 동호리 이씨고가,경상남도,35.7989520008,127.927362489,"관광,문화"
거창 무릉리 정씨고가,경상남도,35.664217596,127.9458144856,"관광,문화"
거창 서변마을,경상남도,35.7150752074,127.9168156812,"관광,문화"
거창 솔향기돌담마을,경상남도,35.798626998,127.9251793584,"관광,문화"
거창 수승대,경상남도,35.7609657443,127.8336967988,"관광,문화"
거창 요수정,경상남도,35.7622516612,127.8309664506,"관광,문화"
거창 일원정,경상남도,35.645300422,127.953058798,"관광,문화"
거창 항노화힐링랜드,경상남도,35.7367527544,128.040926354,"관광,자연"
거창 황금원숭이마을,경상남도,35.7496778653,127.818542887,"관광,문화"
거창 황산리 신씨고가,경상남도,35.7629155826,127.8370186747,"관광,문화"
거창 황산마을 옛 담장,경상남도,35.763168337,127.8373158638,"관광,문화"
거창가남마을,경상남도,35.6883301231,128.0221793172,"관광,문화"
거창은행나무길,경상남도,35.7157308865,127.927875797,"관광,자연"
거창창포원,경상남도,35.6549990841,127.9395930601,"관광,자연"
거창향교,경상남도,35.6929441479,127.9037785388,"관광,문화"
건계정,경상남도,35.6926715144,127.8790001805,"관광,문화"
건등저수지,강원특별자치도,37.3145518522,127.8363198797,"관광,자연"
건지마을,충청북도,37.0198551194,127.9781628362,"관광,문화"
건천편백나무숲,경상북도,35.8330414673,129.0774268954,"관광,자연"
건청궁,서울특별시,37.5760836609,126.9767375783,"관광,문화"
건평항,인천광역시,37.6799835388,126.3990846816,"관광,자연"
걸시오름,제주특별자치도,33.4118342447,126.5060849817,"관광,자연"
걸포중앙공원,경기도,37.6386715536,126.7064132635,"관광,문화"
검계서원,충청남도,36.7479758981,127.0900947887,"관광,문화"
검룡소 (강원고생대 국가지질공원),강원특별자치도,37.2306100727,128.935454166,"관광,자연"
검성지생태공원,경상북도,36.1148893102,128.438108617,"관광,자연"
검암서원,충청북도,36.5788983496,127.5715339648,"관광,문화"
검은낭,인천광역시,37.8427720065,124.7082252086,"관광,자연"
것대산,충청북도,36.6461789265,127.5383906289,"관광,자연"
격포마을,전북특별자치도,35.6210191572,126.4700854705,"관광,문화"
견훤산성,경상북도,36.5756268834,127.8993602813,"관광,문화"
결성동헌,충청남도,36.5240393726,126.5451110316,"관광,문화"
결성향교,충청남도,36.5289137789,126.5431610786,"관광,문화"
겸면목화공원,전라남도,35.2513590882,127.1730490909,"관광,문화"
겸천서원,전라남도,35.0812434783,127.249507776,"관광,문화"
경광서원,경상북도,36.6005191001,128.682292582,"관광,문화"
경극고택,대구광역시,35.9074757619,128.6866758144,"관광,문화"
경기도 민물고기 생태학습관,경기도,37.5120142625,127.6395680582,"관광,자연"
경기도국민안전체험관,경기도,37.1784896342,127.0627464898,"관광,문화"
경기도자미술관,경기도,37.2755515693,127.4234166524,"관광,문화"
경기미래교육 양평캠퍼스,경기도,37.4987368948,127.5782878872,"관광,문화"
경기미래교육 파주캠퍼스,경기도,37.7852432234,126.6985404091,"관광,문화"
경기상상캠퍼스,경기도,37.2665807612,126.9811903187,"관광,문화"
경기전,전북특별자치도,35.8142143363,127.1500366062,"관광,문화"
경기창작센터,경기도,37.2271569225,126.6313815255,"관광,문화"
경기해양안전체험관,경기도,37.2905347955,126.5806788449,"관광,문화"
경남 하동 악양면 [슬로시티],경상남도,35.1623867315,127.7089347057,"관광,문화"
경남수학문화관 밀양수학체험센터,경상남도,35.4763508467,128.763119947,"관광,문화"
경남수학문화관 진주수학체험센터,경상남도,35.1654861268,128.1665028004,"관광,문화"
경반계곡,경기도,37.8330488418,127.4692186211,"관광,자연"
경복궁,서울특별시,37.5760836609,126.9767375783,"관광,문화"
경북 상주 함창·이안·공검면 [슬로시티],경상북도,36.570190974,128.1794354346,"관광,문화"
경북 청송 주왕산면·파천면 [슬로시티],경상북도,36.3569003365,129.1593546357,"관광,문화"
경북천년숲정원,경상북도,35.8119525052,129.2421547209,"관광,자연"
경산 임당동과 조영동 고분군,경상북도,35.8437675465,128.7536716999,"관광,문화"
경산 하양경관농업단지,경상북도,35.9000426415,128.8024269441,"관광,자연"
경산서당,경상북도,36.0032421955,129.2521178192,"관광,문화"
경산청년지식놀이터,경상북도,35.8413290508,128.760012877,"관광,문화"
경산향교,경상북도,35.8213031993,128.7417567092,"관광,문화"
경상감영공원,대구광역시,35.8720530283,128.5923073375,"관광,문화"
경상남도안전체험관,경상남도,35.5546357918,128.1147080903,"관광,문화"
경상북도 산림환경연구원,경상북도,35.8121774663,129.2414186674,"관광,자연"
경상북도교육청 경주안전체험관,경상북도,36.0210063497,129.2256085257,"관광,문화"
경상북도교육청 발명체험교육관,경상북도,35.8333745372,129.2129927767,"관광,문화"
경상북도수목원,경상북도,36.2152572184,129.259688803,"관광,자연"
경상좌수영성지,부산광역시,35.1743106361,129.1117117085,"관광,문화"
경성 부민관 폭탄 의거지,서울특별시,37.5675596477,126.9765267272,"관광,문화"
경암동 철길마을,전북특별자치도,35.9813520474,126.7362330582,"관광,문화"
경양서원,경상북도,36.0377691754,128.0728597677,"관광,문화"
경운동민병옥가옥,서울특별시,37.5747089831,126.9858034574,"관광,문화"
경의선책거리,서울특별시,37.5564989709,126.9290369242,"관광,문화"
경인 아라뱃길,인천광역시,37.558493023,126.6074801023,"관광,자연"
경인아라뱃길 검암공원,인천광역시,37.5702678536,126.6753791266,"관광,문화"
경인아라뱃길 다남공원,인천광역시,37.5745017294,126.733737568,"관광,문화"
경인아라뱃길 매화동산,인천광역시,37.5705708173,126.6878668668,"관광,자연"
경인아라뱃길 시천공원,인천광역시,37.5729008822,126.6754679337,"관광,문화"
경인아라뱃길 아라타워 전망대,인천광역시,37.5584374728,126.6073967784,"관광,문화"
경인아라뱃길귤현나루,인천광역시,37.5728188359,126.747489137,"관광,자연"
경장각,광주광역시,35.1843631887,126.8052666353,"관광,문화"
경정마을(차유어촌체험마을),경상북도,36.4839800653,129.4345182882,"관광,문화"
경정항,경상북도,36.481946796,129.4258691115,"관광,자연"
경주 경애왕릉,경상북도,35.7958120287,129.2087275528,"관광,문화"
경주 골굴암 마애여래좌상,경상북도,35.8030343852,129.4055767822,"관광,문화"
경주 교촌마을,경상북도,35.8296749875,129.2147232863,"관광,문화"
경주 구정동 방형분,경상북도,35.7786128584,129.2969786483,"관광,문화"
경주 금리단길,경상북도,35.8420235954,129.2148312586,"관광,문화"
경주 김유신묘,경상북도,35.8453311317,129.1923886866,"관광,문화"
경주 깁 모어 막걸리,경상북도,35.8418792252,129.2178809954,"관광,문화"
경주 나정,경상북도,35.8159876042,129.2126238598,"관광,문화"
경주 남산 신선암 마애보살반가상,경상북도,35.7879188169,129.2268428563,"관광,문화"
경주 남산 용장사곡 삼층석탑,경상북도,35.7805334817,129.2238155541,"관광,문화"
경주 남산 용장사지 마애여래좌상,경상북도,35.7808556536,129.2230739427,"관광,문화"
경주 낭산 일원,경상북도,35.8232429015,129.2423293844,"관광,자연"
경주 대릉원 일원,경상북도,35.8391849495,129.2107205881,"관광,문화"
경주 독락당,경상북도,36.016561167,129.160106074,"관광,문화"
경주 동궁과 월지,경상북도,35.8352023996,129.2283747104,"관광,문화"
경주 동궁원,경상북도,35.8527926864,129.2604463989,"관광,문화"
경주 마우나오션 리조트,경상북도,35.6838693516,129.3695944386,"관광,문화"
경주 망덕사지,경상북도,35.8170297415,129.2437849888,"관광,문화"
경주 명활성,경상북도,35.841743969,129.2623298822,"관광,문화"
"경주 무열왕릉, 태종무열왕릉비",경상북도,35.8250694447,129.1878424395,"관광,문화"
경주 배동 석조여래삼존입상,경상북도,35.8018586165,129.211257714,"관광,문화"
경주 버드파크,경상북도,35.8498125109,129.2627490602,"관광,문화"
경주 법흥왕릉,경상북도,35.8241218989,129.1650055794,"관광,문화"
경주 보문관광단지,경상북도,35.8437414327,129.2869971085,"관광,문화"
경주 불국사 [유네스코 세계유산],경상북도,35.7892734269,129.3318475148,"관광,문화"
경주 산에들레마을,경상북도,35.6762900946,129.3931009339,"관광,문화"
경주 석빙고,경상북도,35.8332025414,129.2239418227,"관광,문화"
경주 선덕여왕릉,경상북도,35.8237206325,129.242718225,"관광,문화"
경주 쌈밥거리,경상북도,35.8392099471,129.2107400311,"관광,문화"
경주 양남 주상절리 전망대,경상북도,35.6890734835,129.4719020226,"관광,문화"
경주 양동마을 [유네스코 세계유산],경상북도,35.9967040757,129.2536900913,"관광,문화"
경주 왕의 길,경상북도,35.8289168941,129.3696236316,"관광,문화"
경주 유연정,경상북도,35.9406391074,129.3019485791,"관광,문화"
경주 율동 마애여래삼존입상,경상북도,35.8049131324,129.1743664151,"관광,문화"
경주 장항리 서 오층석탑,경상북도,35.7749424906,129.3730609851,"관광,문화"
경주 재매정,경상북도,35.8291416875,129.2133289796,"관광,문화"
경주 지마왕릉,경상북도,35.8043277917,129.2117353801,"관광,문화"
경주 진덕여왕릉,경상북도,35.8891124131,129.198450797,"관광,문화"
경주 진평왕릉,경상북도,35.8321587183,129.2506228479,"관광,문화"
경주 첨성대,경상북도,35.8343745291,129.2185644826,"관광,문화"
경주 포석정지,경상북도,35.8073108096,129.2128629747,"관광,문화"
경주 풍력발전(바람의언덕),경상북도,35.7507422708,129.3641291235,"관광,문화"
경주 헌강왕릉,경상북도,35.8021369114,129.240327382,"관광,문화"
경주 황룡사지,경상북도,35.8382604313,129.2307077526,"관광,문화"
경주 황리단길,경상북도,35.8374517979,129.2099818133,"관광,문화"
경주국립공원,경상북도,35.8436914887,129.289657988,"관광,자연"
경주시 자전거공원,경상북도,35.8688439662,129.277027821,"관광,문화"
경주역사유적지구 [유네스코 세계유산],경상북도,35.8385656047,129.2122926901,"관광,문화"
경주월드 어뮤즈먼트,경상북도,35.836386616,129.2821727414,"관광,문화"
경찰혼,서울특별시,37.5262992108,126.9015402823,"관광,문화"
경천대관광지,경상북도,36.4556329949,128.2419497731,"관광,문화"
경천묘,강원특별자치도,37.1837757965,127.8641739277,"관광,문화"
경천섬(경천섬공원),경상북도,36.4532751731,128.2550847823,"관광,문화"
경천저수지,전북특별자치도,36.0381431707,127.2395171794,"관광,자연"
경충사(정기룡장군유허지),경상남도,34.983765636,127.8954368572,"관광,문화"
경포 아쿠아리움,강원특별자치도,37.79008946,128.9079034181,"관광,문화"
경포가시연습지,강원특별자치도,37.7894615748,128.8986792689,"관광,자연"
경포도립공원,강원특별자치도,37.8274012786,128.8807685966,"관광,자연"
경포플라워가든,강원특별자치도,37.7979885609,128.9086892141,"관광,자연"
경포해수욕장,강원특별자치도,37.8058292968,128.9074668585,"관광,자연"
경포호수광장,강원특별자치도,37.7977913781,128.9095224784,"관광,문화"
경현서원,전라남도,35.0665831715,126.7067060605,"관광,문화"
경호강,경상남도,35.4841916717,127.8424061879,"관광,자연"
경화역 벚꽃길,경상남도,35.1590351047,128.6866547133,"관광,자연"
경화역공원,경상남도,35.1590351047,128.6866547133,"관광,자연"
경흥사(경산),경상북도,35.7722303004,128.7056168101,"관광,문화"
경희궁,서울특별시,37.570442502,126.9685079323,"관광,문화"
경희궁 숭정전,서울특별시,37.5577528954,127.0011136538,"관광,문화"
경희궁 흥화문,서울특별시,37.5698981615,126.9707771853,"관광,문화"
경희천문대,경기도,37.2480013599,127.0808817927,"관광,자연"
계남근린공원,서울특별시,37.5127914822,126.8474483699,"관광,문화"
계남근린공원,서울특별시,19.69442748,117.9925662504,"관광,문화"
계남해변,인천광역시,37.1594114201,126.2786654689,"관광,자연"
계담서원,충청북도,36.8710479112,127.864218983,"관광,문화"
계동배렴가옥,서울특별시,37.5813498946,126.9867059647,"관광,문화"
계룡 사계고택,충청남도,36.2655816518,127.271408256,"관광,문화"
계룡 입암저수지,충청남도,36.2417451867,127.2543159801,"관광,자연"
계룡돈대,인천광역시,37.723527666,126.3538237336,"관광,문화"
계룡산국립공원,충청남도,36.356873299,127.2324620609,"관광,자연"
계룡산상신농촌체험휴양마을,충청남도,36.3847448812,127.21959024,"관광,문화"
계룡산신도내주초석석재,충청남도,36.254652103,127.2576375592,"관광,문화"
계마항,전라남도,35.3896416165,126.4072107385,"관광,자연"
계명산 자연휴양림,충청북도,36.9785629705,127.9956680059,"관광,자연"
계방산(평창),강원특별자치도,37.707151218,128.444544986,"관광,자연"
계산국민체육공원,인천광역시,37.5450300732,126.7289832721,"관광,문화"
계산서원,전북특별자치도,35.4561440235,126.5044059903,"관광,문화"
계송서원,전라남도,35.3018117683,126.518919654,"관광,문화"
계수밤농장,경기도,37.4410520763,126.8184141365,"관광,문화"
계양공원,인천광역시,37.5501849296,126.723400304,"관광,문화"
계양꽃마루,인천광역시,37.5325151261,126.743898928,"관광,문화"
계양산,인천광역시,37.550237702,126.7234086347,"관광,자연"
계양산 산림욕장,인천광역시,37.5497517735,126.7305135554,"관광,자연"
계양산장미원,인천광역시,37.5471017664,126.7127513617,"관광,자연"
계원사(양산),경상남도,35.3412295576,129.0441324451,"관광,문화"
계족산(영월),강원특별자치도,37.1618151571,128.4969260372,"관광,자연"
고강선사유적공원,경기도,37.5243784812,126.8169563803,"관광,문화"
고경명선생비,충청남도,36.1229459521,127.4733190694,"관광,문화"
고구려목장,경기도,38.0011316368,126.9921684399,"관광,문화"
고군산군도,전북특별자치도,35.8168440944,126.4712109761,"관광,자연"
고군산대교,전북특별자치도,35.8130885149,126.4443606944,"관광,문화"
고근산,제주특별자치도,33.2668281661,126.5139125656,"관광,자연"
고금도,전라남도,34.4062510113,126.8246284492,"관광,자연"
고기동 오리촌,경기도,37.3584992062,127.0548921627,"관광,문화"
고기리계곡,경기도,37.3585517886,127.0443153442,"관광,자연"
고남 저수지,충청남도,36.8212558476,126.4253306449,"관광,자연"
고남산 자철석 광산 (한탄강 유네스코 세계지질공원),경기도,38.0992297581,127.2129175697,"관광,자연"
고내포구,제주특별자치도,33.4670588041,126.3379150223,"관광,자연"
고당조만식선생동상,서울특별시,37.5500801547,127.0771625,"관광,문화"
고대산자연휴양림,경기도,38.2113155104,127.1506644287,"관광,자연"
고대지구근린공원,충청남도,36.9760829822,126.7776056767,"관광,문화"
고덕생활체육공원,경기도,37.8044531036,127.0640508693,"관광,문화"
고덕수변공원,경기도,37.0464574132,127.0482070291,"관광,문화"
고라데이마을,강원특별자치도,37.6488466228,128.1396326366,"관광,문화"
고래불 해안 (경북 동해안 국가지질공원),경상북도,36.5994609142,129.4109336045,"관광,자연"
고래불해수욕장,경상북도,36.5988498611,129.4103503413,"관광,자연"
고래뿌리선착장,경기도,37.1999950931,126.5692295884,"관광,자연"
고랭길,강원특별자치도,37.5803499411,128.336278028,"관광,자연"
고랭지만두마을,강원특별자치도,37.69032181,128.6919648396,"관광,문화"
고려궁지,인천광역시,37.7508851202,126.4854359021,"관광,문화"
고려동유적지,경상남도,35.2765289124,128.4600491327,"관광,문화"
고려천도공원,인천광역시,37.8038257706,126.4631003574,"관광,문화"
고렴공원,경기도,37.2406818395,127.0292255714,"관광,문화"
고령 신촌숲,경상북도,35.665688603,128.1966089872,"관광,자연"
고령 장기리 암각화,경상북도,35.7128155575,128.2921603954,"관광,문화"
고령 주산성,경상북도,35.736159561,128.260345896,"관광,문화"
고령 지산동 고분군,경상북도,35.7263411025,128.2534217747,"관광,문화"
고령박씨종중재실,충청남도,36.7784534071,127.2723442081,"관광,문화"
고령생활체육공원,경상북도,35.7208061052,128.2803167769,"관광,문화"
고령안화리암각화,경상북도,35.7018190201,128.2613384112,"관광,문화"
고령예마을,경상북도,35.7931939199,128.213434589,"관광,문화"
고령향교,경상북도,35.7290993365,128.2651512209,"관광,문화"
고로서원,충청남도,36.5109630539,127.0224573019,"관광,문화"
고로쇠마을(미산마을),강원특별자치도,37.864655744,128.328728461,"관광,문화"
고림사,전북특별자치도,35.8072056779,127.4042253049,"관광,문화"
고마나루,충청남도,36.4687082638,127.1063453516,"관광,문화"
고마루 카르스트,강원특별자치도,37.29969389,128.5054628488,"관광,자연"
고마리마을,전라남도,34.5672301199,126.9864936855,"관광,문화"
고모산성,경상북도,36.6617378754,128.1276124617,"관광,문화"
고모저수지,경기도,37.7990722068,127.1638252451,"관광,자연"
고모호수공원,경기도,37.7940311361,127.1643114573,"관광,문화"
고배기동산,제주특별자치도,33.3308301199,126.3817114923,"관광,자연"
고봉산,경기도,37.6925528931,126.7908123647,"관광,자연"
고부향교,전북특별자치도,35.6216686028,126.7707336667,"관광,문화"
고불암,경상남도,35.8025038334,128.051795835,"관광,문화"
고사포해수욕장,전북특별자치도,35.6619179225,126.5082532575,"관광,자연"
고산,전북특별자치도,35.3301494949,126.6414219602,"관광,자연"
고산 9경,충청북도,36.8172201853,127.8327261115,"관광,자연"
고산 윤선도 문학체험공원,전라남도,34.1596324559,126.552710915,"관광,문화"
고산골,대구광역시,35.8191841675,128.6007580634,"관광,문화"
고산골 메타쉐콰이어길,대구광역시,35.8300524321,128.6034408589,"관광,자연"
고산문화공원,전북특별자치도,35.974214201,127.231225168,"관광,자연"
고산사 석조관음보살좌상,충청북도,36.928162646,128.1153587189,"관광,문화"
고산사 석조나한상,충청북도,36.928162646,128.1153587189,"관광,문화"
고산사(장흥),전라남도,34.7652687143,126.9687598303,"관광,문화"
고산서당,대구광역시,35.8526436717,128.7186911959,"관광,문화"
고산서원(안동),경상북도,36.5052882068,128.6772624462,"관광,문화"
고산서원(울진),경상북도,36.9689486043,129.3750034643,"관광,문화"
고산서원(장성),전라남도,35.2726760365,126.8414723284,"관광,문화"
고산일과해안도로 (일과리해안도로),제주특별자치도,33.256424536,126.2099419548,"관광,자연"
고산자연휴양림,전북특별자치도,35.9629766259,127.2331252962,"관광,자연"
고산정,경상북도,36.7676706436,128.8921440491,"관광,문화"
고산향교,전북특별자치도,35.976113679,127.2137377876,"관광,문화"
고삼호수,경기도,37.0884429098,127.2849677871,"관광,자연"
고색뉴지엄,경기도,37.2401420342,126.9743222348,"관광,문화"
고석사(포항),경상북도,35.9151839495,129.4636184792,"관광,문화"
고석정 (한탄강 유네스코 세계지질공원),강원특별자치도,38.1860265295,127.2869221163,"관광,자연"
고석정 꽃밭,강원특별자치도,38.1882847569,127.2955240388,"관광,자연"
고석정국민관광지,강원특별자치도,38.1860265295,127.2869221163,"관광,문화"
고선계곡(구마계곡),경상북도,36.9856165488,128.9656199369,"관광,자연"
고성 내산리 고분군,경상남도,35.0461379647,128.4519226679,"관광,문화"
고성 덕명리 공룡과 새발자국 화석산지,경상남도,34.9078370512,128.1546217137,"관광,자연"
고성 문암리 유적,강원특별자치도,38.3047587164,128.5444286243,"관광,문화"
고성 소을비포진성,경상남도,34.9023771683,128.1894715907,"관광,문화"
고성 솔섬,경상남도,34.9328211928,128.2014780798,"관광,문화"
고성 어명기 고택,강원특별자치도,38.3147764738,128.5177529605,"관광,문화"
고성 왕곡마을,강원특별자치도,38.34059811,128.4995815837,"관광,문화"
고성 자란만,경상남도,34.9404455161,128.2114770075,"관광,자연"
고성 장산숲,경상남도,35.0593620138,128.3266888113,"관광,자연"
고성 제3기 현무암 (강원평화지역 국가지질공원),강원특별자치도,38.2829827284,128.5059272541,"관광,자연"
고성 통일전망타워,강원특별자치도,38.5147706205,128.4173974953,"관광,문화"
고성 학동마을 옛 담장,경상남도,34.9444364434,128.1950033417,"관광,문화"
고성당항포랜드,경상남도,35.0563858594,128.3986687125,"관광,문화"
고성독수리생태체험관 (날아라 고성독수리),경상남도,34.9859284832,128.3211995635,"관광,문화"
고성리산성,강원특별자치도,37.2586252678,128.5920924092,"관광,문화"
고성사(강진),전라남도,34.6577218415,126.7652053663,"관광,문화"
고성장산리허씨고가,경상남도,35.0603507432,128.3239501354,"관광,문화"
고성향교,경상남도,34.9761543599,128.3089508904,"관광,문화"
고소대,전라남도,34.7401124468,127.738873478,"관광,문화"
고소동 천사벽화마을,전라남도,34.7383571176,127.7405900393,"관광,문화"
고스락,전북특별자치도,36.0459040975,126.9606807544,"관광,문화"
고스트타운,제주특별자치도,33.4763969581,126.3568659412,"관광,문화"
고싸움놀이테마파크,광주광역시,35.0695405521,126.8354973795,"관광,문화"
고씨굴 (강원고생대 국가지질공원),강원특별자치도,37.1307444591,128.5353790658,"관광,자연"
고양 벽제관지,경기도,37.7042646003,126.9003436904,"관광,문화"
고양 서삼릉 [유네스코 세계유산],경기도,37.6639909412,126.8685255167,"관광,문화"
고양 서오릉 [유네스코 세계유산],경기도,37.623610106,126.9007820485,"관광,문화"
고양 피크닉시민공원,경기도,37.6854140839,126.7486358664,"관광,문화"
고양관광특구,경기도,37.6595397482,126.7727121731,"관광,문화"
고양낙농치즈테마체험장,경기도,37.697261795,126.8533287401,"관광,문화"
고양드론앵커센터,경기도,37.604414517,126.8672578726,"관광,문화"
고양생태공원,경기도,37.6840002796,126.7441418731,"관광,자연"
고양향교,경기도,37.703725675,126.894816433,"관광,문화"
고용산(고룡산),충청남도,36.8879495801,126.9848143455,"관광,자연"
고운골 남한강 갈대숲,충청북도,37.0197515446,128.3820043976,"관광,자연"
고운동계곡,경상남도,35.2342077005,127.7820180781,"관광,자연"
고운뜰공원,세종특별자치시,36.5125528023,127.2391322492,"관광,문화"
고운사(의성),경상북도,36.458639339,128.7501073295,"관광,문화"
고운식물원,충청남도,36.4337812374,126.7606634539,"관광,자연"
고원통계곡,강원특별자치도,38.2129508491,128.1578055727,"관광,자연"
고원화목원,전북특별자치도,35.6832081835,127.3777448095,"관광,자연"
고원희가옥,광주광역시,35.0922075057,126.8395075721,"관광,문화"
고잔저수지,경기도,37.0677497116,126.9093134591,"관광,자연"
고진하 가옥,강원특별자치도,37.1740949988,128.3868966548,"관광,문화"
고창 고인돌 유적 [유네스코 세계유산],전북특별자치도,35.4489417266,126.6499126742,"관광,문화"
고창 무장 동학농민혁명 기포지,전북특별자치도,35.4042719907,126.4959413715,"관광,문화"
고창 무장객사,전북특별자치도,35.4184297466,126.557429994,"관광,문화"
고창 무장현 관아와 읍성,전북특별자치도,35.4179798008,126.5575994348,"관광,문화"
고창 분청사기요지,전북특별자치도,35.5389566069,126.6556876701,"관광,문화"
고창 운곡람사르습지,전북특별자치도,35.4693367042,126.6540256843,"관광,자연"
고창 장호어촌체험휴양마을,전북특별자치도,35.4681613284,126.4580487055,"관광,문화"
고창갯벌,전북특별자치도,35.5311328965,126.5143810025,"관광,자연"
고창신재효고택,전북특별자치도,35.4322000769,126.7030639278,"관광,문화"
고창웰파크시티,전북특별자치도,35.4320812865,126.7410244472,"관광,문화"
고창읍성,전북특별자치도,35.4303280891,126.7044055224,"관광,문화"
고창읍성 도예체험장,전북특별자치도,35.432500083,126.7054775943,"관광,문화"
고창향교,전북특별자치도,35.4374800292,126.7028027068,"관광,문화"
고척근린공원,서울특별시,37.5066367467,126.8533341175,"관광,문화"
고척동 고인돌,서울특별시,37.5086169645,126.8473068338,"관광,문화"
고천마을,강원특별자치도,37.4181715152,129.0625565368,"관광,문화"
고천암 자연생태공원,전라남도,34.5231902986,126.4627296611,"관광,자연"
고천암호(철새도래지),전라남도,34.5236431702,126.4715927592,"관광,자연"
고촌이종근기념관,서울특별시,37.5597464264,126.9631392793,"관광,문화"
고택문화체험관,전북특별자치도,35.6166039952,127.0201949462,"관광,문화"
고포마을,강원특별자치도,37.1454670312,129.362263116,"관광,문화"
고하도선착장,전라남도,34.7654921494,126.3727456895,"관광,자연"
고하송진우선생동상,서울특별시,37.5493552228,127.0762792676,"관광,문화"
고헌산(울산),울산광역시,35.6396001019,129.1150012809,"관광,자연"
고현리 공룡발자국화석,경상남도,35.102765437,128.4790910101,"관광,자연"
고흐의 길,부산광역시,35.1757618302,129.1849303013,"관광,자연"
고흥 무열사,전라남도,34.643229387,127.2837657494,"관광,문화"
고흥 신기거북이마을,전라남도,34.740898672,127.2648705324,"관광,문화"
고흥 유자공원,전라남도,34.5723920566,127.2353522997,"관광,문화"
고흥 작약 꽃밭,전라남도,34.6051734978,127.5033558083,"관광,자연"
고흥 해창만 간척지 공원,전라남도,34.5822186348,127.3933410039,"관광,문화"
고흥우주천문과학관,전라남도,34.5526312994,127.1250541164,"관광,자연"
고흥장수호힐링정원,전라남도,34.6043812971,127.3036371949,"관광,자연"
곡강천생태공원,경상북도,36.123444339,129.3496307825,"관광,자연"
곡교천 은행나무길,충청남도,36.7995464432,127.0168277624,"관광,자연"
곡성 메타세쿼이아길,전라남도,35.2955729568,127.3008005653,"관광,자연"
곡성 함허정,전라남도,35.3224935275,127.2202319938,"관광,문화"
곡수서원,전라남도,34.9602897115,127.5312916184,"관광,문화"
곡운구곡 (강원평화지역 국가지질공원),강원특별자치도,38.0532605818,127.5387168938,"관광,자연"
곤제근린공원,경기도,37.7467963073,127.0849256196,"관광,문화"
곤지바위,경기도,37.349594243,127.3387611019,"관광,자연"
곤지암리조트,경기도,37.3366645398,127.3031619183,"관광,문화"
곤지암리조트 콘도미니엄,경기도,37.3374836915,127.2922239974,"관광,문화"
곤지암반디숲,경기도,37.3635230446,127.3309530804,"관광,문화"
골굴사(경주),경상북도,35.8061091858,129.413331572,"관광,문화"
골굴암 타포니 (경북 동해안 국가지질공원),경상북도,35.8057841422,129.40910695,"관광,자연"
골목대장,전북특별자치도,35.8134977974,127.1527308297,"관광,문화"
골정 저수지,충청남도,36.8185187632,126.6717750779,"관광,자연"
곰내미체험마을,경상남도,35.8017709104,127.9153829176,"관광,문화"
곰내연밭,부산광역시,35.2954092493,129.1695450043,"관광,자연"
곰소염전,전북특별자치도,35.5949856849,126.6161258878,"관광,자연"
곰소항,전북특별자치도,35.5861059588,126.605446508,"관광,자연"
곱돌광산약수터,경기도,37.5215753492,127.2429982248,"관광,자연"
공덕동 족발골목,서울특별시,37.5445785695,126.953343379,"관광,문화"
공룡공원,대구광역시,35.8300524321,128.6034408589,"관광,문화"
공룡발자국공원,울산광역시,35.5626623497,129.3061895174,"관광,문화"
공룡테마공원 (다이노 키즈월드),전북특별자치도,35.9907045238,127.102605645,"관광,문화"
공릉천,경기도,37.6879271292,126.8733188448,"관광,자연"
공마당둘레길,전라남도,34.9548283012,127.4783575169,"관광,자연"
공산성 광복루,충청남도,36.4603485194,127.1295129429,"관광,문화"
공산성 쌍수정,충청남도,36.4622843409,127.1256493485,"관광,문화"
공산성연지,충청남도,36.4639480871,127.1284157218,"관광,문화"
공수어촌체험마을,부산광역시,35.1844585662,129.2111944455,"관광,문화"
공수전계곡,강원특별자치도,38.0340155463,128.5611022078,"관광,자연"
공수전리 마을관리휴양지,강원특별자치도,38.036845741,128.5594244943,"관광,문화"
공업탑,울산광역시,35.5366264476,129.309342753,"관광,문화"
공작산생태숲,강원특별자치도,37.6965320616,127.9547146295,"관광,자연"
공주 공산성 [유네스코 세계유산],충청남도,36.4629981682,127.1268075582,"관광,문화"
공주 석장리 유적,충청남도,36.4475288314,127.1899189817,"관광,문화"
공주 우금치 전적,충청남도,37.0000500157,127.1119164418,"관광,문화"
공주 원골마을,충청남도,36.5277683917,126.9616067637,"관광,문화"
공주 정지산 유적,충청남도,36.4695139254,127.1175998755,"관광,문화"
공주 중동성당,충청남도,36.4551824131,127.1277076887,"관광,문화"
공주 환경성 건강 센터,충청남도,36.4304352185,127.1259251817,"관광,문화"
공주 황새바위 순교성지,충청남도,36.4639646057,127.1200886904,"관광,문화"
공주상신리 당간지주,충청남도,36.3844532202,127.2180070562,"관광,문화"
공주서혈사지,충청남도,36.4434028916,127.1097151753,"관광,문화"
공주시 안전체험공원,충청남도,36.4945079541,127.0990314234,"관광,문화"
공주치즈스쿨,충청남도,36.5198051423,126.9459000567,"관광,문화"
공주향교,충청남도,36.4583568588,127.1168863516,"관광,문화"
공지천 조각공원,강원특별자치도,37.8732986704,127.7126813699,"관광,문화"
공지천유원지,강원특별자치도,37.8746901179,127.7096010535,"관광,문화"
공현진1리해변,강원특별자치도,38.350844352,128.5106302561,"관광,자연"
공현진항,강원특별자치도,38.3569572766,128.497709019,"관광,자연"
과개안(너븐개) 해안,울산광역시,35.4922811141,129.43995484,"관광,자연"
과일나라테마공원,충청북도,36.1606445845,127.7931201276,"관광,문화"
과자의성,강원특별자치도,38.2028426549,128.5364158716,"관광,문화"
과천 플레이월드,경기도,37.4339007896,127.0111412395,"관광,문화"
과천향교,경기도,37.4334643048,126.9874350747,"관광,문화"
곽지해수욕장,제주특별자치도,33.4485353054,126.3031045774,"관광,자연"
관곶,제주특별자치도,33.5532541319,126.6440808896,"관광,자연"
관광커뮤니티센터 여기,경상북도,36.5606995743,128.7315893566,"관광,문화"
관덕정(제주),제주특별자치도,33.513295493,126.5219701925,"관광,문화"
관덕정의 각궁,광주광역시,35.1419253355,126.9118638245,"관광,문화"
관동마을,경상남도,35.0855380447,127.7660205704,"관광,문화"
관란서원,경상북도,35.7925752543,128.8571307064,"관광,문화"
관룡사,경상남도,35.5319601845,128.5534645773,"관광,문화"
관매도,전라남도,34.2411375211,126.0520835135,"관광,자연"
관문사(서울),서울특별시,37.4737408098,127.0222641043,"관광,문화"
관문체육공원,경기도,37.440958003,126.9943314586,"관광,문화"
관방제림,전라남도,35.3235005111,126.9856777193,"관광,자연"
관북리유적과 부소산성 [유네스코 세계유산],충청남도,36.2855314361,126.9133647824,"관광,문화"
관사골작업실 협동조합,경상북도,36.8286362591,128.6187304939,"관광,문화"
관산서당,경상남도,35.5709107777,128.5223079142,"관광,문화"
관수옥과 초량왜관 터,부산광역시,35.1005396593,129.0327483723,"관광,문화"
관악도시농업공원,서울특별시,37.464923464,126.9271202346,"관광,자연"
관악산 낙성대공원,서울특별시,37.4711316683,126.9602475997,"관광,문화"
관악산 선우공원,서울특별시,37.4692949186,126.9125881016,"관광,자연"
관악산자연공원,서울특별시,37.4663402951,126.9455546273,"관광,자연"
관암사(대구),대구광역시,35.9776742307,128.7332252988,"관광,문화"
관음굴(삼척 대이리 동굴지대),강원특별자치도,37.3295813487,129.0439386855,"관광,자연"
관음사(곡성),전라남도,35.2147380918,127.1653257044,"관광,문화"
관음사(대구),대구광역시,35.9189546191,128.665152389,"관광,문화"
관음사(무주),전북특별자치도,36.0004793474,127.7853446231,"관광,문화"
관음사(부산),부산광역시,35.1088376838,128.9758364301,"관광,문화"
관음사(서울),서울특별시,37.4676601403,126.9765239933,"관광,문화"
관음사(제주),제주특별자치도,33.4237615317,126.5581440803,"관광,문화"
관음사·국형사계곡,강원특별자치도,37.333655725,128.0141255047,"관광,자연"
관음사국기봉,서울특별시,37.4403515161,126.9383143508,"관광,자연"
관음사석탑,충청남도,36.8583635261,126.9521819903,"관광,문화"
관음정사(김해),경상남도,35.2216038913,128.7309158254,"관광,문화"
관점마을,경상남도,35.1438070544,127.7982773373,"관광,문화"
관촉사(논산),충청남도,36.1888348777,127.1136855228,"관광,문화"
관훈동 민씨 가옥 (구 부마도위박영효가옥),서울특별시,37.5585082277,126.9935754302,"관광,문화"
광개토태왕비ㆍ동상,경기도,37.5870296093,127.1309204428,"관광,문화"
광경사지 석불좌상,충청남도,36.6141868795,126.6795242974,"관광,문화"
광교 프라이부르크전망대,경기도,37.2807250828,127.0660072256,"관광,문화"
광교마루길,경기도,37.3027052472,127.0311736602,"관광,자연"
광교산,경기도,37.3450531764,127.0344138451,"관광,자연"
광교산 형제봉,경기도,37.3288523239,127.0371140543,"관광,자연"
광교산체육공원,경기도,37.3528386939,127.0516842798,"관광,문화"
광교호수공원,경기도,37.2833192997,127.0700734505,"관광,문화"
광교호수공원 반려견 놀이터,경기도,37.2835610668,127.0772644577,"관광,문화"
광나루안전체험관,서울특별시,37.5513105664,127.077162465,"관광,문화"
광나루자전거공원,서울특별시,37.5453008895,127.1179978077,"관광,문화"
광나루한강공원,서울특별시,37.549969869,127.1222583979,"관광,문화"
광나루한강공원 암사생태공원,서울특별시,37.5500198634,127.1222639517,"관광,자연"
광남서원,경상북도,35.9425124845,129.5192655954,"관광,문화"
광대곡,강원특별자치도,37.3164951288,128.8167566443,"관광,자연"
광덕계곡,강원특별자치도,38.0763151672,127.4817103088,"관광,자연"
광덕사(상주),경상북도,36.3338886814,128.0974493822,"관광,문화"
광덕산,충청남도,36.6759000112,127.0423232763,"관광,자연"
광덕산 관광농원,충청남도,36.6743972978,127.0361683163,"관광,문화"
광덕산(아산),충청남도,36.6889095067,127.0355346456,"관광,자연"
광명동굴,경기도,37.4243548415,126.8648909266,"관광,자연"
광명사(제주),제주특별자치도,33.249045297,126.4190406356,"관광,문화"
광명선원,충청북도,36.9855880108,127.5871767532,"관광,문화"
광명항,인천광역시,37.3750752386,126.436559108,"관광,자연"
광복로패션거리,부산광역시,35.0986398717,129.0327400915,"관광,문화"
광산김씨 유일재고택,경상북도,36.6163884647,128.7740895225,"관광,문화"
광석대 (무등산권 국가지질공원),전라남도,35.1204378371,127.0148136008,"관광,자연"
광성보,인천광역시,37.6641793544,126.5302453301,"관광,문화"
광수사,대전광역시,36.3423455726,127.2985204289,"관광,문화"
광시한우거리,충청남도,36.5489071491,126.7747591222,"관광,문화"
광심정,경상남도,35.3765694462,128.5585266977,"관광,문화"
광안리해변 테마거리,부산광역시,35.1551657503,129.1221363273,"관광,문화"
광안리해수욕장,부산광역시,35.1538130576,129.1185477876,"관광,자연"
광양 옥룡사 동백나무 숲,전라남도,35.0461202998,127.6092270226,"관광,자연"
광양 윤동주 유고보존 정병욱 가옥,전라남도,34.9707924868,127.7591880209,"관광,문화"
광양불고기특화거리,전라남도,34.9696061572,127.579084407,"관광,문화"
광양향교,전라남도,34.9824437602,127.5881193966,"관광,문화"
광제서원,경상남도,35.275407461,128.0310951072,"관광,문화"
광주 3·1 만세운동 기념비,광주광역시,35.136761993,126.9096947007,"관광,문화"
광주 경찰충혼탑,광주광역시,35.142541996,126.9155968119,"관광,문화"
광주 곤지암도자공원,경기도,37.3526075818,127.3276231368,"관광,문화"
광주 산두른마을,경기도,37.2792598597,127.2913729464,"관광,문화"
광주 송정동 떡갈비 골목,광주광역시,35.1397152706,126.7943076079,"관광,문화"
광주 수완호수공원,광주광역시,35.1879824765,126.8202596628,"관광,문화"
광주 조선백자 요지,경기도,37.446631726,127.2684452735,"관광,문화"
광주 충장로 케이팝 스타의 거리,광주광역시,35.147658113,126.9172520929,"관광,문화"
광주 충효동 왕버들 군,광주광역시,35.1848719954,127.0009520932,"관광,자연"
광주 충효동 요지,광주광역시,35.1674711376,126.9983333183,"관광,문화"
광주 평촌마을,광주광역시,35.1756287576,127.0105542557,"관광,문화"
광주공원,광주광역시,35.14689693,126.9079362685,"관광,문화"
광주공원 선정비군,광주광역시,35.1472246955,126.9093972429,"관광,문화"
광주시립수목원,광주광역시,35.0905917436,126.882389934,"관광,자연"
광주용화선원,경기도,37.3620513048,127.1945654928,"관광,문화"
광주지산동오층석탑,광주광역시,35.1489026847,126.9330951059,"관광,문화"
광주패밀리랜드,광주광역시,35.2227325653,126.8936078564,"관광,문화"
광주폴리,광주광역시,35.1826203741,126.890259159,"관광,문화"
광주향교,광주광역시,35.1459803899,126.9092917275,"관광,문화"
광주호,광주광역시,35.1840804198,127.0010882121,"관광,자연"
광주호 호수생태원,광주광역시,35.1840804198,127.0010882121,"관광,자연"
광진광장공원,서울특별시,37.5477470211,127.0732295916,"관광,문화"
광진교 8번가,서울특별시,37.5444759163,127.1141592915,"관광,문화"
광천생활체육공원,충청남도,36.5073484031,126.6354866605,"관광,문화"
광천서원,경상남도,35.473211808,128.7357390968,"관광,문화"
광천선굴어드벤처테마파크,강원특별자치도,37.5188259153,128.4516722463,"관광,자연"
광천토굴새우젓단지,충청남도,36.4852533774,126.6156112576,"관광,문화"
광치계곡,강원특별자치도,38.136913419,128.060816738,"관광,자연"
광치기해변,제주특별자치도,33.4523086956,126.9239478125,"관광,자연"
광통교,서울특별시,37.5691539885,126.9811151529,"관광,문화"
광풍정,경상북도,36.6128034671,128.6641688376,"관광,문화"
광한루,전북특별자치도,35.4021539472,127.3799713796,"관광,문화"
광한루원,전북특별자치도,35.4029038525,127.3793853018,"관광,문화"
광화문,서울특별시,37.576072552,126.9768042386,"관광,문화"
광화문광장,서울특별시,37.5727035021,126.9769709861,"관광,문화"
광흥당,서울특별시,37.5486359893,126.9286760682,"관광,문화"
광흥사(안동),경상북도,36.6460320522,128.6135612645,"관광,문화"
괘병산(정선),강원특별자치도,37.4839368496,128.9551308193,"관광,자연"
괴목마을,경상남도,35.1079824465,127.7491464709,"관광,문화"
괴산 문당리 서낭단,충청북도,36.7434898072,127.6826360926,"관광,문화"
괴산 백운사 승탑군,충청북도,36.8547850932,127.6682898114,"관광,문화"
괴산 보안사 삼층석탑,충청북도,36.7573071731,127.6554881414,"관광,문화"
괴산 보안사 석조약사여래좌상,충청북도,36.7573071731,127.6554881414,"관광,문화"
괴산 봉학사지 석조여래좌상,충청북도,36.8193922192,127.6837255317,"관광,문화"
괴산 봉학사지 오층석탑,충청북도,36.8184476059,127.6684185993,"관광,문화"
괴산 삼방리 마애여래좌상,충청북도,36.938619513,127.7995312054,"관광,문화"
괴산 송덕리 미선나무 자생지,충청북도,36.7946302716,127.9384728287,"관광,자연"
괴산 송시열 유적,충청북도,36.6689312511,127.8110766728,"관광,문화"
괴산 수월정,충청북도,36.7471256016,127.8407607044,"관광,문화"
괴산 오가리 느티나무,충청북도,36.8262769691,127.9564508743,"관광,자연"
괴산 올갱이국 거리,충청북도,36.8091287728,127.7957852088,"관광,문화"
괴산 외사리 당간지주,충청북도,36.7716478191,127.842520966,"관광,문화"
괴산 율지리 미선나무 자생지,충청북도,36.7713511099,127.8687241813,"관광,자연"
괴산 읍내리 은행나무,충청북도,36.7724190437,127.6399002281,"관광,자연"
괴산 장담 충신각,충청북도,36.7835538698,127.6395888334,"관광,문화"
괴산 정인지 묘소,충청북도,36.9261491049,127.8202630309,"관광,문화"
괴산 청안 안민헌,충청북도,36.7720107447,127.6392114126,"관광,문화"
괴산 칠충사와 피세정,충청북도,36.7889780608,127.7821536667,"관광,문화"
괴산 홍범식 고가(벽초 홍명희 생가),충청북도,36.813558805,127.7949796011,"관광,문화"
괴산동헌,충청북도,36.8104035658,127.7924660259,"관광,문화"
교동 가마소 (한탄강 유네스코 세계지질공원),경기도,38.100557186,127.202315725,"관광,자연"
교동 연화지,경상북도,36.1435742669,128.0981351646,"관광,자연"
교동 장독대마을,경기도,38.1029349852,127.2186363818,"관광,문화"
교동도(강화),인천광역시,37.7803447584,126.2809677323,"관광,자연"
교동도선착장대합실,인천광역시,37.77496824,126.3170728993,"관광,문화"
교동읍성,인천광역시,37.7694490592,126.2953056067,"관광,문화"
교동저수지(교동생태습지),충청북도,36.3201448735,127.5850176477,"관광,자연"
교동제비집,인천광역시,37.781391829,126.2792873012,"관광,문화"
교동향교,인천광역시,37.7745679477,126.2976774693,"관광,문화"
교래 삼다수마을,제주특별자치도,33.4314987022,126.6780668288,"관광,문화"
교암항,강원특별자치도,38.290174377,128.5481315222,"관광,자연"
교암해변,강원특별자치도,38.2909131613,128.547170475,"관광,자연"
교하동 고인돌 산림욕장,경기도,37.7472539501,126.7402126689,"관광,문화"
교하향교,경기도,37.7496321061,126.7769175758,"관광,문화"
구 강경공립상업고등학교 관사,충청남도,36.1605559606,127.022330555,"관광,문화"
구 나주역,전라남도,35.0276045639,126.7262997356,"관광,문화"
구 서도역,전북특별자치도,35.4898570568,127.3306262502,"관광,문화"
구 인천우체국,인천광역시,37.4700591426,126.623317226,"관광,문화"
구 조선식량영단 군산출장소,전북특별자치도,35.9902422487,126.7098796298,"관광,문화"
구 조선식산은행 원주지점,강원특별자치도,37.3489694554,127.9514307123,"관광,문화"
구강사,서울특별시,37.5449094647,127.1288468315,"관광,문화"
구강서원,울산광역시,35.5599798967,129.336917467,"관광,문화"
구강서원,경상북도,36.0103822233,129.2083047954,"관광,문화"
구계서원,충청북도,36.6134344594,127.4826132028,"관광,문화"
구고서원,경상북도,36.892539608,128.5954168164,"관광,문화"
구곡산,경상남도,35.2744976267,127.7832613606,"관광,자연"
구녀산,충청북도,36.7008712236,127.6133490531,"관광,자연"
구니서당,경상남도,35.5802403282,128.5249129861,"관광,문화"
구담마을,전북특별자치도,35.4924487956,127.1911829756,"관광,문화"
구덕문화공원,부산광역시,35.1264334874,129.0058166756,"관광,문화"
구도 범머리길,충청남도,36.8174163781,126.3657944745,"관광,자연"
구두미포구,제주특별자치도,33.2367272441,126.5967116225,"관광,자연"
구드래조각공원,충청남도,36.2874950148,126.9084235065,"관광,문화"
구라이골 (한탄강 유네스코 세계지질공원),경기도,38.0566345596,127.2034446872,"관광,자연"
구례 관광특구,전라남도,35.2573140182,127.4977425065,"관광,문화"
구례 산수유마을,전라남도,35.3359854716,127.4849693764,"관광,문화"
구례 운조루 고택,전라남도,35.2061200991,127.515442268,"관광,문화"
구례목재문화체험장,전라남도,35.1391836349,127.5406334397,"관광,문화"
구례예술인마을,전라남도,35.2751750445,127.4489380158,"관광,문화"
구례포해수욕장,충청남도,36.8858083861,126.1982717477,"관광,자연"
구로거리공원,서울특별시,37.5030794513,126.8883643588,"관광,자연"
구로공단 노동자생활체험관,서울특별시,37.4828567166,126.8836486898,"관광,문화"
구로근린공원(이씨레물리노공원),서울특별시,37.4971718329,126.889992154,"관광,문화"
구로기계공구단지,서울특별시,37.5038652961,126.8785568966,"관광,문화"
구로리어린이공원,서울특별시,37.4914308667,126.8918449243,"관광,문화"
구룡계곡,전북특별자치도,35.3922568235,127.4810627064,"관광,자연"
구룡마을 대나무 숲,전북특별자치도,36.0124233055,127.0471294687,"관광,자연"
구룡사,강원특별자치도,37.3995043418,128.0498675732,"관광,문화"
구룡산(강원),강원특별자치도,37.329853912,128.1907402567,"관광,자연"
구룡산(서울),서울특별시,37.4690781677,127.0615995465,"관광,자연"
구룡소 돌개구멍 (경북 동해안 국가지질공원),경상북도,36.0568302379,129.5251367609,"관광,자연"
구룡포 말목장성탐방로,경상북도,35.9984984001,129.549033587,"관광,자연"
구룡포 일본인 가옥거리,경상북도,35.9904662115,129.5614299568,"관광,문화"
구룡포 주상절리,경상북도,35.9985876468,129.5681957952,"관광,자연"
구룡포 피어라계단 미디어아트,경상북도,35.9906633933,129.5604855899,"관광,문화"
구룡포해수욕장,경상북도,35.9968322529,129.5662849025,"관광,자연"
구룡폭포(소금강),강원특별자치도,37.802691973,128.6835093795,"관광,자연"
구름숲아토리,전라남도,34.4657885008,126.2975677827,"관광,문화"
구름포해수욕장,충청남도,36.8358883858,126.1530549488,"관광,자연"
구리문화재단,경기도,37.5956035938,127.1298675159,"관광,문화"
구리시곤충생태관,강원특별자치도,37.6122357235,128.3669270822,"관광,자연"
구리역공원,경기도,37.6023474674,127.1416551384,"관광,문화"
구리한강시민공원(코스모스공원),경기도,37.5745310968,127.1328789538,"관광,문화"
구만동계곡,강원특별자치도,38.1942037592,128.3403395264,"관광,자연"
구만마을,전라남도,35.1990655667,127.5285579616,"관광,문화"
구만폭포,경상남도,35.6195423145,128.8738257371,"관광,자연"
구매항,충청남도,36.4247460701,126.432009946,"관광,자연"
구문소 (강원고생대 국가지질공원),강원특별자치도,37.0949998754,129.0395322915,"관광,자연"
구문소마을,강원특별자치도,37.0932944861,129.0380047012,"관광,문화"
구미 금리단길,경상북도,36.1250083986,128.3302567701,"관광,문화"
구미 금산리 떡버들,경상북도,36.1600134265,128.5174642185,"관광,자연"
구미 낙성리 느티나무,경상북도,36.1980594138,128.3840388514,"관광,자연"
구미 선산향교,경상북도,36.2555707508,128.2992058715,"관광,문화"
구미낙동강체육공원,경상북도,36.1376965336,128.3677280976,"관광,문화"
구미동해변,경상남도,34.7861730476,127.8464962268,"관광,자연"
구미역 후면광장,경상북도,36.1289496299,128.3309427108,"관광,문화"
구미정,강원특별자치도,37.4732355895,128.8263954774,"관광,문화"
구복마을,경상남도,35.0729009425,128.5678618359,"관광,문화"
구봉도,경기도,37.2807520797,126.551112361,"관광,자연"
구봉도 낙조전망대,경기도,37.2882592514,126.5345192221,"관광,문화"
구봉산,강원특별자치도,37.8933169902,127.777197126,"관광,자연"
구봉산 전망대 카페거리,강원특별자치도,37.8925559643,127.7770193861,"관광,문화"
구봉산(진안),전북특별자치도,35.9244446218,128.0000220992,"관광,자연"
구봉산근린공원,경기도,37.2048112827,127.0455806452,"관광,문화"
구봉솔숲해수욕장,경기도,37.2819269945,126.55403984,"관광,자연"
구산서원,전북특별자치도,35.7455005474,127.3453849341,"관광,문화"
구산성지,경기도,37.5729517479,127.1894627372,"관광,문화"
구산해수욕장,경상북도,36.7533222575,129.4674823321,"관광,자연"
구성폭포,강원특별자치도,37.9783050468,127.8159299508,"관광,자연"
구송정 유원지,전북특별자치도,35.4306954797,127.2377304453,"관광,문화"
구수곡자연휴양림,경상북도,37.0636166931,129.2914246904,"관광,자연"
구시물,제주특별자치도,33.456530549,126.4097117919,"관광,자연"
구시포마을,전북특별자치도,35.4451414741,126.4433117019,"관광,문화"
구암사(순창),전북특별자치도,35.4553033345,126.8860720932,"관광,문화"
구암사(진도군),전라남도,34.383851899,126.2140520582,"관광,문화"
구암서원,대구광역시,35.8987973485,128.5991476568,"관광,문화"
구암서원 터(구암정),서울특별시,37.5678542251,127.1401145966,"관광,문화"
구암서원(창원),경상남도,35.2519312819,128.5915410698,"관광,문화"
구암저수지,충청북도,36.9789831719,127.4313382005,"관광,자연"
구양서원,경상북도,36.8822663366,128.7710431198,"관광,문화"
구엄어촌체험마을,제주특별자치도,33.4839964391,126.3772556628,"관광,문화"
구엄포구,제주특별자치도,33.4843297214,126.376411284,"관광,자연"
구영공원,울산광역시,35.5710407589,129.242142095,"관광,문화"
구은사,강원특별자치도,38.2554690921,127.4737918063,"관광,문화"
구이 안덕 건강힐링체험마을,전북특별자치도,35.695590841,127.0998330498,"관광,문화"
구장군폭포,전북특별자치도,35.4083228536,127.0668822579,"관광,자연"
구재봉자연휴양림,경상남도,35.1289966606,127.7441130348,"관광,자연"
구절사,충청북도,36.3050950795,127.5002172964,"관광,문화"
구절산,경상남도,35.0146825836,128.419976291,"관광,자연"
구절암(홍성),충청남도,36.569193902,126.6257414558,"관광,문화"
구조라성,경상남도,34.8022668487,128.6950940743,"관광,문화"
구조라항,경상남도,34.8032584477,128.6974938394,"관광,자연"
구천댐(구천저수지),경상남도,34.8247326845,128.6340765597,"관광,문화"
구천동계곡,전북특별자치도,35.9007210587,127.7750676763,"관광,자연"
구천서원(김해),경상남도,35.3028145625,128.9011293111,"관광,문화"
구천서원(함양),경상남도,35.5547660422,127.7868536631,"관광,문화"
구포 어린이교통공원,부산광역시,35.201058353,128.9999845896,"관광,문화"
구포만세거리,부산광역시,35.206677128,128.9978124028,"관광,문화"
구포생활체육공원,경상북도,36.13351711,128.4034389416,"관광,문화"
국가유산 방문 캠페인 인천공항 홍보관,인천광역시,37.4477031811,126.4521751331,"관광,문화"
국계서원,충청북도,36.7152495068,127.5789184083,"관광,문화"
국동항,전라남도,34.7263609059,127.7213781344,"관광,자연"
국동항수변공원,전라남도,34.727838581,127.7250111131,"관광,문화"
국립 3·15 민주묘지,경상남도,35.2527088998,128.5875580642,"관광,문화"
국립 5·18 민주묘지,광주광역시,35.2358457501,126.9395617934,"관광,문화"
국립 가리왕산자연휴양림,강원특별자치도,37.4268471267,128.5700393556,"관광,자연"
국립 검마산자연휴양림,경상북도,36.7454741795,129.2339226976,"관광,자연"
국립 달음산자연휴양림,부산광역시,35.3027559437,129.1854434167,"관광,자연"
국립 대야산자연휴양림,경상북도,36.670906003,127.9619770044,"관광,자연"
국립 대전 현충원,대전광역시,36.3632959655,127.2991975797,"관광,문화"
국립 덕유산자연휴양림,전북특별자치도,35.908143148,127.8148028419,"관광,자연"
국립 두타산자연휴양림,강원특별자치도,37.5596930115,128.5758764931,"관광,자연"
국립 망향의 동산,충청남도,36.8521767673,127.1888663613,"관광,문화"
국립 미천골자연휴양림,강원특별자치도,37.9489994722,128.5120426092,"관광,자연"
국립 방태산자연휴양림,강원특별자치도,37.9297382126,128.387979441,"관광,자연"
국립 백운산자연휴양림(원주),강원특별자치도,37.2772136803,127.9421225302,"관광,자연"
국립 복주산자연휴양림,강원특별자치도,38.1437543593,127.4732201929,"관광,자연"
국립 삼봉자연휴양림,강원특별자치도,37.8521347278,128.4608696552,"관광,자연"
국립 신불산폭포자연휴양림,울산광역시,35.5259945138,129.0232319274,"관광,자연"
국립 용대자연휴양림,강원특별자치도,38.2316443099,128.364663931,"관광,자연"
국립 용지봉 자연휴양림,경상남도,35.1855532031,128.7759573163,"관광,자연"
국립 용현자연휴양림,충청남도,36.7519281053,126.6076521078,"관광,자연"
국립 용화산자연휴양림,강원특별자치도,38.0062332216,127.7141439487,"관광,자연"
국립 운문산자연휴양림,경상북도,35.6492056312,129.0228646313,"관광,자연"
국립 운악산자연휴양림,경기도,37.8844509085,127.3027878569,"관광,자연"
국립 운장산자연휴양림,전북특별자치도,35.8963458988,127.4244517017,"관광,자연"
국립 유명산자연휴양림,경기도,37.5932493406,127.4914680287,"관광,자연"
국립 지리산자연휴양림,경상남도,35.3437786844,127.6240207984,"관광,자연"
국립 천관산자연휴양림,전라남도,34.5451339297,126.8998851572,"관광,자연"
국립 청태산자연휴양림,강원특별자치도,37.5225141217,128.291911539,"관광,자연"
국립 통고산자연휴양림,경상북도,36.933712963,129.1917680299,"관광,자연"
국립 황정산자연휴양림,충청북도,36.8412603023,128.3489930942,"관광,자연"
국립 희리산해송자연휴양림,충청남도,36.1173547912,126.6683911578,"관광,자연"
국립4·19민주묘지,서울특별시,37.6484480504,127.0091159038,"관광,문화"
국립곡성치유의숲,전라남도,35.3109286587,127.2487519917,"관광,자연"
국립김천숲속야영장,경상북도,35.9499270286,127.9550170585,"관광,자연"
국립김천치유의숲,경상북도,35.8514140611,128.0022377784,"관광,문화"
국립나주숲체원,전라남도,35.0474936168,126.7042095309,"관광,자연"
국립남해편백자연휴양림,경상남도,34.75214378,128.020154154,"관광,자연"
국립대관령자연휴양림,강원특별자치도,37.7149097631,128.7905413133,"관광,자연"
국립대관령치유의숲,강원특별자치도,37.7077413074,128.7987935679,"관광,문화"
국립대운산치유의숲,울산광역시,35.3901665277,129.2361865678,"관광,문화"
국립무의도자연휴양림,인천광역시,37.388567699,126.4126914722,"관광,자연"
국립백두대간수목원,경상북도,37.0081335894,128.8299535859,"관광,자연"
국립산림치유원,경상북도,36.8578218299,128.472601016,"관광,자연"
국립생태원(서천),충청남도,36.0297102165,126.7246689502,"관광,자연"
국립생태원에코리움,충청남도,36.0271354218,126.7194583721,"관광,자연"
국립세종수목원,세종특별자치시,36.4986579981,127.2857090051,"관광,자연"
국립수목원(광릉숲),경기도,37.7595768998,127.1690120221,"관광,자연"
국립아세안자연휴양림,경기도,37.7738766886,126.942193438,"관광,자연"
국립양평치유의숲,경기도,37.461185487,127.7181068651,"관광,문화"
국립예산치유의숲,충청남도,36.7032769852,126.8595751138,"관광,자연"
국립임실호국원,전북특별자치도,35.5507893785,127.1895732782,"관광,문화"
국립장성숲체원,전라남도,35.444088434,126.7514232211,"관광,자연"
국립제천치유의숲,충청북도,37.0128775418,128.2447946692,"관광,문화"
국립중앙박물관 전통염료식물원,서울특별시,37.5211706397,126.9791278024,"관광,자연"
국립진도자연휴양림,전라남도,34.3575710683,126.186446769,"관광,자연"
국립진안고원산림치유원,전북특별자치도,35.679906865,127.4397616192,"관광,자연"
국립청도숲체원,경상북도,35.6512110229,129.0261781745,"관광,자연"
국립청소년생태센터,부산광역시,35.1128367289,128.9481998378,"관광,문화"
국립청소년우주센터,전라남도,34.5330143031,127.4682745639,"관광,문화"
국립청옥산자연휴양림,경상북도,37.0387638157,128.9958489862,"관광,자연"
국립축산과학원 한우연구소,강원특별자치도,37.6884523168,128.678246689,"관광,문화"
국립춘천숲체원,강원특별자치도,37.9785986109,127.7707618348,"관광,자연"
국립칠곡숲체원,경상북도,36.0645232859,128.4640105132,"관광,자연"
국립한국자생식물원,강원특별자치도,37.70694618,128.6149990499,"관광,자연"
국립횡성숲체원,강원특별자치도,37.5372734279,128.2867115673,"관광,자연"
국망봉자연휴양림(포천),경기도,38.0288913418,127.3962195284,"관광,자연"
국민의 숲 트레킹 코스,강원특별자치도,37.6846095239,128.740693956,"관광,문화"
국사봉(순창),전북특별자치도,35.5360404765,126.9946381748,"관광,자연"
국사봉(인천),인천광역시,37.3915951817,126.4159494251,"관광,자연"
국사암(안성),경기도,37.0713625793,127.3422686455,"관광,문화"
국사암(하동),경상남도,35.2377299936,127.650168476,"관광,문화"
국산서원,경상남도,35.0147573324,128.4064246939,"관광,문화"
"국수바위 (울릉도,독도 국가지질공원)",경상북도,19.69442748,117.9925662504,"관광,자연"
국우동 탱자나무,대구광역시,35.9531297374,128.5804811194,"관광,자연"
국제광림비전랜드,경기도,37.6801952457,127.3642159692,"관광,자연"
국제선센터,서울특별시,37.5207742914,126.8700849711,"관광,문화"
국제시장 먹자골목,부산광역시,35.1011311741,129.0280793175,"관광,문화"
국제음식문화거리(INTERNATIONAL FOOD STREET),서울특별시,37.5058319638,126.8914195585,"관광,문화"
국제크루즈터미널,부산광역시,35.0807982803,129.0791976502,"관광,문화"
국제평화아트파크,강원특별자치도,38.2111480088,127.851075284,"관광,문화"
국지산,강원특별자치도,37.1401139206,128.4464006515,"관광,자연"
국청사(경기),경기도,37.484070177,127.177180277,"관광,문화"
국청사(부산),부산광역시,35.2538895578,129.0549922383,"관광,문화"
국토정중앙천문대,강원특별자치도,38.0689929629,128.0296994153,"관광,자연"
국형사,강원특별자치도,37.3343389676,128.013500541,"관광,문화"
국화참숯불가마찜질,충청북도,36.6131728142,127.6057410622,"관광,문화"
군남홍수조절지 두루미테마파크,경기도,38.1045561946,127.0215155224,"관광,문화"
군산 개정면 구 일본인농장 창고,전북특별자치도,35.9591972899,126.7973420585,"관광,문화"
군산 말랭이마을,전북특별자치도,35.9860565277,126.7047246433,"관광,문화"
군산 발산리 석등,전북특별자치도,35.9592333856,126.7967004478,"관광,문화"
군산 부윤관사,전북특별자치도,35.984706723,126.7071466842,"관광,문화"
군산 시간여행마을,전북특별자치도,35.9887036766,126.718131709,"관광,문화"
군산 신흥동 일본식가옥(히로쓰 가옥),전북특별자치도,35.9863009684,126.7061578421,"관광,문화"
군산 주 제일사료주식회사 공장,전북특별자치도,35.9887619669,126.71600412,"관광,문화"
군산근대미술관,전북특별자치도,35.9899367776,126.7127710457,"관광,문화"
군산선유도유람선,전북특별자치도,35.811732639,126.4161049225,"관광,문화"
군산어린이교통공원,전북특별자치도,35.9607795808,126.5841527506,"관광,문화"
군산오름,제주특별자치도,33.2532274083,126.3707114017,"관광,자연"
군산항,전북특별자치도,35.9778450739,126.6297121227,"관광,자연"
군위 삼국유사 테마파크,대구광역시,36.1608778549,128.7012896086,"관광,문화"
군위 인각사지,대구광역시,36.1280941271,128.7783948409,"관광,문화"
군위 장곡자연휴양림,대구광역시,36.1298034567,128.8419725161,"관광,자연"
군위 화산산성 전망대,대구광역시,36.0985448169,128.7845256945,"관광,문화"
군위향교,대구광역시,36.2342364933,128.5686353725,"관광,문화"
군자산,충청북도,36.7484456062,127.8797044004,"관광,자연"
군자서원,전라남도,34.7176454948,126.7548381545,"관광,문화"
군창지,충청남도,36.289919862,126.9156172418,"관광,문화"
군탄공원과 전역비,강원특별자치도,38.1584024851,127.3142787595,"관광,문화"
군포 조선백자 요지,경기도,37.3749755933,126.9285420727,"관광,문화"
군포 중앙공원,경기도,37.3616326998,126.9287202074,"관광,문화"
군포시평생학습마을,경기도,37.3589300358,126.9175101912,"관광,문화"
군항마을 역사길,경상남도,35.1534380372,128.6606238022,"관광,문화"
군헌갯벌체험장,충청남도,36.3372356129,126.5325753996,"관광,문화"
군화마을,전북특별자치도,35.4577148782,127.5707003057,"관광,문화"
굴업도,인천광역시,37.1973520849,125.990807372,"관광,자연"
굿데이뮤지엄,경상남도,35.2186517958,128.5975692186,"관광,문화"
궁농항,경상남도,35.0010475573,128.7035269333,"관광,자연"
궁리포구,충청남도,36.5884471203,126.4572117089,"관광,자연"
궁집,경기도,37.6440553404,127.2303930849,"관광,문화"
궁촌항,강원특별자치도,37.3275609841,129.2696991242,"관광,자연"
궁촌해변(궁촌해수욕장),강원특별자치도,37.3243001987,129.2671938924,"관광,자연"
궁평리 해수욕장,경기도,37.123461537,126.6848461741,"관광,자연"
궁평항,경기도,37.1154040748,126.6813494895,"관광,자연"
궁평항광장,경기도,37.1162095733,126.6833853938,"관광,자연"
궁항,전북특별자치도,35.6033517003,126.468772143,"관광,자연"
궁항리조트,전북특별자치도,35.6042349563,126.4701553307,"관광,문화"
궁항마을,경상남도,35.0507115853,127.7763900056,"관광,문화"
궁항어촌체험마을,경상남도,34.810938041,128.3817849882,"관광,문화"
권율장군 이치대첩비,충청남도,36.1323094258,127.353121202,"관광,문화"
권율장군묘,경기도,37.7340564219,126.947477425,"관광,문화"
권정생동화나라,경상북도,36.4613429906,128.6651564519,"관광,문화"
권충민공순절비,충청남도,36.1095241376,127.5665361272,"관광,문화"
궐리사,경기도,37.158780802,127.0627387066,"관광,문화"
귀산서원,경상북도,35.8901254818,129.1610734914,"관광,문화"
귀신사(김제),전북특별자치도,35.7453148338,127.0470225669,"관광,문화"
귀정사(남원),전북특별자치도,35.5124677848,127.4556979287,"관광,문화"
귤림서원,제주특별자치도,33.5060574951,126.5276032002,"관광,문화"
귤의정원 바령,제주특별자치도,33.5054187547,126.7060599339,"관광,문화"
그라스원,경상북도,36.5595469886,128.7348252138,"관광,문화"
그라운드서울,서울특별시,37.5734729769,126.9836425781,"관광,문화"
그랑꼬또 와이너리,경기도,37.2570803681,126.5821435181,"관광,문화"
그래도팜,강원특별자치도,37.2656853714,128.2883972485,"관광,문화"
그런고로,부산광역시,35.1575588567,129.0642468527,"관광,문화"
그리팅맨,경기도,38.1227570607,127.0334166773,"관광,문화"
그림같은수목원,충청남도,36.5198135343,126.6295285338,"관광,자연"
극락암(강원),강원특별자치도,38.3803589804,128.4399885461,"관광,문화"
극락암(양산),경상남도,35.4886883698,129.0646293478,"관광,문화"
근대건축관 (구)조선은행군산지점,전북특별자치도,35.9894201935,126.7141598237,"관광,문화"
근성서원,경상북도,36.4831176547,128.6314810367,"관광,문화"
근화동396청년창업공간,강원특별자치도,37.8743985775,127.7145756095,"관광,문화"
근화수변 문화광장숲,강원특별자치도,37.8787449354,127.695330011,"관광,문화"
글램트리리조트,경기도,37.7863960064,127.3216917642,"관광,문화"
글로리비치해수찜,전라남도,35.352876042,126.3891410344,"관광,문화"
글로벌푸드타운,경상남도,35.2350329338,128.8822939185,"관광,문화"
글빛누리공원,경기도,37.2407598803,127.0444825187,"관광,문화"
금갑해변,전라남도,34.3957932468,126.2773517639,"관광,자연"
금강,전북특별자치도,35.7889155237,127.5300812846,"관광,자연"
금강2경 도보여행길,충청남도,36.0199865334,126.7367014591,"관광,자연"
금강3공구야생초화원,충청남도,36.1537535455,126.9984662032,"관광,자연"
금강공원,부산광역시,35.2200354122,129.0762190978,"관광,문화"
금강공원에코스튜디오,강원특별자치도,37.1860481078,128.4772659729,"관광,문화"
금강굴,강원특별자치도,38.1735618013,128.4884989154,"관광,자연"
금강대도,세종특별자치시,36.4444286252,127.3151939479,"관광,문화"
금강로하스 대청공원 (암석식물원),대전광역시,36.4714477773,127.4726180019,"관광,자연"
금강로하스산호빛공원,대전광역시,36.4541238369,127.4208120024,"관광,문화"
금강미래체험관,전북특별자치도,36.0201953261,126.7648961534,"관광,자연"
금강벼룻길,전북특별자치도,35.9736450341,127.5589376831,"관광,자연"
금강보행교,세종특별자치시,36.4817460765,127.2873176539,"관광,문화"
금강사(강릉),강원특별자치도,37.8062833683,128.6909752621,"관광,문화"
금강사(강진),전라남도,34.6148484054,126.7367672404,"관광,문화"
금강사(부산),부산광역시,35.2250098725,129.0771855435,"관광,문화"
금강송 에코리움,경상북도,36.9747058781,129.2115733698,"관광,자연"
금강습지생태공원,전북특별자치도,36.0232200448,126.7686262966,"관광,자연"
금강식물원,부산광역시,35.2264763727,129.077063292,"관광,자연"
금강아트센터,충청남도,36.4289311787,127.2021461657,"관광,문화"
금강암(보령),충청남도,36.2596410883,126.6571467877,"관광,문화"
금강온천,충청남도,36.4627950745,127.107523183,"관광,문화"
금강정,강원특별자치도,37.185287107,128.4784353347,"관광,문화"
금강하구 철새도래지 (서천),충청남도,36.0228390883,126.7427008479,"관광,자연"
금강하구둑 관광지,충청남도,36.0199809789,126.7367236795,"관광,문화"
금강하구둑(군산),전북특별자치도,36.0159483282,126.7496865132,"관광,자연"
금강호 관광지,전북특별자치도,36.0188815227,126.7611076373,"관광,문화"
금계마을,경상남도,35.4052867067,127.6855387662,"관광,문화"
금곡공원,경기도,37.3569503604,127.1092178288,"관광,문화"
금곡동 율리 바위그늘유적,부산광역시,35.2505392944,129.0204258972,"관광,문화"
금곡동 제철유적,광주광역시,35.1375438681,126.9928789967,"관광,문화"
금곡사,경상북도,35.9349679404,129.1771930201,"관광,문화"
금곡사(강진),전라남도,34.6665182806,126.7775318464,"관광,문화"
금곡사(칠곡),경상북도,36.0662498254,128.5579577187,"관광,문화"
금곡사삼층석탑,전라남도,34.6664321757,126.7773457532,"관광,문화"
금곡서원,충청남도,36.1181229996,127.0843677982,"관광,문화"
금곡서원,경상북도,36.694350431,128.4067338453,"관광,문화"
금곡소류지,충청북도,36.9885137055,127.9469943135,"관광,자연"
금곡영화마을,전라남도,35.3952103506,126.7341759844,"관광,문화"
금곡해수욕장,전라남도,34.3121999203,126.9625658558,"관광,자연"
금관총,경상북도,35.8411402671,129.2098206119,"관광,문화"
금광관광농원,경기도,36.9594480435,127.3609006526,"관광,문화"
금광호수공원,경기도,36.9982901936,127.3278608807,"관광,문화"
금구향교,전북특별자치도,35.7730499516,127.0112444754,"관광,문화"
금남로,광주광역시,35.1538517467,126.9106747413,"관광,문화"
금남로공원 금남나비정원,광주광역시,35.1497384037,126.9155133057,"관광,문화"
금능돌담해변길,제주특별자치도,33.3903433609,126.2290650973,"관광,자연"
금능석물원,제주특별자치도,33.3854910837,126.2267487402,"관광,자연"
금능포구,제주특별자치도,33.3902295795,126.2351090186,"관광,문화"
금능해수욕장,제주특별자치도,33.3903434702,126.2360339355,"관광,자연"
금당계곡,강원특별자치도,37.4824623569,128.3942007364,"관광,자연"
금당사(진안),전북특별자치도,35.7580472554,127.3974855339,"관광,문화"
금대계곡,강원특별자치도,37.2604729903,128.0401447403,"관광,자연"
금대봉야생화 군락지,강원특별자치도,37.225219027,128.9355209895,"관광,자연"
금대암,경상남도,35.4077222815,127.6706816794,"관광,문화"
금둔사,전라남도,34.9251403691,127.339734338,"관광,문화"
금룡사(제주),제주특별자치도,33.5539724801,126.7536019143,"관광,문화"
금릉경포대,전라남도,34.751938078,126.7076137006,"관광,자연"
금마저수지,전북특별자치도,36.001824683,127.0568399915,"관광,자연"
금봉자연휴양림,경상북도,36.3315255999,128.8746305223,"관광,자연"
금산 바리실마을,충청남도,36.132987391,127.5250141919,"관광,문화"
금산 보리암(남해),경상남도,34.7518848204,127.9827574248,"관광,문화"
금산 천내리 용호석,충청남도,36.1176343626,127.5686801617,"관광,문화"
금산 천내리 용화리 고인돌,충청남도,36.0991311786,127.5834793438,"관광,문화"
금산 충렬사,충청남도,36.1305447819,127.456189836,"관광,문화"
금산공원(납읍난대림지대),제주특별자치도,33.4338956949,126.3307108375,"관광,자연"
금산산림문화타운,충청남도,36.0593848289,127.3768904788,"관광,자연"
금산생태숲,충청남도,36.0642341293,127.3685438707,"관광,자연"
금산서원,경상북도,35.9006476473,129.5131256774,"관광,문화"
금산원,전라남도,34.6212433077,126.8076941835,"관광,문화"
금산지구별그림책마을,충청남도,36.1759656162,127.3566363837,"관광,문화"
금산향교,충청남도,36.1109365069,127.490020682,"관광,문화"
금석저수지,충청북도,36.9906878948,127.6130992751,"관광,자연"
금성산(합천),경상남도,35.5167414532,128.0367215303,"관광,자연"
금성산·비봉산(의성),경상북도,36.2622442654,128.709424896,"관광,자연"
금성전파사 새로고침센터,서울특별시,37.5789844381,127.0387485112,"관광,문화"
금수사(부산),부산광역시,35.1204207111,129.029678653,"관광,문화"
금수산,충청북도,36.9849337572,128.2568666205,"관광,자연"
금시당,경상남도,35.4872722244,128.7840483695,"관광,문화"
금암문화공원,서울특별시,37.64440244,126.9179965551,"관광,문화"
금암체육공원,경기도,37.1119912753,127.0351647265,"관광,문화"
금오도,전라남도,34.5225925094,127.7494836083,"관광,자연"
금오랜드 놀이동산,경상북도,36.1133483448,128.3156083922,"관광,문화"
금오름,제주특별자치도,33.3555289743,126.3059091921,"관광,자연"
금오산성,경상북도,36.1025188973,128.3089370629,"관광,문화"
금오산전망대,경상남도,34.992033723,127.870991562,"관광,문화"
금오저수지(금오산저수지),경상북도,36.1178450814,128.3170220306,"관광,자연"
금왕사,경상남도,34.7788787861,127.9692634648,"관광,문화"
금용사(대구),대구광역시,35.847724642,128.5605830316,"관광,문화"
금용암(부산),부산광역시,35.1916075512,129.049663856,"관광,문화"
금원산,경상남도,35.7310428434,127.7610206977,"관광,자연"
금원산자연휴양림,경상남도,35.7262217846,127.7957260893,"관광,자연"
금은모래강변공원,경기도,37.289412839,127.6719437835,"관광,문화"
금장대,경상북도,35.8606434549,129.2010291602,"관광,문화"
금장대 수변공원,경상북도,35.8609989625,129.2006319626,"관광,문화"
금정사,경상남도,34.9782599451,127.8524768739,"관광,문화"
금정산성,부산광역시,35.2553921199,129.052442419,"관광,문화"
금정산성 동문,부산광역시,35.2453406867,129.0642277794,"관광,문화"
금정산성 막걸리,부산광역시,35.2504233066,129.0564227644,"관광,문화"
금정산성마을 먹거리촌,부산광역시,35.2513870387,129.0538229642,"관광,문화"
금진항(강릉),강원특별자치도,37.6526359384,129.0518502796,"관광,자연"
금진해변,강원특별자치도,37.6395761724,129.043512544,"관광,자연"
금천 체육공원,서울특별시,19.69442748,117.9925662504,"관광,문화"
금천 폭포공원,서울특별시,37.4464529821,126.9044811476,"관광,문화"
금천골 석탄층,강원특별자치도,37.0988152834,128.9969915276,"관광,자연"
금천예술공장,서울특별시,37.4688834875,126.8919733235,"관광,문화"
금풀애마을,강원특별자치도,37.9775572269,128.6534816988,"관광,문화"
금풍양조장,인천광역시,37.6386205364,126.4913773782,"관광,문화"
금학생태공원,충청남도,36.4339097854,127.1239113799,"관광,자연"
금호리조트 제주,제주특별자치도,33.2737526275,126.7028238197,"관광,문화"
금호리조트 제주아쿠아나,제주특별자치도,33.2737526275,126.7028238197,"관광,문화"
금호리조트 화순아쿠아나,전라남도,35.1637952347,127.0841702727,"관광,문화"
금호못유원지,경상남도,35.2144859553,128.1543220165,"관광,문화"
금호서원,경상북도,35.6800122795,128.669828069,"관광,문화"
금호서원(경산),경상북도,35.9038422272,128.8032850952,"관광,문화"
금호재,경상남도,35.6112050108,128.4554710186,"관광,문화"
금호지,경상남도,35.2076617092,128.15355282,"관광,자연"
금호통영마리나리조트,경상남도,34.8276177725,128.4401294699,"관광,문화"
금화계곡,경상북도,36.0512431754,128.5569248972,"관광,자연"
금화서원,충청북도,36.421546623,127.7092204402,"관광,문화"
금화지,경상북도,36.0619280076,128.5533249158,"관광,자연"
급수대 주상절리,경상북도,36.3964180016,129.1559482277,"관광,자연"
급치산전망대,전라남도,34.4118608191,126.100139214,"관광,문화"
기강서원,경상남도,35.3870515814,128.404423253,"관광,문화"
기독교인 순교지,전라남도,35.2123001016,126.3767928179,"관광,문화"
기동 삼거리 벽화,전라남도,34.838329695,126.1117559185,"관광,문화"
기린봉,전북특별자치도,35.8179420242,127.1693153486,"관광,자연"
기림사,경상북도,35.8377165388,129.4031454455,"관광,문화"
기미3.1운동비,전북특별자치도,35.5857668766,127.4018480026,"관광,문화"
기미만세공원,강원특별자치도,37.7848532123,128.1468223564,"관광,문화"
기박산성 의병 역사공원,울산광역시,35.6674407548,129.3753305154,"관광,문화"
기배역사공원,경기도,37.2146923683,126.983647097,"관광,문화"
기백산,경상남도,35.6874394914,127.7632188894,"관광,자연"
기범이네국수,충청남도,36.1047955091,127.4882654482,"관광,문화"
기사문마을,강원특별자치도,38.0092605575,128.7283128303,"관광,문화"
기사문항,강원특별자치도,38.0059498772,128.730715494,"관광,자연"
기산저수지,경기도,37.7778542211,126.954314439,"관광,자연"
기성망양해수욕장,경상북도,36.8525488916,129.419730794,"관광,자연"
기암 단애,경상북도,36.3964180016,129.1559482277,"관광,자연"
기암서원,충청북도,36.6573226728,127.5706457606,"관광,문화"
기양서당,경상북도,36.5515986928,128.9238420107,"관광,문화"
기양서원,경상남도,35.2990139264,128.5390305031,"관광,문화"
기억의 터(일본군 위안부),서울특별시,37.5591608706,126.9902812673,"관광,문화"
기억저장소뜨듯 협동조합,경상남도,35.3221550219,128.8024929498,"관광,문화"
기우산(정선),강원특별자치도,37.3564822114,128.6731377641,"관광,자연"
기적의놀이터 3호,전라남도,34.9879999523,127.5004019587,"관광,문화"
기적의놀이터 4호,전라남도,34.9672911308,127.4981582388,"관광,문화"
기지제·기지제 수변공원,전북특별자치도,35.8413069939,127.0645268438,"관광,문화"
기지포해수욕장,충청남도,36.5627783257,126.3223634527,"관광,자연"
기차산 해골바위,전북특별자치도,35.9701444451,127.3455178741,"관광,자연"
기찬 자연휴양림,전라남도,34.6934984059,126.5989191387,"관광,자연"
기천서원,경상북도,36.6318226091,128.31851017,"관광,문화"
기천서원지,경기도,37.3926482918,127.5297120148,"관광,문화"
기청산식물원,경상북도,36.1957719328,129.3326662823,"관광,자연"
기촌마을,전라남도,35.2008944215,127.6023458624,"관광,문화"
기화리 코끼리바위,강원특별자치도,37.3068213293,128.5308714664,"관광,자연"
기흥레스피아호수공원,경기도,37.2521622683,127.0964747064,"관광,문화"
기흥맛깔촌,경기도,37.2684716682,127.1063205788,"관광,문화"
기흥호수공원,경기도,37.2406720138,127.1010829441,"관광,문화"
기흥호수공원 반려동물놀이터,경기도,37.2541259244,127.0961802344,"관광,문화"
긴고랑계곡,서울특별시,37.5619402315,127.0962659796,"관광,자연"
긴고랑공원,서울특별시,37.5589071568,127.0910359861,"관광,문화"
길상도예,서울특별시,37.48583681,127.0324406141,"관광,문화"
길상사(서울),서울특별시,37.5985980194,126.9939575925,"관광,문화"
길안천지생태공원,경상북도,36.4560757618,128.8983526025,"관광,자연"
길음역롯데캐슬트윈골드상가,서울특별시,37.6038534948,127.0234880845,"관광,문화"
길치문화공원,대전광역시,36.3582188095,127.4580085119,"관광,문화"
김공 휘 유경 효자문·김공 휘 홍익 충신문,충청남도,36.7386197498,126.5176550445,"관광,문화"
김광석다시그리기길,대구광역시,35.8614600628,128.6074868512,"관광,문화"
김녕 청굴물,제주특별자치도,33.5580358818,126.7512770228,"관광,자연"
김녕성세기해변 (김녕해수욕장),제주특별자치도,33.5566778337,126.7596485488,"관광,자연"
김녕항 / 김녕포구,제주특별자치도,33.5580773628,126.7400446641,"관광,자연"
김대기가옥,경상북도,36.6927340151,128.4102502449,"관광,문화"
김대중 대통령 생가,전라남도,34.6312850316,126.0295930844,"관광,문화"
김대중대교,전라남도,34.9086420861,126.3362510258,"관광,문화"
김면장군유적,경상북도,35.7161615759,128.2466643145,"관광,문화"
김명희 갤러리,경기도,37.6223673934,127.4484099859,"관광,문화"
김민부전망대,부산광역시,35.1177100066,129.0352504641,"관광,문화"
김범우의 집,전라남도,34.8514347421,127.338550187,"관광,문화"
김병호고가,경기도,37.5352716943,127.5861750016,"관광,문화"
김삿갓 계곡,강원특별자치도,37.1205109135,128.6085978126,"관광,자연"
김삿갓 묘역,강원특별자치도,37.0832567338,128.6018800715,"관광,문화"
김상옥 생가,경상남도,34.8430768358,128.4222556203,"관광,문화"
김성래 가옥,강원특별자치도,37.9873605468,128.7398902422,"관광,문화"
김수환 추기경 사랑과 나눔공원,대구광역시,36.2323400809,128.6006187064,"관광,문화"
김완장군묘소 및 신도비,전라남도,34.8688373242,126.6179132069,"관광,문화"
김일성 별장,강원특별자치도,38.4725399459,128.4431686945,"관광,문화"
김정묘역 문인석,강원특별자치도,37.8407580211,127.7132322839,"관광,문화"
김정선생묘소일원,대전광역시,36.3576223794,127.4986187867,"관광,문화"
김제 벽골제,전북특별자치도,35.7546687724,126.8531173673,"관광,문화"
김제 외갓집마을,전북특별자치도,35.8102897341,126.9865790389,"관광,문화"
김제남 신도비,강원특별자치도,37.3425150029,127.8208871289,"관광,문화"
김제평야,전북특별자치도,35.8814342518,126.8158007576,"관광,자연"
김제향교,전북특별자치도,35.8005751109,126.8795082765,"관광,문화"
김종길 가옥,강원특별자치도,37.2708259899,128.2641992732,"관광,문화"
김좌진장군 사당,충청남도,36.5971477086,126.5497114618,"관광,문화"
김좌진장군동상,충청남도,36.6006466317,126.6715114919,"관광,문화"
김좌진장군묘,충청남도,36.4566455817,126.6173118598,"관광,문화"
김중업 건축박물관(옛 유유산업 공장),경기도,37.4177982109,126.9177585209,"관광,문화"
김천 녹색미래과학관,경상북도,36.1246668812,128.1845252479,"관광,문화"
김천 물소리 생태숲,경상북도,36.0376052872,127.9181623799,"관광,자연"
김천 추풍령 테마파크,경상북도,36.2005659822,127.9993506948,"관광,문화"
김천물소리생태숲,경상북도,36.0376052872,127.9181623799,"관광,자연"
김천친환경생태공원,경상북도,36.1193865556,128.0113740871,"관광,자연"
김청풍부원군묘역,강원특별자치도,37.8365977831,127.584621892,"관광,문화"
김택준가옥,강원특별자치도,37.971882165,128.7592834131,"관광,문화"
김포 대명항,경기도,37.6394407719,126.5417171922,"관광,자연"
김포 덕포진,경기도,37.6498366936,126.5366756976,"관광,문화"
김포 문수산성,경기도,37.7421536084,126.5309125334,"관광,문화"
김포 사색의 길,경기도,37.654836213,126.6993634541,"관광,자연"
김포 장릉(원종·인헌왕후) [유네스코 세계유산],경기도,37.6125164284,126.7155881596,"관광,문화"
김포곤충농장,경기도,37.5887310174,126.7555768413,"관광,문화"
김포국제조각공원,경기도,37.7209509632,126.5556803032,"관광,문화"
김포레코파크,경기도,37.6429599974,126.7094545325,"관광,문화"
김포한강야생조류생태공원,경기도,37.654836213,126.6993634541,"관광,자연"
김포함상공원,경기도,37.6400684369,126.5394646034,"관광,문화"
김하인 아트홀 국화꽃향기,강원특별자치도,38.3073694655,128.5414565905,"관광,문화"
김해 대성동 고분군,경상남도,35.236774234,128.872975239,"관광,문화"
김해 봉황대길(봉리단길),경상남도,35.2290390975,128.8788249401,"관광,문화"
김해 봉황동 유적,경상남도,35.2310721346,128.875055769,"관광,문화"
김해 양동리 고분군,경상남도,35.2227385837,128.8122253657,"관광,문화"
김해 와인동굴,경상남도,35.3718164453,128.8208649863,"관광,문화"
김해가야딸기테마파크,경상남도,35.183515811,128.8452985473,"관광,문화"
김해가야테마파크,경상남도,35.2522311829,128.8920398207,"관광,문화"
김해읍성,경상남도,35.237788173,128.8818966557,"관광,문화"
김해천문대,경상남도,35.2532948747,128.8877818303,"관광,자연"
김해향교,경상남도,35.2397407256,128.8815660757,"관광,문화"
김화군민 망향탑,강원특별자치도,38.2530580143,127.4604181049,"관광,문화"
김환기고택,전라남도,34.7528589353,126.1216209659,"관광,문화"
깊은산속 옹달샘,충청북도,37.0256058405,127.751324732,"관광,문화"
깊이울유원지,경기도,37.9205414753,127.168796273,"관광,문화"
까막바위,강원특별자치도,37.5567539213,129.1215275458,"관광,자연"
까치울 먹거리촌 (작동 먹거리촌),경기도,37.5148767499,126.8137180535,"관광,문화"
깡깡이 예술마을,부산광역시,35.0932043968,129.0342206663,"관광,문화"
꺼먹다리,강원특별자치도,38.1060946985,127.7619282638,"관광,문화"
꽃게다리,충청남도,36.5874475719,126.3144107472,"관광,문화"
꽃귤농장,제주특별자치도,33.2398354332,126.4336673503,"관광,문화"
꽃동네제빵소(꽃구움),충청북도,36.8905819037,127.5663340812,"관광,문화"
꽃마을 경주한방병원,경상북도,35.8232589729,129.2109099137,"관광,문화"
꽃마을 경주한방병원,경상북도,35.8235978273,129.2111043317,"관광,문화"
꽃이 머무는 자리,충청남도,36.3939846991,126.8571558373,"관광,문화"
꽃절(화암사),충청북도,36.8994932275,127.6345804712,"관광,문화"
꽃지해수욕장,충청남도,36.5013661578,126.3346639477,"관광,자연"
꽃지해안공원,충청남도,36.4953252189,126.3365944864,"관광,문화"
꾸꾸네,경상북도,35.6838727974,128.9613051651,"관광,문화"
꾸지나무골해수욕장,충청남도,36.9351487451,126.2929090667,"관광,자연"
꿀벌나라테마공원,경상북도,36.0173358745,128.4041393439,"관광,문화"
꿀벌랜드,충청북도,36.7993589239,127.7119624488,"관광,문화"
꿀잼도시 대전홍보관,대전광역시,36.3752377361,127.382198162,"관광,문화"
꿈뜨락몰,전라남도,34.7406317241,127.7325851255,"관광,문화"
꿈브루어리,광주광역시,35.1530714768,126.9223598394,"관광,문화"
꿈의동산,경기도,37.7845991836,127.4833409749,"관광,문화"
꿈팜,경기도,37.697262875,126.913598234,"관광,문화"
끝등 전망대,전라남도,34.5881578476,127.774976953,"관광,문화"
나각산,경상북도,36.3836978599,128.3016048326,"관광,자연"
나곡낚시공원 (바다낚시공원),경상북도,37.117920483,129.377315395,"관광,문화"
나곡해수욕장,경상북도,37.1257472378,129.3708990607,"관광,자연"
나눔농장(부천),경기도,37.5453671886,126.7877417896,"관광,문화"
나눔농장(파주),경기도,37.704241377,126.6885519422,"관광,문화"
나대용생가및묘소,전라남도,35.0551690164,126.6135145853,"관광,문화"
나들목 가족공원,전북특별자치도,35.8763222964,127.0555461746,"관광,문화"
나로도항,전라남도,34.46511053,127.4535469813,"관광,자연"
나리농원,경기도,37.7871554746,127.0837162374,"관광,문화"
나리소전망대,강원특별자치도,37.2649607892,128.5994304506,"관광,자연"
나만갑선생신도비,경기도,37.6344686302,127.1358880788,"관광,문화"
나무와열매 체험농장,제주특별자치도,33.2582230943,126.3080167321,"관광,문화"
나바론하늘길,제주특별자치도,33.9612503055,126.2866221544,"관광,자연"
나바위 성당,전북특별자치도,36.1382803303,126.999427637,"관광,문화"
나본마을,경상남도,35.1824856512,127.7764532489,"관광,문화"
나불도유원지,전라남도,34.7866801399,126.4634816117,"관광,문화"
나빌레라 문화센터,전라남도,35.0306512794,126.7165616324,"관광,문화"
나사해변(나사리해수욕장),울산광역시,35.3568500029,129.340853383,"관광,자연"
나산 솟대 장승공원,전라남도,35.1131624813,126.6144047445,"관광,문화"
나산서원,경상북도,35.7103402698,129.4579998512,"관광,문화"
나석주의사동상,서울특별시,37.5655100385,126.9850482312,"관광,문화"
나아해변,경상북도,35.7088850915,129.4692239131,"관광,자연"
나야 대령 기념비,대구광역시,35.8543419083,128.6337236277,"관광,문화"
나의향수,강원특별자치도,37.8777291406,127.7357319186,"관광,문화"
나주 구진포 장어거리,전라남도,35.0073365059,126.672360559,"관광,문화"
나주 반남 고분군,전라남도,34.9121162677,126.6472234506,"관광,문화"
나주 우습제,전라남도,34.937623434,126.5827229693,"관광,자연"
나주철도공원,전라남도,35.005237329,126.7075130592,"관광,문화"
나주향교,전라남도,35.0334536546,126.7113842427,"관광,문화"
나주호,전라남도,34.947413127,126.8636284818,"관광,자연"
나태주 골목길,충청남도,36.453779712,127.1229192668,"관광,문화"
나포십자뜰철새관찰소,전북특별자치도,36.0358445445,126.8234127339,"관광,자연"
나혜석거리,경기도,37.2640208974,127.0344383354,"관광,문화"
나홀로나무,제주특별자치도,33.3509523839,126.3492166424,"관광,자연"
낙강교,경상북도,36.4578219106,128.2569539318,"관광,문화"
낙강물길공원,경상북도,36.5879083232,128.7709711823,"관광,문화"
낙덕정,전북특별자치도,35.4440088406,126.9710676178,"관광,문화"
낙동강,경상북도,36.0838530046,128.3868640183,"관광,자연"
낙동강 경천대(경천대 전망대),경상북도,36.4582827307,128.2440300692,"관광,문화"
낙동강 생태탐방선,부산광역시,35.1102509254,128.9492081536,"관광,자연"
낙동강문화관,부산광역시,35.1082872241,128.9474416939,"관광,문화"
낙동강철교전망대,경상남도,35.3751161224,128.823470224,"관광,문화"
낙동강하구 (부산 국가지질공원),부산광역시,35.104551505,128.9460085869,"관광,자연"
낙동강하구에코센터,부산광역시,35.1044292944,128.9458947113,"관광,자연"
낙동서원,대구광역시,35.8200052792,128.5454684646,"관광,문화"
낙봉서원,경상북도,36.2011701864,128.3848581362,"관광,문화"
낙산공원,서울특별시,37.5805725621,127.0065125148,"관광,문화"
낙산도립공원,강원특별자치도,38.1161018139,128.6313821755,"관광,자연"
낙산묘각사,서울특별시,37.5755650327,127.0188448663,"관광,문화"
낙산사,강원특별자치도,38.1248562734,128.6273544905,"관광,문화"
낙산사 의상대,강원특별자치도,38.1253701685,128.6307430562,"관광,문화"
낙산항,강원특별자치도,38.1226094051,128.6321235721,"관광,자연"
낙산해수욕장,강원특별자치도,38.1173878185,128.6335763809,"관광,자연"
낙산해안로,강원특별자치도,38.1534358504,128.6051167282,"관광,자연"
낙안돌탑공원,전라남도,34.9069591901,127.3462203378,"관광,문화"
낙안읍성 벚꽃길,전라남도,34.9207459152,127.4722616958,"관광,자연"
낙암서원,경상북도,36.4104275695,128.2704624024,"관광,문화"
낙암정,경상북도,36.5474797741,128.6324513205,"관광,문화"
낙원동 아구찜 거리,서울특별시,37.5732314221,126.9883060491,"관광,문화"
낙원동 포장마차거리,서울특별시,37.5726898327,126.989114324,"관광,문화"
낙원역사공원,경기도,37.0054133917,127.2732572764,"관광,문화"
낙조정,부산광역시,35.1096647018,128.9394840158,"관광,문화"
낙화암,충청남도,36.2920445455,126.9114147845,"관광,문화"
난계 박연선생 생가,충청북도,36.2179947504,127.702432189,"관광,문화"
난고 김삿갓 유적지,강원특별자치도,37.0795432684,128.6017551925,"관광,문화"
난동마을,전라남도,35.2786246128,127.4464936981,"관광,문화"
난정리 전망대,인천광역시,37.7762804449,126.2294947954,"관광,문화"
난정리 해바라기마을 정원,인천광역시,37.7766082017,126.2304808066,"관광,문화"
난정저수지,인천광역시,37.7823547295,126.2291113288,"관광,자연"
난지섬해수욕장,충청남도,37.0470102889,126.4241913673,"관광,자연"
난지한강공원,서울특별시,37.562819678,126.8854129455,"관광,문화"
남가람공원,경상남도,35.1872460687,128.0821985047,"관광,문화"
남가람문화거리,경상남도,35.1873517954,128.0924948211,"관광,문화"
남가람별빛길,경상남도,35.1872460687,128.0821985047,"관광,자연"
남강댐 노을공원,경상남도,35.1612758486,128.0304287282,"관광,문화"
남강댐 물 문화관,경상남도,35.1625312622,128.0303759225,"관광,문화"
남강서원(강진),전라남도,34.6497006546,126.7733187363,"관광,문화"
남강서원(양산),경상남도,35.431393767,129.1577700344,"관광,문화"
남강서원(청도),경상북도,35.6957644184,128.5807243531,"관광,문화"
남강서원(함안),경상남도,35.2773934795,128.3490671625,"관광,문화"
남강이승훈선생동상,서울특별시,37.54883584,127.0763931608,"관광,문화"
남계서원,대구광역시,36.2537618464,128.5576941217,"관광,문화"
남계서원 [유네스코 세계유산],경상남도,35.5488999829,127.7836985415,"관광,문화"
남고문(나주읍성 남문),전라남도,35.0294125943,126.7203752147,"관광,문화"
남고사(전주),전북특별자치도,35.7997439139,127.1589500803,"관광,문화"
남고서원,전북특별자치도,35.5728516987,126.9205021494,"관광,문화"
남곡서원,대구광역시,36.170081723,128.6668423916,"관광,문화"
남관생활문화센터,경상북도,36.34298901,129.064985593,"관광,문화"
남노일 강변,강원특별자치도,37.6726173087,127.7598191249,"관광,자연"
남노일강변유원지,강원특별자치도,37.6779861466,127.7607216628,"관광,자연"
남당 노을 전망대,충청남도,36.5435968637,126.4652510537,"관광,문화"
남당리 행복마을,충청남도,36.1713310502,126.6158889066,"관광,문화"
남당항 해양분수공원,충청남도,36.5377616112,126.476186332,"관광,문화"
남당항어촌마을,충청남도,36.5481408258,126.4676007221,"관광,문화"
남대문 갈치조림골목,서울특별시,37.5597300093,126.9769408005,"관광,문화"
남대문바위,인천광역시,37.169508079,126.3138564363,"관광,자연"
남대천 생태관찰로,강원특별자치도,38.0984151434,128.639726414,"관광,자연"
남대천(강릉),강원특별자치도,37.714116106,128.8263881088,"관광,자연"
남대천(양양),강원특별자치도,38.0653601295,128.6128187705,"관광,자연"
남도한옥민박마을,전라남도,34.5093191952,126.6057535234,"관광,문화"
남도해양열차 에스트레인(S-train),부산광역시,35.1152715223,129.0424332391,"관광,문화"
남망산 조각공원,경상남도,34.841296608,128.42945504,"관광,문화"
남매공원,경상북도,35.8262415607,128.7434258684,"관광,문화"
남매지,경상북도,35.8248417799,128.7467256176,"관광,자연"
남면 벚꽃길,충청남도,36.6717653569,126.298132229,"관광,자연"
남면생활체육공원,강원특별자치도,37.9653448822,128.0807562439,"관광,문화"
남문안당산,전북특별자치도,35.7308250252,126.7349562885,"관광,문화"
남문터광장,전라남도,34.9539395957,127.4831987813,"관광,문화"
남미질부성,경상북도,36.106504589,129.3495673907,"관광,문화"
남복리오층석탑,전북특별자치도,35.615322232,126.7783664828,"관광,문화"
남부산교회,부산광역시,35.1523762699,129.0732462115,"관광,문화"
남사예담촌,경상남도,35.2741948084,127.9364784516,"관광,문화"
남산 야외식물원,서울특별시,37.5426517608,126.994914646,"관광,자연"
남산 팔각정,서울특별시,37.5516394747,126.9876206116,"관광,문화"
남산 화강암 (경북 동해안 국가지질공원),경상북도,35.7949929234,129.221793098,"관광,자연"
남산골한옥마을,서울특별시,37.5597775194,126.9932865315,"관광,문화"
남산마을,전라남도,35.2395395599,127.5733168629,"관광,문화"
남산사(정읍),전북특별자치도,35.6085077687,126.8623314089,"관광,문화"
남산서울타워,서울특별시,37.5511089858,126.9878983791,"관광,문화"
남산서원(김제),전북특별자치도,35.8403168659,126.82459548,"관광,문화"
남산순환나들길,서울특별시,37.5549112997,126.9866844934,"관광,자연"
남산예장공원,서울특별시,37.5605217984,126.9888869118,"관광,문화"
남산인권숲,서울특별시,37.5588942261,126.9898035408,"관광,자연"
남서일몰전망대,경상북도,37.4681514412,130.8322392102,"관광,문화"
남선창고터,부산광역시,35.1167962983,129.0395112298,"관광,문화"
남성리해수욕장,전라남도,34.5203452409,127.4075163003,"관광,자연"
남성재,경상북도,35.9735724669,129.352948715,"관광,문화"
남악서원,경상남도,35.0763157913,128.1779263737,"관광,문화"
남애1리해수욕장,강원특별자치도,37.940055678,128.7786270987,"관광,자연"
남애3리해수욕장,강원특별자치도,37.9457079159,128.7845708299,"관광,자연"
남애어촌체험마을,강원특별자치도,37.9445802992,128.7861179475,"관광,문화"
남애항,강원특별자치도,37.9449469437,128.7871622863,"관광,자연"
남애항 스카이워크 전망대,강원특별자치도,37.9451191407,128.7868845282,"관광,문화"
남양마을,경상북도,37.4662627899,130.8332614042,"관광,문화"
남양주 광릉(세조·정희왕후) [유네스코 세계유산],경기도,37.7486449499,127.1751034486,"관광,문화"
남양주 구 팔당역,경기도,37.5443144815,127.2487914923,"관광,문화"
남양주 사릉(정순왕후) [유네스코 세계유산],경기도,37.6440741941,127.197982147,"관광,문화"
남양주 홍릉(고종·명성황후)과 유릉(순종·순명황후·순정황후) [유네스코 세계유산],경기도,37.6315564164,127.2096231122,"관광,문화"
남양주한강공원(삼패지구),경기도,37.5860276716,127.1709446046,"관광,문화"
남양체육공원,경기도,37.2100262312,126.8264670466,"관광,문화"
남양향교,경기도,37.2041375532,126.7998140741,"관광,문화"
남양호(남양황라),경기도,37.0154818785,126.8157344806,"관광,자연"
남연군의 묘,충청남도,36.7185655605,126.623626556,"관광,문화"
남열해돋이해수욕장,전라남도,34.5806370729,127.486916192,"관광,자연"
남원 만인의총,전북특별자치도,35.4183520713,127.3774350742,"관광,문화"
남원 신계리 마애여래좌상,전북특별자치도,35.4347322452,127.3020496499,"관광,문화"
남원 실상사 석장승,전북특별자치도,35.4168289559,127.6347929402,"관광,문화"
남원 아담원,전북특별자치도,35.4406123944,127.4768423766,"관광,자연"
남원 추어마을,전북특별자치도,35.5317428147,127.423311402,"관광,문화"
남원 추어탕 거리,전북특별자치도,35.4005540714,127.3766717134,"관광,문화"
남원 큰엉해안,제주특별자치도,33.2733776834,126.7037237502,"관광,자연"
남원 황산대첩비지,전북특별자치도,35.4579285861,127.5617372032,"관광,문화"
남원 흥부마을,전북특별자치도,35.5196025406,127.5831309193,"관광,문화"
남원관광단지,전북특별자치도,35.4022068955,127.3901038165,"관광,문화"
남원랜드,전북특별자치도,35.4027429759,127.3918814232,"관광,문화"
남원몽심재,전북특별자치도,35.3379944423,127.3747457211,"관광,문화"
남원시 옻칠공예관,전북특별자치도,35.3954460093,127.3589956291,"관광,문화"
남원읍성,전북특별자치도,35.4140497794,127.3773574139,"관광,문화"
남원자연휴양림,전북특별자치도,35.4570177788,127.4140697206,"관광,자연"
남원항공우주천문대,전북특별자치도,35.3991821898,127.3874041336,"관광,자연"
남원향교,전북특별자치도,35.4220656371,127.3830011522,"관광,문화"
남이섬,강원특별자치도,37.7963208193,127.5255090138,"관광,문화"
남이장군묘 (화성),경기도,37.2485107554,126.8317266154,"관광,문화"
남일대해수욕장,경상남도,34.9279921255,128.0980483541,"관광,자연"
남중동 오층 석탑,전북특별자치도,35.9454598536,126.9521452572,"관광,문화"
남지철교,경상남도,35.3860391686,128.4796250208,"관광,문화"
남창계곡,전라남도,35.4590965811,126.8408732314,"관광,자연"
남천계곡,충청북도,37.043101288,128.5107838513,"관광,자연"
남천교 청연루,전북특별자치도,35.8107203432,127.1531753073,"관광,문화"
남천리 산촌생태마을,충청남도,36.4543827541,126.9835984241,"관광,문화"
남태령고개,서울특별시,37.4598001285,126.9869510439,"관광,자연"
남평문씨본리세거지,대구광역시,35.7922579204,128.5183355112,"관광,문화"
남평문씨열녀비,전북특별자치도,35.5865415351,127.387315936,"관광,문화"
남포관아문,충청남도,36.3057377621,126.6093165444,"관광,문화"
남포방조제,충청남도,36.2836057356,126.5374458056,"관광,자연"
남포읍성,충청남도,36.3056238911,126.6095943002,"관광,문화"
남포향교,충청남도,36.3051046667,126.6189490293,"관광,문화"
남포향교 대성전,충청남도,36.3051046667,126.6189490293,"관광,문화"
남한산성 전통음식마을,경기도,37.4767712288,127.1885044553,"관광,문화"
남한산성도립공원 [유네스코 세계유산],경기도,37.4766684605,127.1883850251,"관광,자연"
남한산성행궁,경기도,37.4788986337,127.181530029,"관광,문화"
남항진해변(남항진해수욕장),강원특별자치도,37.7640239384,128.9543444876,"관광,자연"
남해 가인리 화석산지,경상남도,34.8862959385,128.049303698,"관광,자연"
남해 금산 봉수대,경상남도,34.7137728082,128.0050703454,"관광,문화"
남해 냉천갯벌체험장,경상남도,34.9021242983,128.0253164954,"관광,문화"
남해 노량공원,경상남도,34.9350429723,127.8752676604,"관광,문화"
남해 다초지(장평지),경상남도,34.8189957023,127.9227720503,"관광,자연"
남해 상상양떼목장 편백숲,경상남도,34.9360819938,127.8894663906,"관광,문화"
남해 유포어촌체험마을,경상남도,34.8620389909,127.8146803988,"관광,문화"
남해 은점어촌체험마을,경상남도,34.7863432977,128.0524199009,"관광,문화"
남해 이터널저니,경상남도,34.7780101756,127.8524098074,"관광,문화"
남해 척화비,경상남도,34.9419033263,127.8759757544,"관광,문화"
남해 항도어촌체험마을,경상남도,34.7425119775,128.0459827037,"관광,문화"
남해금천갯벌체험장,경상남도,34.8226835119,128.0431808804,"관광,문화"
남해대교,경상남도,34.9416616133,127.8717955718,"관광,문화"
남해대교유람선,경상남도,34.9413227821,127.8729065944,"관광,문화"
남해독일마을,경상남도,34.8000859569,128.0383624398,"관광,문화"
남해보물섬전망대,경상남도,34.7698479386,128.0534091289,"관광,문화"
남해양떼목장 양마르뜨언덕,경상남도,34.7906256571,128.0242500278,"관광,문화"
남해향교,경상남도,34.8431369201,127.8929212611,"관광,문화"
남호서당,경상북도,35.8878461697,128.7685747095,"관광,문화"
남희정,전라남도,35.3053109341,126.9875752343,"관광,문화"
낭도대교(여수),전라남도,34.6253580492,127.5441822888,"관광,문화"
낭도항,전라남도,34.6051602167,127.5387971543,"관광,자연"
낭도해변,전라남도,34.5995692084,127.5407221256,"관광,자연"
낭만포차거리,전라남도,34.7365852485,127.7495170813,"관광,문화"
낭천산림욕장,강원특별자치도,38.1095711534,127.7129937383,"관광,자연"
낭추골 현장체험학습원,충청북도,36.597880342,127.6179042856,"관광,문화"
내나로도,전라남도,34.497168654,127.4885070213,"관광,자연"
내동마을 연꽃단지,경기도,37.1760635581,127.2968253648,"관광,문화"
내리계곡,강원특별자치도,37.1078163555,128.6719841833,"관광,자연"
내린천 포트홀 (강원평화지역 국가지질공원),강원특별자치도,37.9653962072,128.2965060925,"관광,자연"
내맘대로폰케이스 홍대점,서울특별시,37.5512466761,126.9218988345,"관광,문화"
내변산,전북특별자치도,35.6316418721,126.5713122879,"관광,자연"
내산서원,전라남도,35.213185664,126.5172247764,"관광,문화"
내소사(부안),전북특별자치도,35.6122277197,126.5894667158,"관광,문화"
내소사전나무숲길,전북특별자치도,35.6178548254,126.5875750757,"관광,자연"
내송마을,전북특별자치도,35.3978723742,127.4534011141,"관광,문화"
내수전몽돌해변,경상북도,37.5073514326,130.9136390666,"관광,자연"
내심적계곡,강원특별자치도,38.2517414412,128.1928734041,"관광,자연"
내연산보경사시립공원,경상북도,36.253012408,129.3192296849,"관광,자연"
내원사(대전),대전광역시,36.3226600246,127.3600265707,"관광,문화"
내원사(서울),서울특별시,37.6266725544,126.9951622409,"관광,문화"
내원사(양산),경상남도,35.4243713345,129.1041249098,"관광,문화"
내원사계곡(산청),경상남도,35.315240689,127.8079192349,"관광,자연"
내원사계곡(양산),경상남도,35.4362393412,129.0985278462,"관광,자연"
내원암 계곡,울산광역시,35.3991681983,129.2310145451,"관광,자연"
내원암(울산),울산광역시,35.3990459917,129.2310950974,"관광,문화"
내원정사(부산),부산광역시,35.1265891347,129.0117550433,"관광,문화"
내장산 단풍생태공원,전북특별자치도,35.5090642612,126.9069744245,"관광,자연"
내장산 생태탐방원,전북특별자치도,35.5078393677,126.9050690697,"관광,자연"
내장산 워터파크,전북특별자치도,35.5207877681,126.8973999766,"관광,문화"
내장산 케이블카,전북특별자치도,35.4867557082,126.9086276242,"관광,문화"
내장산국립공원,전북특별자치도,35.4868694129,126.898570181,"관광,자연"
내장산수목원,전북특별자치도,35.5099112372,126.8981779623,"관광,자연"
내죽마을,전라남도,35.2068394759,127.5162171811,"관광,문화"
내천못재,경상남도,35.6093817615,128.234398851,"관광,자연"
내평계곡,강원특별자치도,37.3263461536,129.2144540958,"관광,자연"
내포보부상촌,충청남도,36.6912719405,126.6500748968,"관광,문화"
냉천골,충청남도,36.4232431226,126.8955543869,"관광,자연"
냉천공원,강원특별자치도,37.5192498675,129.1193122353,"관광,문화"
너른공원,경기도,37.2100262312,126.8264670466,"관광,문화"
너리굴 문화마을,경기도,37.0414926913,127.2804111794,"관광,문화"
너릿재공원,광주광역시,35.0803774303,126.9535616807,"관광,문화"
너릿재옛길,광주광역시,35.0770528536,126.9564031794,"관광,자연"
널위한딸기농장,경상북도,36.0449964194,128.3930339998,"관광,문화"
넛출선착장,인천광역시,37.2540766945,126.5109889667,"관광,자연"
네이처월드,충청남도,36.6164717773,126.3009584253,"관광,문화"
넥슨컴퓨터박물관,제주특별자치도,33.4721633588,126.4857714937,"관광,문화"
노가리해변,인천광역시,37.241549741,126.4749287027,"관광,자연"
노강서원,경기도,37.7001207881,127.0629900702,"관광,문화"
노계서원,경상북도,36.7959488532,128.4986588215,"관광,문화"
노고산,대전광역시,36.4241507101,127.4891622601,"관광,자연"
노동 저수지,전북특별자치도,35.420190412,126.7080776734,"관광,자연"
노동서원,강원특별자치도,37.7157026777,127.6900519704,"관광,문화"
노들나루공원,서울특별시,37.5130461243,126.9534914781,"관광,문화"
노랑버덩,경상남도,34.7344065936,128.6304959231,"관광,자연"
노량마을(노량어촌체험마을),경상남도,34.9475832061,127.8737702456,"관광,문화"
노량진컵밥거리,서울특별시,37.5135542529,126.9453227635,"관광,문화"
노량항,경상남도,34.9476246875,127.8634905897,"관광,자연"
노력도,전라남도,34.4649217969,126.9663534981,"관광,자연"
노루용추 계곡,경상북도,36.4428455088,129.1273271774,"관광,자연"
노리개운동장,경기도,37.184590308,127.2944586731,"관광,문화"
노리매공원,제주특별자치도,33.2825728584,126.2873540959,"관광,문화"
노리클럽,부산광역시,35.0979378509,128.9184139461,"관광,문화"
노목계곡,충청북도,37.1779249999,128.0844181601,"관광,자연"
노변동 사직단,대구광역시,35.8302347855,128.7019599605,"관광,문화"
노봉서원,경상북도,36.6224176394,128.4414272655,"관광,문화"
노봉해변,강원특별자치도,37.5902995454,129.0956316101,"관광,자연"
노산공원,경상남도,34.925958602,128.0743671434,"관광,자연"
노산사지,경기도,37.6399677501,127.4278002388,"관광,문화"
노산성,강원특별자치도,37.3744526703,128.3977230849,"관광,문화"
노성향교,충청남도,36.2821939432,127.1306204062,"관광,문화"
노은영당,충청북도,36.9225504959,127.4153162237,"관광,문화"
노을공원,전라남도,34.8089954695,126.3657758157,"관광,문화"
노을공원(서울),서울특별시,37.5740543063,126.8755135312,"관광,문화"
노을공원(인천),인천광역시,37.5308435649,126.613333115,"관광,문화"
노음산(노악산),경상북도,36.441645717,128.0915218936,"관광,자연"
노적봉공원,경기도,37.3165116223,126.8550753838,"관광,문화"
노채마을,전북특별자치도,35.8802417533,127.5581096999,"관광,문화"
노추산,강원특별자치도,37.5412681649,128.762082519,"관광,자연"
노치마을,전북특별자치도,35.4025060269,127.5017967198,"관광,문화"
노해체육공원,서울특별시,37.6205219892,127.0783159455,"관광,문화"
노화 북고어촌체험마을,전라남도,34.2271529117,126.5662275864,"관광,문화"
녹동서원,대구광역시,35.7231430831,128.6461261798,"관광,문화"
녹동서원(영암),전라남도,34.7920611498,126.6959304189,"관광,문화"
녹동항,전라남도,34.527437026,127.1326707334,"관광,자연"
녹번서공원,서울특별시,37.6055181816,126.9239887769,"관광,자연"
녹산고향동산,부산광역시,35.154317052,128.8860013488,"관광,문화"
녹산등대,전라남도,36.0625774302,127.2928395524,"관광,자연"
녹색에너지체험관 (광주전남지역본부),광주광역시,35.2274311559,126.8416345612,"관광,문화"
녹차체험마을 제다체험장(용강녹차체험마을),경상남도,35.2318110547,127.6409222213,"관광,문화"
녹향월촌마을,전라남도,34.7414864972,126.7089221728,"관광,문화"
논개사당(의암사),전북특별자치도,35.6437929727,127.5228440978,"관광,문화"
논개생가,전북특별자치도,35.6792101334,127.6212316727,"관광,문화"
논골어린이공원,대전광역시,37.638413447,127.0280339088,"관광,문화"
논공꽃단지,대구광역시,35.7234447363,128.4351558424,"관광,자연"
논산 노성산성,충청남도,36.2954228643,127.1237151149,"관광,문화"
논산 딸기삼촌농장,충청남도,36.2716167254,127.0935017899,"관광,문화"
논산 선샤인스튜디오,충청남도,36.1025445703,127.1042997632,"관광,문화"
논산 연산역 급수탑,충청남도,36.2124170413,127.2007521095,"관광,문화"
논산 탑정호 출렁다리,충청남도,36.1817448126,127.1589150011,"관광,문화"
논산 황산벌참살이마을,충청남도,36.1931114002,127.2284473723,"관광,문화"
논산한옥마을,충청남도,36.2114890274,127.1812566549,"관광,문화"
논짓물,제주특별자치도,33.2365767524,126.3887657618,"관광,자연"
논현포대,인천광역시,37.4019157566,126.7069003852,"관광,문화"
논현포대근린공원,인천광역시,37.4051514742,126.7059142738,"관광,문화"
놀러와외갓집(우리동네협동조합),경상남도,35.3880333679,128.4784778448,"관광,문화"
놀이정원풀빛,경기도,37.2585199309,127.1001214201,"관광,자연"
농산정,경상남도,35.7853373801,128.1098217293,"관광,문화"
농심테마공원,충청북도,36.299705751,127.5966949411,"관광,문화"
농암정,충청북도,36.8273351262,127.4957560869,"관광,자연"
농암종택,경상북도,36.7639014929,128.8849392446,"관광,문화"
농업회사법인 ㈜ 가을농원,충청북도,36.6816703458,127.7499317913,"관광,문화"
농업회사법인 주식회사 공동체공간 수작,전북특별자치도,35.9420628673,127.2631953933,"관광,문화"
농업회사법인주식회사 월출산꽃따리농장,전라남도,34.7208171968,126.5770592937,"관광,문화"
농월정 국민관광지,경상남도,35.6231082262,127.7822217012,"관광,문화"
농촌테마공원 도도리파크,세종특별자치시,36.5981021711,127.2870950569,"관광,문화"
농평마을,전라남도,35.2692389941,127.5736438423,"관광,문화"
높은벌,충청북도,36.2847454728,127.7027969972,"관광,문화"
뇌운계곡,강원특별자치도,37.4152559729,128.3807372883,"관광,자연"
누나서프(힐링로드),경상북도,36.2030273973,129.3708682666,"관광,문화"
누리마루숲,충청남도,36.8146668682,127.1704079466,"관광,문화"
누리천문대,경기도,37.3303638655,126.9153750721,"관광,자연"
누암리신라고분군,충청북도,37.0015217691,127.8627598424,"관광,문화"
누에섬 등대전망대,경기도,37.1872782256,126.6322686486,"관광,자연"
누웨마루거리,제주특별자치도,33.4877839241,126.490304079,"관광,문화"
느러지전망관람대,전라남도,34.9151419552,126.541632705,"관광,문화"
느린호수길,충청남도,36.6338200305,126.7990018882,"관광,자연"
느지리오름 (망오름),제주특별자치도,33.3629135599,126.2607962828,"관광,자연"
느티골산림욕장,충청남도,36.0642341293,127.3685438707,"관광,자연"
늑도,경상남도,34.9231305129,128.0387342214,"관광,자연"
늘푸른공원,인천광역시,37.5422535285,126.6234846479,"관광,문화"
늘푸른체험농원,강원특별자치도,38.2277299623,127.4357544552,"관광,문화"
능강계곡,충청북도,36.9873740369,128.1975635304,"관광,자연"
능골공원,경기도,37.3703378322,127.1167084374,"관광,문화"
능내근린공원,인천광역시,37.6014029692,126.666917918,"관광,문화"
능성세가,대구광역시,35.9215168943,128.5935669594,"관광,문화"
능암온천랜드,충청북도,37.0935239517,127.8023543105,"관광,문화"
능인선원,서울특별시,37.471741586,127.0525947342,"관광,문화"
능파대 (강원평화지역 국가지질공원),강원특별자치도,38.2964459037,128.5499644923,"관광,자연"
능허대지,인천광역시,37.4230649423,126.6425501081,"관광,문화"
다가공원,전북특별자치도,35.814983492,127.1384903912,"관광,문화"
다누리센터4D체험관,충청북도,36.9854608292,128.3708008457,"관광,문화"
다대어촌체험 휴양마을,경상남도,34.7373728897,128.6283154791,"관광,문화"
다대포 꿈의 낙조분수,부산광역시,35.0463945293,128.9680471374,"관광,문화"
다대포생태탐방로,부산광역시,35.0463945293,128.9680471374,"관광,자연"
다대포항,부산광역시,35.0536384548,128.9839261158,"관광,자연"
다대포해수욕장,부산광역시,35.0464195263,128.9680332493,"관광,자연"
다덕약수탕,경상북도,36.9126722189,128.8252568356,"관광,자연"
다라미자운영마을,충청남도,36.7308125436,127.0085303831,"관광,문화"
다람산공원,경기도,37.2173735096,127.0338980205,"관광,문화"
다리안 연성전단대,충청북도,36.9708356497,128.4197468923,"관광,자연"
다리안계곡,충청북도,36.9665000343,128.4196359172,"관광,자연"
다맥 어촌체험마을,경상남도,34.9796530448,127.9430744579,"관광,문화"
다무포하얀마을,경상북도,36.0401470461,129.5789186454,"관광,문화"
다보사(나주),전라남도,35.0472046655,126.6984739338,"관광,문화"
다빈치공방,경기도,38.0282437384,127.0681301357,"관광,문화"
다사항,충청남도,36.0970450569,126.6130299806,"관광,자연"
다산 문화공원,경상북도,35.8139129408,128.4713140549,"관광,문화"
다산생태공원,경기도,37.5144132971,127.298393395,"관광,자연"
다산수변공원,경기도,37.6232950799,127.1442237502,"관광,문화"
다산중앙공원,경기도,37.6251562566,127.1597833908,"관광,문화"
다슬기 초량마을,경상남도,35.1060440602,127.9235978766,"관광,문화"
다올재 협동조합,전라남도,34.9552699552,127.4804989851,"관광,문화"
다옴농촌체험휴양마을,경상남도,35.4623941967,128.0021954658,"관광,문화"
다울관광농원,충청남도,36.8340847919,126.4177421013,"관광,문화"
다이나믹 메이즈 속초점,강원특별자치도,38.2055364158,128.517345299,"관광,문화"
다이나믹 메이즈 제주,제주특별자치도,33.3990984383,126.784749984,"관광,문화"
다이노키즈월드,전북특별자치도,35.9903212399,127.1029417365,"관광,문화"
다천사(정읍),전북특별자치도,35.6524820999,126.9529222247,"관광,문화"
다향농장,전라남도,34.7154364801,127.196516053,"관광,문화"
다향아트밸리,전라남도,34.7158095792,127.0863784907,"관광,문화"
다희연,제주특별자치도,33.4871596654,126.7061797858,"관광,문화"
닥나무한지체험관 콩닥콩닥,전북특별자치도,35.6917169949,126.8177082499,"관광,문화"
닥밭골 벽화마을,부산광역시,35.1143268372,129.0235904594,"관광,문화"
닥실마을,충청남도,36.1043469967,127.5691776982,"관광,문화"
단경골 휴양지,강원특별자치도,37.6729253976,128.9165090423,"관광,문화"
단관공원,강원특별자치도,37.3181926004,127.9592309066,"관광,문화"
단구서원,경상북도,36.0519532359,129.2460308408,"관광,문화"
단대동 닭죽촌,경기도,37.4620251305,127.1560022734,"관광,문화"
단산 저수지,대구광역시,35.9220012197,128.6502036208,"관광,자연"
단속사 정당매,경상남도,35.3212277466,127.8997221113,"관광,자연"
단양 감골 바람개비마을,충청북도,36.9737938867,128.2845227997,"관광,문화"
단양 고수동굴,충청북도,36.9884523536,128.3815386863,"관광,자연"
단양 관광특구,충청북도,36.9876968886,128.3817414679,"관광,문화"
단양 구담봉·옥순봉,충청북도,36.9377501023,128.246921656,"관광,자연"
단양 다리안관광지,충청북도,36.9648335809,128.4208025284,"관광,문화"
단양 방곡도깨비마을,충청북도,36.8284582924,128.3114940378,"관광,문화"
단양 보발재,충청북도,37.035748642,128.4730096702,"관광,자연"
단양 사인암,충청북도,36.8951234215,128.3411255713,"관광,자연"
단양 상상의 거리,충청북도,36.9851997589,128.3714146875,"관광,문화"
단양 신라 적성비,충청북도,36.9440702172,128.3216675591,"관광,문화"
단양 온달동굴,충청북도,37.0628736682,128.492343254,"관광,자연"
단양 적성,충청북도,36.9451117651,128.3217091917,"관광,문화"
단양 향산리 삼층석탑,충청북도,37.0543065796,128.4177585178,"관광,문화"
단양강 잔도,충청북도,36.9780499884,128.3398232796,"관광,자연"
단원조각공원,경기도,37.3150813131,126.8596388971,"관광,문화"
단장 이팝꽃 터널길,경상남도,35.485566801,128.9312688684,"관광,자연"
단천계곡(지리산단천마을계곡),경상남도,35.2745649626,127.6635080107,"관광,자연"
단호박올리고마을,충청남도,36.8936890518,126.7396113552,"관광,문화"
단호사(충주),충청북도,36.9467593263,127.9009357544,"관광,문화"
달고개모시마을,충청남도,36.0657577589,126.8213260294,"관광,문화"
달궁계곡,전북특별자치도,35.3709025582,127.5759326655,"관광,자연"
달기약수탕 (청송 국가지질공원),경상북도,36.4383590741,129.0836033947,"관광,자연"
달기폭포,경상북도,36.4407788321,129.114489483,"관광,자연"
달달구리(주식회사달달구리),전북특별자치도,35.9386699052,127.1668457321,"관광,문화"
달달미깡감귤밭,제주특별자치도,33.280172835,126.6208391094,"관광,문화"
달마사(서울),서울특별시,37.4985229748,126.9626521644,"관광,문화"
달맞이공원,전라남도,35.1653928999,126.6270439999,"관광,문화"
달맞이동산,부산광역시,35.1571305311,129.1821532774,"관광,문화"
달무리수변공원,경상남도,35.3484404902,128.928025711,"관광,문화"
달빛곳간,전북특별자치도,35.4927858852,127.2500360869,"관광,문화"
달빛공원,경상북도,36.3104210905,128.8026763811,"관광,문화"
달빛마을,충청북도,36.3427083572,127.5512311595,"관광,문화"
달빛소리 수목원,전북특별자치도,35.9398452252,127.0330409637,"관광,자연"
달빛야경누리길,울산광역시,35.5787414403,129.3244291381,"관광,문화"
달빛축제공원,인천광역시,37.3953434658,126.6597659732,"관광,문화"
달서목재문화관,대구광역시,35.8232828993,128.5570645747,"관광,문화"
달성 삼가헌 고택,대구광역시,35.9067402418,128.41268888,"관광,문화"
달성 조길방가옥,대구광역시,35.7558520917,128.5817753783,"관광,문화"
달성(현풍)사직단,대구광역시,35.6979145842,128.4513134543,"관광,문화"
달성노을공원,대구광역시,35.7373039257,128.4157405048,"관광,문화"
달성토성마을,대구광역시,35.8732442507,128.5755254501,"관광,문화"
달아공원,경상남도,34.7682375702,128.3993123574,"관광,문화"
달아항,경상남도,34.7682876903,128.4063617423,"관광,자연"
달전리 주상절리 (경북 동해안 국가지질공원),경상북도,36.0283818557,129.2961576738,"관광,자연"
달전망대,경기도,37.3128799318,126.6095617122,"관광,문화"
달창재(달창사랑 협동조합),경상남도,35.6352889794,128.4870814696,"관광,문화"
달창저수지,대구광역시,35.6451514212,128.4688244714,"관광,자연"
달창지 벚꽃길,대구광역시,35.6552722181,128.453369998,"관광,자연"
달천,충청북도,36.7283828233,127.8142330529,"관광,자연"
달천계곡(창원),경상남도,35.2834695202,128.5978896629,"관광,자연"
달천철장유적공원,울산광역시,35.6342825006,129.3290188345,"관광,문화"
달콤딸기농장,경기도,37.2341135554,127.0516209459,"관광,문화"
닭전 골목,강원특별자치도,38.2045712769,128.5902164853,"관광,문화"
담다헌 체험교육관,경기도,37.7121339517,127.1002002199,"관광,문화"
담양 개선사지 석등,전라남도,35.1856132688,126.982742573,"관광,문화"
담양 도래수마을,전라남도,35.4226594756,127.0292907785,"관광,문화"
담양 메타세쿼이아길,전라남도,35.3238535634,127.0041510748,"관광,자연"
담양 메타프로방스,전라남도,35.3226453273,127.001826311,"관광,문화"
담양 명옥헌 원림,전라남도,35.219365244,126.9964127365,"관광,문화"
담양 소쇄원,전라남도,35.184377798,127.0121927787,"관광,문화"
담양 송강정,전라남도,35.2524302279,126.9538017822,"관광,문화"
담양 시목마을,전라남도,35.2677354409,127.0353497364,"관광,문화"
담양 안전체험장(안전보건공단),전라남도,35.3226652741,127.031426468,"관광,문화"
담양 오랑쥬마을,전라남도,35.3297281254,127.0174136401,"관광,문화"
담양 창평 삼지내마을,전라남도,35.2380579619,127.0190630391,"관광,문화"
담양국수거리,전라남도,35.3240531864,126.9833334682,"관광,문화"
담양리조트,전라남도,35.3655464134,127.0243815575,"관광,문화"
담양리조트 온천,전라남도,35.3662018963,127.0244620895,"관광,문화"
담양습지,전라남도,35.2502099612,126.8904463342,"관광,자연"
담양향교,전라남도,35.325841911,126.9855804462,"관광,문화"
담터계곡,강원특별자치도,38.156178211,127.1885986811,"관광,자연"
답다니수국밭,제주특별자치도,33.2438882462,126.4642673842,"관광,자연"
답다니탑망대,제주특별자치도,33.524456743,126.9525853309,"관광,문화"
답십리 영화의 거리,서울특별시,37.5718468286,127.0637714345,"관광,문화"
당거리나루터,경기도,36.9925846885,126.9824477976,"관광,자연"
당골계곡,강원특별자치도,37.1036860559,128.9507399529,"관광,자연"
당너머해수욕장,인천광역시,37.2341515699,126.5306127249,"관광,자연"
당머리하모거리,전라남도,34.729410742,127.7316160509,"관광,문화"
당목항,전라남도,34.3782033922,126.9466739884,"관광,자연"
당사마을,울산광역시,35.5825185165,129.4568174821,"관광,문화"
당사항,울산광역시,35.5830101477,129.4578562669,"관광,자연"
당산,부산광역시,35.1171295005,129.0344088865,"관광,문화"
당산공원,서울특별시,37.5256519597,126.8957130537,"관광,문화"
당산봉,제주특별자치도,33.3078071658,126.1727968238,"관광,자연"
당수체육공원,경기도,37.292952033,126.9433791271,"관광,문화"
당진 백석올미마을,충청남도,36.8222104976,126.7001113049,"관광,문화"
당진 삽교호,충청남도,36.8889410934,126.8248676612,"관광,자연"
당진 안국사지 석탑,충청남도,36.8319707779,126.5572517452,"관광,문화"
당진 필경사,충청남도,36.9520550986,126.7717374178,"관광,문화"
당진농업테마파크,충청남도,36.9139073703,126.6497022801,"관광,문화"
당진천 벚꽃길,충청남도,36.8854049727,126.6420592974,"관광,자연"
당진항만관광공사 (삽교호 함상공원),충청남도,36.8905936723,126.8244037698,"관광,문화"
당진향교,충청남도,36.8926900967,126.6336737489,"관광,문화"
당치마을,전라남도,35.2692389941,127.5736438423,"관광,문화"
당케포구,제주특별자치도,33.3247853896,126.8451186744,"관광,자연"
당포성 (한탄강 유네스코 세계지질공원),경기도,38.0221346645,126.9880737626,"관광,문화"
당포성지,경상남도,34.7929651028,128.3847574221,"관광,문화"
당포항,경상남도,34.7937982953,128.3820770781,"관광,자연"
대가농원,경기도,37.515454864,127.2995543708,"관광,문화"
대가미체육공원,충청북도,36.9806447878,127.9264713812,"관광,문화"
대가야기마문화체험장,경상북도,35.7114235955,128.2672042996,"관광,문화"
대가야생활촌,경상북도,35.7118958019,128.269265216,"관광,문화"
대가야수목원,경상북도,35.7285636871,128.2872603976,"관광,자연"
대가천계곡(무흘구곡),경상북도,35.8282981154,128.2045455257,"관광,자연"
대각사(부산),부산광역시,35.1010840062,129.0307152012,"관광,문화"
대각사(서울),서울특별시,37.5736980971,126.9918001618,"관광,문화"
대각서원,경상남도,35.2235613817,127.9228754212,"관광,문화"
대계서원,전라남도,34.753510854,127.0835000335,"관광,문화"
대곡리암각화,전북특별자치도,35.4091408379,127.3102440309,"관광,문화"
대곡사(의성),경상북도,36.4901509985,128.3771312125,"관광,문화"
대골제(대골저수지),광주광역시,35.0822393155,126.8472126953,"관광,자연"
대관령 관광특구,강원특별자치도,37.6487487373,128.686641589,"관광,문화"
대관령 눈꽃마을,강원특별자치도,37.715965772,128.6767848678,"관광,문화"
대관령 주주파크,강원특별자치도,37.6781790709,128.7075499176,"관광,문화"
대관령아기동물농장,강원특별자치도,37.7976676101,128.8294713643,"관광,문화"
대관령양떼목장,강원특별자치도,37.6876427505,128.7533288363,"관광,문화"
대광사(성남),경기도,37.3467990902,127.1276608844,"관광,문화"
대광사(창원),경상남도,35.1713054381,128.6584651767,"관광,문화"
대광해수욕장,전라남도,35.1034268421,126.0701421506,"관광,자연"
대교천 현무암 협곡 (한탄강 유네스코 세계지질공원),강원특별자치도,38.1832184335,127.2819920962,"관광,자연"
대구 구 동촌역사,대구광역시,35.8901603738,128.6498350987,"관광,문화"
대구 근대골목(근대로의 여행),대구광역시,35.8677811868,128.5867579454,"관광,문화"
대구 달성공원,대구광역시,35.8734025733,128.5759198549,"관광,문화"
대구 대표 도시숲,대구광역시,35.842341849,128.556825178,"관광,문화"
대구 도동 측백나무 숲,대구광역시,35.9182241168,128.6635775484,"관광,자연"
대구 동성로거리,대구광역시,35.8702143803,128.5940850103,"관광,문화"
대구 불로동 고분군,대구광역시,35.9145547565,128.6456570076,"관광,문화"
대구 아쿠아리움,대구광역시,35.8780669221,128.6294594533,"관광,문화"
대구 오토바이골목,대구광역시,35.8722695138,128.5838136357,"관광,문화"
대구 평화시장 닭똥집 골목,대구광역시,35.8827911942,128.6190296845,"관광,문화"
대구경북디자인진흥원,대구광역시,35.8714286996,128.6248600431,"관광,문화"
대구부수성비,대구광역시,35.8753566453,128.6580042373,"관광,문화"
대구섬유박물관,대구광역시,35.9191430272,128.6403212387,"관광,문화"
대구수목원,대구광역시,35.8007431029,128.5200295717,"관광,자연"
대구시민안전테마파크,대구광역시,35.9892388205,128.6919647216,"관광,문화"
대구앞산공원,대구광역시,35.8290189503,128.5890560428,"관광,자연"
대구약령시 한방의료체험타운,대구광역시,35.868258989,128.5909992253,"관광,문화"
대구어린이대공원,대구광역시,35.8467259942,128.6277993617,"관광,문화"
대구창의융합교육원,대구광역시,35.8456399773,128.6262411957,"관광,문화"
대구출판산업지원센터,대구광역시,35.8437827532,128.5242224557,"관광,문화"
대구향교,대구광역시,35.859751711,128.5959906893,"관광,문화"
대굴령마을,강원특별자치도,37.7229426427,128.8150638568,"관광,문화"
대금굴 (대이리 동굴지대),강원특별자치도,37.3259535342,129.0205714417,"관광,자연"
대기 농촌체험휴양마을,경상남도,35.4621581052,128.0018371703,"관광,문화"
대덕숲유원지,충청북도,36.6994225812,127.6792126323,"관광,문화"
대도,경상남도,34.9319481233,127.8322770607,"관광,자연"
대둔도,전라남도,34.7290511565,125.4642575694,"관광,자연"
대둔산도립공원(금산),충청남도,36.1374586362,127.3416665299,"관광,자연"
대둔산도립공원(전북),전북특별자치도,36.1172885601,127.3328123047,"관광,자연"
대둔산자연휴양림,충청남도,36.1223131984,127.3448472076,"관광,자연"
대련사(예산),충청남도,36.5872889606,126.7812047382,"관광,문화"
대룡마을,부산광역시,35.3708886464,129.2635125022,"관광,문화"
대리 칠충각,전라남도,35.0556000315,126.9749854093,"관광,문화"
대림동 차이나타운,서울특별시,37.4924530714,126.8975138236,"관광,문화"
대림어린이공원,서울특별시,37.491122772,126.9032244523,"관광,문화"
대방녹지공원,경상남도,35.2023082687,128.6999051661,"관광,문화"
대방마을,경상남도,34.9290023706,128.0553798357,"관광,문화"
대방진굴항,경상남도,34.9293829022,128.0564575091,"관광,문화"
대법사(밀양),경상남도,35.4666296259,128.6064811567,"관광,문화"
대법사(여주),경기도,37.2285297562,127.6048821432,"관광,문화"
대복사(남원),전북특별자치도,35.4166215587,127.3686220088,"관광,문화"
대봉감마을(악양대봉감마을),경상남도,35.1429110694,127.7045439293,"관광,문화"
대봉산자연휴양림,경상남도,35.5779815896,127.7150482787,"관광,자연"
대부도,경기도,37.2437208608,126.5852713772,"관광,자연"
대부도 메타세콰이어길,경기도,37.2863268431,126.5745656285,"관광,자연"
대부도 방아머리 음식문화거리,경기도,37.2436764194,126.585151945,"관광,문화"
대부도 종현마을,경기도,37.2804270545,126.5475460277,"관광,문화"
대부도 흘곶 어촌체험 마을,경기도,37.2060107159,126.5493923397,"관광,문화"
대부도공원,경기도,37.2905347955,126.5806788449,"관광,문화"
대부둑공원,경기도,37.2549430248,126.9702055288,"관광,문화"
대산플라워랜드,경상남도,35.3563412794,128.7169689369,"관광,자연"
대섬어촌복합체험공원,전라남도,34.3505189364,126.5211480704,"관광,문화"
대성리 국민관광지,경기도,37.6798927837,127.3795590264,"관광,문화"
대성사(대구),대구광역시,35.8737971315,128.584510754,"관광,문화"
대성사(서울),서울특별시,37.4763181306,127.0134731649,"관광,문화"
대성사(옥천),충청북도,36.3167481418,127.5907283417,"관광,문화"
대성사(이원),충청북도,36.2456816692,127.6136837878,"관광,문화"
대성산지구 전적비,강원특별자치도,38.1775155575,127.5405935748,"관광,문화"
대승령과 대승폭포,강원특별자치도,38.1196152453,128.3415306083,"관광,자연"
대승사(문경),경상북도,36.7498971181,128.2720887078,"관광,문화"
대아저수지(대아호),전북특별자치도,35.9730817321,127.2732436768,"관광,자연"
대야도어촌체험휴양마을,충청남도,36.4669909296,126.4153020146,"관광,문화"
대야산,경상북도,36.6706471601,127.9325213124,"관광,자연"
대야산 용추계곡,경상북도,36.6585600035,127.9514866237,"관광,자연"
대연수목전시원,부산광역시,35.1251964498,129.0986919647,"관광,자연"
대왕수천예래생태공원,제주특별자치도,33.245628634,126.3953094368,"관광,자연"
대왕암 송림,울산광역시,35.4911006709,129.4388882995,"관광,자연"
대왕암공원,울산광역시,35.4904590082,129.4352747432,"관광,문화"
대왕저수지,경기도,37.431121907,127.0864483596,"관광,자연"
대운산,울산광역시,35.3901665277,129.2361865678,"관광,자연"
대운선박,충청북도,36.7611211922,127.8393771,"관광,문화"
대운암(청도),경상북도,35.5905216784,128.782681752,"관광,문화"
대원공원,경기도,37.4340282818,127.1506618859,"관광,문화"
대원사(가평),경기도,37.8947117205,127.5024054516,"관광,문화"
대원사(산청),경상남도,35.3556805591,127.8071737941,"관광,문화"
대원사(충주),충청북도,36.9693294723,127.9291353547,"관광,문화"
대원사계곡,경상남도,35.3563249828,127.8101068526,"관광,자연"
대유평공원,경기도,37.2874813034,126.9915582378,"관광,자연"
대이작도,인천광역시,37.1749176125,126.2587835301,"관광,자연"
대이작도선착장,인천광역시,37.1782837005,126.24784277,"관광,자연"
대장도,전북특별자치도,35.8181426562,126.3945094696,"관광,자연"
대장마을,경상남도,35.414735912,127.858476053,"관광,문화"
대장봉,전북특별자치도,35.8173982984,126.3946150349,"관광,자연"
대저생태공원,부산광역시,35.2098876352,128.9845829117,"관광,자연"
대저수문 생태공원,부산광역시,35.2300382982,128.9924261214,"관광,자연"
대전 신흥사,대전광역시,36.3341528947,127.3453470164,"관광,문화"
대전 엑스포 아쿠아리움,대전광역시,36.3751571874,127.3820481776,"관광,문화"
대전 회덕 동춘당,대전광역시,36.3648816382,127.4412987135,"관광,문화"
대전리 석불입상,전라남도,35.2718199331,127.4527266574,"관광,문화"
대전목재문화체험장,대전광역시,36.3098181812,127.4238601011,"관광,문화"
대전사,경상북도,36.3965927808,129.145407486,"관광,문화"
대전아쿠아리움,대전광역시,36.3101042093,127.4210159026,"관광,문화"
대전엑스포과학공원,대전광역시,36.3759931713,127.3802705364,"관광,문화"
